{
  "type": "FeatureCollection",
  "features": [
    {
      "type": "Feature",
      "geometry": {
        "type": "Point",
        "coordinates": [
          121.0250257,
          14.6037899
        ]
      },
      "properties": {
        "osm_id": 7043457702,
        "osm_type": "nodes",
        "amenity": "restaurant",
        "tourism": null,
        "beds": null,
        "name": "Las Tres Marias Deliciosa Lasa\u00f1a",
        "opening_hours": "Mo-Su 11:00-23:00",
        "shop": null,
        "rooms": null
      }
    },
    {
      "type": "Feature",
      "geometry": {
        "type": "Point",
        "coordinates": [
          121.0233299,
          14.6045229
        ]
      },
      "properties": {
        "osm_id": 5982533396,
        "osm_type": "nodes",
        "amenity": "fast_food",
        "tourism": null,
        "beds": null,
        "name": "AlJm eatery",
        "opening_hours": null,
        "shop": null,
        "rooms": null
      }
    },
    {
      "type": "Feature",
      "geometry": {
        "type": "Point",
        "coordinates": [
          121.0526231,
          14.6016131
        ]
      },
      "properties": {
        "osm_id": 8185964551,
        "osm_type": "nodes",
        "amenity": "cafe",
        "tourism": null,
        "beds": null,
        "name": "UCC. clock work.",
        "opening_hours": null,
        "shop": null,
        "rooms": null
      }
    },
    {
      "type": "Feature",
      "geometry": {
        "type": "Point",
        "coordinates": [
          121.0489538,
          14.6093454
        ]
      },
      "properties": {
        "osm_id": 2166656104,
        "osm_type": "nodes",
        "amenity": "fast_food",
        "tourism": null,
        "beds": null,
        "name": "Aling Banang's",
        "opening_hours": null,
        "shop": null,
        "rooms": null
      }
    },
    {
      "type": "Feature",
      "geometry": {
        "type": "Point",
        "coordinates": [
          121.052155,
          14.6028836
        ]
      },
      "properties": {
        "osm_id": 8754665385,
        "osm_type": "nodes",
        "amenity": "restaurant",
        "tourism": null,
        "beds": null,
        "name": "Pancake House",
        "opening_hours": null,
        "shop": null,
        "rooms": null
      }
    },
    {
      "type": "Feature",
      "geometry": {
        "type": "Point",
        "coordinates": [
          121.0490693,
          14.6010105
        ]
      },
      "properties": {
        "osm_id": 6146807026,
        "osm_type": "nodes",
        "amenity": "restaurant",
        "tourism": null,
        "beds": null,
        "name": "Kimpura",
        "opening_hours": null,
        "shop": null,
        "rooms": null
      }
    },
    {
      "type": "Feature",
      "geometry": {
        "type": "Point",
        "coordinates": [
          121.0365674,
          14.6029221
        ]
      },
      "properties": {
        "osm_id": 6310970774,
        "osm_type": "nodes",
        "amenity": "restaurant",
        "tourism": null,
        "beds": null,
        "name": "Eat Fresh",
        "opening_hours": null,
        "shop": null,
        "rooms": null
      }
    },
    {
      "type": "Feature",
      "geometry": {
        "type": "Point",
        "coordinates": [
          121.0427066,
          14.6051985
        ]
      },
      "properties": {
        "osm_id": 2597847480,
        "osm_type": "nodes",
        "amenity": "restaurant",
        "tourism": null,
        "beds": null,
        "name": "B&T Mexican Kitchen",
        "opening_hours": null,
        "shop": null,
        "rooms": null
      }
    },
    {
      "type": "Feature",
      "geometry": {
        "type": "Point",
        "coordinates": [
          121.0281667,
          14.5954122
        ]
      },
      "properties": {
        "osm_id": 8177948113,
        "osm_type": "nodes",
        "amenity": "fast_food",
        "tourism": null,
        "beds": null,
        "name": "Angel's Burger",
        "opening_hours": null,
        "shop": null,
        "rooms": null
      }
    },
    {
      "type": "Feature",
      "geometry": {
        "type": "Point",
        "coordinates": [
          121.0292074,
          14.609305
        ]
      },
      "properties": {
        "osm_id": 8295568004,
        "osm_type": "nodes",
        "amenity": "fast_food",
        "tourism": null,
        "beds": null,
        "name": "Andok's",
        "opening_hours": null,
        "shop": null,
        "rooms": null
      }
    },
    {
      "type": "Feature",
      "geometry": {
        "type": "Point",
        "coordinates": [
          121.0297301,
          14.5981837
        ]
      },
      "properties": {
        "osm_id": 12247594227,
        "osm_type": "nodes",
        "amenity": "fast_food",
        "tourism": null,
        "beds": null,
        "name": "Big Man Chibugan",
        "opening_hours": null,
        "shop": null,
        "rooms": null
      }
    },
    {
      "type": "Feature",
      "geometry": {
        "type": "Point",
        "coordinates": [
          121.0283102,
          14.5989526
        ]
      },
      "properties": {
        "osm_id": 12247578837,
        "osm_type": "nodes",
        "amenity": "fast_food",
        "tourism": null,
        "beds": null,
        "name": "Chuan Kee Plus",
        "opening_hours": null,
        "shop": null,
        "rooms": null
      }
    },
    {
      "type": "Feature",
      "geometry": {
        "type": "Point",
        "coordinates": [
          121.0277375,
          14.608273
        ]
      },
      "properties": {
        "osm_id": 5904547156,
        "osm_type": "nodes",
        "amenity": "bar",
        "tourism": null,
        "beds": null,
        "name": "BUNSO Videoke Bar",
        "opening_hours": null,
        "shop": null,
        "rooms": null
      }
    },
    {
      "type": "Feature",
      "geometry": {
        "type": "Point",
        "coordinates": [
          121.052842,
          14.6045622
        ]
      },
      "properties": {
        "osm_id": 8923094178,
        "osm_type": "nodes",
        "amenity": "restaurant",
        "tourism": null,
        "beds": null,
        "name": "Feta",
        "opening_hours": null,
        "shop": null,
        "rooms": null
      }
    },
    {
      "type": "Feature",
      "geometry": {
        "type": "Point",
        "coordinates": [
          121.0542874,
          14.6016421
        ]
      },
      "properties": {
        "osm_id": 255071899,
        "osm_type": "nodes",
        "amenity": "restaurant",
        "tourism": null,
        "beds": null,
        "name": "Petra Restaurant",
        "opening_hours": null,
        "shop": null,
        "rooms": null
      }
    },
    {
      "type": "Feature",
      "geometry": {
        "type": "Point",
        "coordinates": [
          121.0521868,
          14.6028131
        ]
      },
      "properties": {
        "osm_id": 3258971700,
        "osm_type": "nodes",
        "amenity": "restaurant",
        "tourism": null,
        "beds": null,
        "name": "Cowrie Grill",
        "opening_hours": null,
        "shop": null,
        "rooms": null
      }
    },
    {
      "type": "Feature",
      "geometry": {
        "type": "Point",
        "coordinates": [
          121.0490983,
          14.6018334
        ]
      },
      "properties": {
        "osm_id": 12278110578,
        "osm_type": "nodes",
        "amenity": "cafe",
        "tourism": null,
        "beds": null,
        "name": "Mango Tree Cafe",
        "opening_hours": null,
        "shop": null,
        "rooms": null
      }
    },
    {
      "type": "Feature",
      "geometry": {
        "type": "Point",
        "coordinates": [
          121.0471475,
          14.6024353
        ]
      },
      "properties": {
        "osm_id": 4177505988,
        "osm_type": "nodes",
        "amenity": "restaurant",
        "tourism": null,
        "beds": null,
        "name": "Razon's of Guagua",
        "opening_hours": null,
        "shop": null,
        "rooms": null
      }
    },
    {
      "type": "Feature",
      "geometry": {
        "type": "Point",
        "coordinates": [
          121.0493334,
          14.6007955
        ]
      },
      "properties": {
        "osm_id": 6141458897,
        "osm_type": "nodes",
        "amenity": "restaurant",
        "tourism": null,
        "beds": null,
        "name": "Manam",
        "opening_hours": null,
        "shop": null,
        "rooms": null
      }
    },
    {
      "type": "Feature",
      "geometry": {
        "type": "Point",
        "coordinates": [
          121.0527264,
          14.6027436
        ]
      },
      "properties": {
        "osm_id": 4535189089,
        "osm_type": "nodes",
        "amenity": "restaurant",
        "tourism": null,
        "beds": null,
        "name": "Dohtonbori",
        "opening_hours": null,
        "shop": null,
        "rooms": null
      }
    },
    {
      "type": "Feature",
      "geometry": {
        "type": "Point",
        "coordinates": [
          121.0520477,
          14.6027331
        ]
      },
      "properties": {
        "osm_id": 11193099108,
        "osm_type": "nodes",
        "amenity": "restaurant",
        "tourism": null,
        "beds": null,
        "name": "TuanTuan",
        "opening_hours": null,
        "shop": null,
        "rooms": null
      }
    },
    {
      "type": "Feature",
      "geometry": {
        "type": "Point",
        "coordinates": [
          121.0510414,
          14.601548
        ]
      },
      "properties": {
        "osm_id": 11075068408,
        "osm_type": "nodes",
        "amenity": "cafe",
        "tourism": null,
        "beds": null,
        "name": "Tim Hortons",
        "opening_hours": null,
        "shop": null,
        "rooms": null
      }
    },
    {
      "type": "Feature",
      "geometry": {
        "type": "Point",
        "coordinates": [
          121.0519434,
          14.6021227
        ]
      },
      "properties": {
        "osm_id": 1947182146,
        "osm_type": "nodes",
        "amenity": "restaurant",
        "tourism": null,
        "beds": null,
        "name": "Wafu",
        "opening_hours": null,
        "shop": null,
        "rooms": null
      }
    },
    {
      "type": "Feature",
      "geometry": {
        "type": "Point",
        "coordinates": [
          121.0477871,
          14.6025565
        ]
      },
      "properties": {
        "osm_id": 5326984213,
        "osm_type": "nodes",
        "amenity": "fast_food",
        "tourism": null,
        "beds": null,
        "name": "Go Salads!",
        "opening_hours": null,
        "shop": null,
        "rooms": null
      }
    },
    {
      "type": "Feature",
      "geometry": {
        "type": "Point",
        "coordinates": [
          121.0466349,
          14.6022391
        ]
      },
      "properties": {
        "osm_id": 13061391745,
        "osm_type": "nodes",
        "amenity": "fast_food",
        "tourism": null,
        "beds": null,
        "name": "Dunkin'",
        "opening_hours": null,
        "shop": null,
        "rooms": null
      }
    },
    {
      "type": "Feature",
      "geometry": {
        "type": "Point",
        "coordinates": [
          121.052909,
          14.6023757
        ]
      },
      "properties": {
        "osm_id": 11568483170,
        "osm_type": "nodes",
        "amenity": "restaurant",
        "tourism": null,
        "beds": null,
        "name": "Ricksha",
        "opening_hours": null,
        "shop": null,
        "rooms": null
      }
    },
    {
      "type": "Feature",
      "geometry": {
        "type": "Point",
        "coordinates": [
          121.0487796,
          14.6014654
        ]
      },
      "properties": {
        "osm_id": 13072128174,
        "osm_type": "nodes",
        "amenity": "cafe",
        "tourism": null,
        "beds": null,
        "name": "BaristArt Coffee",
        "opening_hours": "10:00-21:00",
        "shop": null,
        "rooms": null
      }
    },
    {
      "type": "Feature",
      "geometry": {
        "type": "Point",
        "coordinates": [
          121.0491756,
          14.6018085
        ]
      },
      "properties": {
        "osm_id": 12278110576,
        "osm_type": "nodes",
        "amenity": "restaurant",
        "tourism": null,
        "beds": null,
        "name": "Kettle",
        "opening_hours": null,
        "shop": null,
        "rooms": null
      }
    },
    {
      "type": "Feature",
      "geometry": {
        "type": "Point",
        "coordinates": [
          121.0488035,
          14.6018927
        ]
      },
      "properties": {
        "osm_id": 12278142780,
        "osm_type": "nodes",
        "amenity": "restaurant",
        "tourism": null,
        "beds": null,
        "name": "Tung Lok Seafood",
        "opening_hours": null,
        "shop": null,
        "rooms": null
      }
    },
    {
      "type": "Feature",
      "geometry": {
        "type": "Point",
        "coordinates": [
          121.047339,
          14.6007416
        ]
      },
      "properties": {
        "osm_id": 12243647034,
        "osm_type": "nodes",
        "amenity": "fast_food",
        "tourism": null,
        "beds": null,
        "name": "Souper Xin Jiang",
        "opening_hours": null,
        "shop": null,
        "rooms": null
      }
    },
    {
      "type": "Feature",
      "geometry": {
        "type": "Point",
        "coordinates": [
          121.0423083,
          14.6047278
        ]
      },
      "properties": {
        "osm_id": 5529577341,
        "osm_type": "nodes",
        "amenity": "fast_food",
        "tourism": null,
        "beds": null,
        "name": "McDonald's",
        "opening_hours": null,
        "shop": null,
        "rooms": null
      }
    },
    {
      "type": "Feature",
      "geometry": {
        "type": "Point",
        "coordinates": [
          121.0372031,
          14.5968937
        ]
      },
      "properties": {
        "osm_id": 13008651171,
        "osm_type": "nodes",
        "amenity": "restaurant",
        "tourism": null,
        "beds": null,
        "name": "Tripod's",
        "opening_hours": null,
        "shop": null,
        "rooms": null
      }
    },
    {
      "type": "Feature",
      "geometry": {
        "type": "Point",
        "coordinates": [
          121.0378193,
          14.5978429
        ]
      },
      "properties": {
        "osm_id": 7019409271,
        "osm_type": "nodes",
        "amenity": "restaurant",
        "tourism": null,
        "beds": null,
        "name": "Varra",
        "opening_hours": "Mo off; Tu-Su 17:00-02:00",
        "shop": null,
        "rooms": null
      }
    },
    {
      "type": "Feature",
      "geometry": {
        "type": "Point",
        "coordinates": [
          121.0227491,
          14.6045984
        ]
      },
      "properties": {
        "osm_id": 4907186168,
        "osm_type": "nodes",
        "amenity": "fast_food",
        "tourism": null,
        "beds": null,
        "name": "Andok's",
        "opening_hours": null,
        "shop": null,
        "rooms": null
      }
    },
    {
      "type": "Feature",
      "geometry": {
        "type": "Point",
        "coordinates": [
          121.0486782,
          14.6015068
        ]
      },
      "properties": {
        "osm_id": 12278144371,
        "osm_type": "nodes",
        "amenity": "cafe",
        "tourism": null,
        "beds": null,
        "name": "Tsokolateria",
        "opening_hours": null,
        "shop": null,
        "rooms": null
      }
    },
    {
      "type": "Feature",
      "geometry": {
        "type": "Point",
        "coordinates": [
          121.0490333,
          14.6013854
        ]
      },
      "properties": {
        "osm_id": 12243851910,
        "osm_type": "nodes",
        "amenity": "fast_food",
        "tourism": null,
        "beds": null,
        "name": "Cinnabon",
        "opening_hours": null,
        "shop": null,
        "rooms": null
      }
    },
    {
      "type": "Feature",
      "geometry": {
        "type": "Point",
        "coordinates": [
          121.0526652,
          14.6027046
        ]
      },
      "properties": {
        "osm_id": 4535177091,
        "osm_type": "nodes",
        "amenity": "cafe",
        "tourism": null,
        "beds": null,
        "name": "Carousel Creamery",
        "opening_hours": null,
        "shop": null,
        "rooms": null
      }
    },
    {
      "type": "Feature",
      "geometry": {
        "type": "Point",
        "coordinates": [
          121.0557965,
          14.6010784
        ]
      },
      "properties": {
        "osm_id": 10160930107,
        "osm_type": "nodes",
        "amenity": "marketplace",
        "tourism": null,
        "beds": null,
        "name": "Northeast Greenhills Sunday Market",
        "opening_hours": "Su 06:00-12:00",
        "shop": null,
        "rooms": null
      }
    },
    {
      "type": "Feature",
      "geometry": {
        "type": "Point",
        "coordinates": [
          121.0507913,
          14.6032467
        ]
      },
      "properties": {
        "osm_id": 919492168,
        "osm_type": "nodes",
        "amenity": "restaurant",
        "tourism": null,
        "beds": null,
        "name": "Choi Garden",
        "opening_hours": null,
        "shop": null,
        "rooms": null
      }
    },
    {
      "type": "Feature",
      "geometry": {
        "type": "Point",
        "coordinates": [
          121.0493471,
          14.6010703
        ]
      },
      "properties": {
        "osm_id": 12998732243,
        "osm_type": "nodes",
        "amenity": "restaurant",
        "tourism": null,
        "beds": null,
        "name": "Santouka",
        "opening_hours": null,
        "shop": null,
        "rooms": null
      }
    },
    {
      "type": "Feature",
      "geometry": {
        "type": "Point",
        "coordinates": [
          121.047706,
          14.6025611
        ]
      },
      "properties": {
        "osm_id": 5326959059,
        "osm_type": "nodes",
        "amenity": "restaurant",
        "tourism": null,
        "beds": null,
        "name": "Mary Grace",
        "opening_hours": null,
        "shop": null,
        "rooms": null
      }
    },
    {
      "type": "Feature",
      "geometry": {
        "type": "Point",
        "coordinates": [
          121.0478526,
          14.6023527
        ]
      },
      "properties": {
        "osm_id": 11518590473,
        "osm_type": "nodes",
        "amenity": "restaurant",
        "tourism": null,
        "beds": null,
        "name": "Ph\u1edf H\u00f2a",
        "opening_hours": null,
        "shop": null,
        "rooms": null
      }
    },
    {
      "type": "Feature",
      "geometry": {
        "type": "Point",
        "coordinates": [
          121.0336163,
          14.6043066
        ]
      },
      "properties": {
        "osm_id": 6240872235,
        "osm_type": "nodes",
        "amenity": "fast_food",
        "tourism": null,
        "beds": null,
        "name": "B\u00e1nh M\u00ec Kitchen",
        "opening_hours": null,
        "shop": null,
        "rooms": null
      }
    },
    {
      "type": "Feature",
      "geometry": {
        "type": "Point",
        "coordinates": [
          121.0376975,
          14.5969894
        ]
      },
      "properties": {
        "osm_id": 8768293009,
        "osm_type": "nodes",
        "amenity": "fast_food",
        "tourism": null,
        "beds": null,
        "name": "Bok Korean Fried Chicken",
        "opening_hours": "11:00-03:00",
        "shop": null,
        "rooms": null
      }
    },
    {
      "type": "Feature",
      "geometry": {
        "type": "Point",
        "coordinates": [
          121.0376265,
          14.5972299
        ]
      },
      "properties": {
        "osm_id": 12500329630,
        "osm_type": "nodes",
        "amenity": "restaurant",
        "tourism": null,
        "beds": null,
        "name": "Eraya",
        "opening_hours": "Mo-Th,Su 11:00-23:00; Fr-Sa 11:00-02:00",
        "shop": null,
        "rooms": null
      }
    },
    {
      "type": "Feature",
      "geometry": {
        "type": "Point",
        "coordinates": [
          121.0374248,
          14.597783
        ]
      },
      "properties": {
        "osm_id": 5367559191,
        "osm_type": "nodes",
        "amenity": "restaurant",
        "tourism": null,
        "beds": null,
        "name": "Samgyupsalamat",
        "opening_hours": null,
        "shop": null,
        "rooms": null
      }
    },
    {
      "type": "Feature",
      "geometry": {
        "type": "Point",
        "coordinates": [
          121.038595,
          14.5963233
        ]
      },
      "properties": {
        "osm_id": 11750288450,
        "osm_type": "nodes",
        "amenity": "cafe",
        "tourism": null,
        "beds": null,
        "name": "a. m. espresso",
        "opening_hours": "Mo-Fr 08:00-21:00; Sa-Su 08:00-22:00",
        "shop": null,
        "rooms": null
      }
    },
    {
      "type": "Feature",
      "geometry": {
        "type": "Point",
        "coordinates": [
          121.0382529,
          14.5963337
        ]
      },
      "properties": {
        "osm_id": 11478285812,
        "osm_type": "nodes",
        "amenity": "restaurant",
        "tourism": null,
        "beds": null,
        "name": "Seven Plates",
        "opening_hours": "Mo-Su,PH 10:00-22:00",
        "shop": null,
        "rooms": null
      }
    },
    {
      "type": "Feature",
      "geometry": {
        "type": "Point",
        "coordinates": [
          121.0408034,
          14.5948652
        ]
      },
      "properties": {
        "osm_id": 11613052342,
        "osm_type": "nodes",
        "amenity": "restaurant",
        "tourism": null,
        "beds": null,
        "name": "Korea Garden",
        "opening_hours": "10:00-22:00",
        "shop": null,
        "rooms": null
      }
    },
    {
      "type": "Feature",
      "geometry": {
        "type": "Point",
        "coordinates": [
          121.0377227,
          14.5971868
        ]
      },
      "properties": {
        "osm_id": 8382104859,
        "osm_type": "nodes",
        "amenity": "fast_food",
        "tourism": null,
        "beds": null,
        "name": "Yobe",
        "opening_hours": "Mo-Su 11:00-20:00",
        "shop": null,
        "rooms": null
      }
    },
    {
      "type": "Feature",
      "geometry": {
        "type": "Point",
        "coordinates": [
          121.0493544,
          14.6007626
        ]
      },
      "properties": {
        "osm_id": 6141458898,
        "osm_type": "nodes",
        "amenity": "restaurant",
        "tourism": null,
        "beds": null,
        "name": "Ooma",
        "opening_hours": null,
        "shop": null,
        "rooms": null
      }
    },
    {
      "type": "Feature",
      "geometry": {
        "type": "Point",
        "coordinates": [
          121.049526,
          14.6010466
        ]
      },
      "properties": {
        "osm_id": 1270332369,
        "osm_type": "nodes",
        "amenity": "fast_food",
        "tourism": null,
        "beds": null,
        "name": "Sbarro",
        "opening_hours": null,
        "shop": null,
        "rooms": null
      }
    },
    {
      "type": "Feature",
      "geometry": {
        "type": "Point",
        "coordinates": [
          121.0360977,
          14.6006176
        ]
      },
      "properties": {
        "osm_id": 4246997692,
        "osm_type": "nodes",
        "amenity": "restaurant",
        "tourism": null,
        "beds": null,
        "name": "Oyasumi Ramen",
        "opening_hours": "11:00-21:00",
        "shop": null,
        "rooms": null
      }
    },
    {
      "type": "Feature",
      "geometry": {
        "type": "Point",
        "coordinates": [
          121.0510255,
          14.6033433
        ]
      },
      "properties": {
        "osm_id": 1271279000,
        "osm_type": "nodes",
        "amenity": "restaurant",
        "tourism": null,
        "beds": null,
        "name": "Cibo",
        "opening_hours": null,
        "shop": null,
        "rooms": null
      }
    },
    {
      "type": "Feature",
      "geometry": {
        "type": "Point",
        "coordinates": [
          121.0511595,
          14.6025972
        ]
      },
      "properties": {
        "osm_id": 1270332418,
        "osm_type": "nodes",
        "amenity": "fast_food",
        "tourism": null,
        "beds": null,
        "name": "Tropical Hut",
        "opening_hours": null,
        "shop": null,
        "rooms": null
      }
    },
    {
      "type": "Feature",
      "geometry": {
        "type": "Point",
        "coordinates": [
          121.0504373,
          14.6027895
        ]
      },
      "properties": {
        "osm_id": 393731689,
        "osm_type": "nodes",
        "amenity": "restaurant",
        "tourism": null,
        "beds": null,
        "name": "007",
        "opening_hours": null,
        "shop": null,
        "rooms": null
      }
    },
    {
      "type": "Feature",
      "geometry": {
        "type": "Point",
        "coordinates": [
          121.0237169,
          14.6079033
        ]
      },
      "properties": {
        "osm_id": 12537606591,
        "osm_type": "nodes",
        "amenity": "restaurant",
        "tourism": null,
        "beds": null,
        "name": "Big Bro Milk Tea",
        "opening_hours": null,
        "shop": null,
        "rooms": null
      }
    },
    {
      "type": "Feature",
      "geometry": {
        "type": "Point",
        "coordinates": [
          121.0244744,
          14.6074897
        ]
      },
      "properties": {
        "osm_id": 12537606588,
        "osm_type": "nodes",
        "amenity": "restaurant",
        "tourism": null,
        "beds": null,
        "name": "Kambal Pandesal",
        "opening_hours": null,
        "shop": null,
        "rooms": null
      }
    },
    {
      "type": "Feature",
      "geometry": {
        "type": "Point",
        "coordinates": [
          121.0258331,
          14.6070042
        ]
      },
      "properties": {
        "osm_id": 7011344453,
        "osm_type": "nodes",
        "amenity": "fast_food",
        "tourism": null,
        "beds": null,
        "name": "Pansit ng taga Malabon",
        "opening_hours": null,
        "shop": null,
        "rooms": null
      }
    },
    {
      "type": "Feature",
      "geometry": {
        "type": "Point",
        "coordinates": [
          121.0334682,
          14.6045279
        ]
      },
      "properties": {
        "osm_id": 6239553413,
        "osm_type": "nodes",
        "amenity": "restaurant",
        "tourism": null,
        "beds": null,
        "name": "Hanamaruken Ramen",
        "opening_hours": "Su-Th 11:00-22:00; Fr-Sa 11:00-23:00",
        "shop": null,
        "rooms": null
      }
    },
    {
      "type": "Feature",
      "geometry": {
        "type": "Point",
        "coordinates": [
          121.0222638,
          14.6045374
        ]
      },
      "properties": {
        "osm_id": 5994491131,
        "osm_type": "nodes",
        "amenity": "fast_food",
        "tourism": null,
        "beds": null,
        "name": null,
        "opening_hours": null,
        "shop": null,
        "rooms": null
      }
    },
    {
      "type": "Feature",
      "geometry": {
        "type": "Point",
        "coordinates": [
          121.0264092,
          14.6072156
        ]
      },
      "properties": {
        "osm_id": 6308242056,
        "osm_type": "nodes",
        "amenity": "fast_food",
        "tourism": null,
        "beds": null,
        "name": "Bacolod Lapaz Batchoy",
        "opening_hours": null,
        "shop": null,
        "rooms": null
      }
    },
    {
      "type": "Feature",
      "geometry": {
        "type": "Point",
        "coordinates": [
          121.0228399,
          14.605889
        ]
      },
      "properties": {
        "osm_id": 4907186176,
        "osm_type": "nodes",
        "amenity": "restaurant",
        "tourism": null,
        "beds": null,
        "name": "Aling Lulu's",
        "opening_hours": null,
        "shop": null,
        "rooms": null
      }
    },
    {
      "type": "Feature",
      "geometry": {
        "type": "Point",
        "coordinates": [
          121.0334522,
          14.6045599
        ]
      },
      "properties": {
        "osm_id": 6239553378,
        "osm_type": "nodes",
        "amenity": "restaurant",
        "tourism": null,
        "beds": null,
        "name": "Hugo Grillery",
        "opening_hours": null,
        "shop": null,
        "rooms": null
      }
    },
    {
      "type": "Feature",
      "geometry": {
        "type": "Point",
        "coordinates": [
          121.0362882,
          14.5935505
        ]
      },
      "properties": {
        "osm_id": 13140536195,
        "osm_type": "nodes",
        "amenity": "fast_food",
        "tourism": null,
        "beds": null,
        "name": "Clucked Out",
        "opening_hours": "Mo-Sa 10:00+; Su off",
        "shop": null,
        "rooms": null
      }
    },
    {
      "type": "Feature",
      "geometry": {
        "type": "Point",
        "coordinates": [
          121.0510067,
          14.6033925
        ]
      },
      "properties": {
        "osm_id": 3258971704,
        "osm_type": "nodes",
        "amenity": "restaurant",
        "tourism": null,
        "beds": null,
        "name": "Isdang Pulo",
        "opening_hours": null,
        "shop": null,
        "rooms": null
      }
    },
    {
      "type": "Feature",
      "geometry": {
        "type": "Point",
        "coordinates": [
          121.0382589,
          14.5962921
        ]
      },
      "properties": {
        "osm_id": 12140944465,
        "osm_type": "nodes",
        "amenity": "fast_food",
        "tourism": null,
        "beds": null,
        "name": "Shari Shari",
        "opening_hours": null,
        "shop": null,
        "rooms": null
      }
    },
    {
      "type": "Feature",
      "geometry": {
        "type": "Point",
        "coordinates": [
          121.0489024,
          14.6019133
        ]
      },
      "properties": {
        "osm_id": 12278110579,
        "osm_type": "nodes",
        "amenity": "restaurant",
        "tourism": null,
        "beds": null,
        "name": "Yayoi",
        "opening_hours": null,
        "shop": null,
        "rooms": null
      }
    },
    {
      "type": "Feature",
      "geometry": {
        "type": "Point",
        "coordinates": [
          121.0477625,
          14.602606
        ]
      },
      "properties": {
        "osm_id": 5326982602,
        "osm_type": "nodes",
        "amenity": "fast_food",
        "tourism": null,
        "beds": null,
        "name": "B\u00e1nh M\u00ec Kitchen",
        "opening_hours": null,
        "shop": null,
        "rooms": null
      }
    },
    {
      "type": "Feature",
      "geometry": {
        "type": "Point",
        "coordinates": [
          121.0398182,
          14.5952951
        ]
      },
      "properties": {
        "osm_id": 12724986676,
        "osm_type": "nodes",
        "amenity": "restaurant",
        "tourism": null,
        "beds": null,
        "name": "Menya Kokoro",
        "opening_hours": "10:00-22:30",
        "shop": null,
        "rooms": null
      }
    },
    {
      "type": "Feature",
      "geometry": {
        "type": "Point",
        "coordinates": [
          121.0376238,
          14.5971183
        ]
      },
      "properties": {
        "osm_id": 12229178660,
        "osm_type": "nodes",
        "amenity": "fast_food",
        "tourism": null,
        "beds": null,
        "name": "Abuela Cantina",
        "opening_hours": null,
        "shop": null,
        "rooms": null
      }
    },
    {
      "type": "Feature",
      "geometry": {
        "type": "Point",
        "coordinates": [
          121.045501,
          14.5981244
        ]
      },
      "properties": {
        "osm_id": 11951484383,
        "osm_type": "nodes",
        "amenity": "cafe",
        "tourism": null,
        "beds": null,
        "name": "Pocofino",
        "opening_hours": null,
        "shop": null,
        "rooms": null
      }
    },
    {
      "type": "Feature",
      "geometry": {
        "type": "Point",
        "coordinates": [
          121.0384483,
          14.598855
        ]
      },
      "properties": {
        "osm_id": 3635012757,
        "osm_type": "nodes",
        "amenity": "restaurant",
        "tourism": null,
        "beds": null,
        "name": "Calder\u00f3n",
        "opening_hours": "11:00-22:00",
        "shop": null,
        "rooms": null
      }
    },
    {
      "type": "Feature",
      "geometry": {
        "type": "Point",
        "coordinates": [
          121.0383468,
          14.5962951
        ]
      },
      "properties": {
        "osm_id": 11750265656,
        "osm_type": "nodes",
        "amenity": "bar",
        "tourism": null,
        "beds": null,
        "name": "Raion",
        "opening_hours": "Tu-Su 10:00-19:00 open \"Coffee\"; Tu-Su 18:00-01:00 open \"Cocktails\"",
        "shop": null,
        "rooms": null
      }
    },
    {
      "type": "Feature",
      "geometry": {
        "type": "Point",
        "coordinates": [
          121.0372648,
          14.5982635
        ]
      },
      "properties": {
        "osm_id": 7387988259,
        "osm_type": "nodes",
        "amenity": "cafe",
        "tourism": null,
        "beds": null,
        "name": "Sharetea",
        "opening_hours": null,
        "shop": null,
        "rooms": null
      }
    },
    {
      "type": "Feature",
      "geometry": {
        "type": "Point",
        "coordinates": [
          121.040649,
          14.5975319
        ]
      },
      "properties": {
        "osm_id": 3677543618,
        "osm_type": "nodes",
        "amenity": "restaurant",
        "tourism": null,
        "beds": null,
        "name": "Yuujin",
        "opening_hours": "11:00-15:00,17:30-21:30",
        "shop": null,
        "rooms": null
      }
    },
    {
      "type": "Feature",
      "geometry": {
        "type": "Point",
        "coordinates": [
          121.0376653,
          14.5975438
        ]
      },
      "properties": {
        "osm_id": 10103141522,
        "osm_type": "nodes",
        "amenity": "fast_food",
        "tourism": null,
        "beds": null,
        "name": "Fari\u00f1as Ilocos Empanada",
        "opening_hours": "Mo-Su 10:00-21:00",
        "shop": null,
        "rooms": null
      }
    },
    {
      "type": "Feature",
      "geometry": {
        "type": "Point",
        "coordinates": [
          121.034176,
          14.6068464
        ]
      },
      "properties": {
        "osm_id": 7022847386,
        "osm_type": "nodes",
        "amenity": "cafe",
        "tourism": null,
        "beds": null,
        "name": "Yi Fant",
        "opening_hours": null,
        "shop": null,
        "rooms": null
      }
    },
    {
      "type": "Feature",
      "geometry": {
        "type": "Point",
        "coordinates": [
          121.0337584,
          14.6046015
        ]
      },
      "properties": {
        "osm_id": 6498256262,
        "osm_type": "nodes",
        "amenity": "restaurant",
        "tourism": null,
        "beds": null,
        "name": "Pancake House",
        "opening_hours": "07:00-21:00",
        "shop": null,
        "rooms": null
      }
    },
    {
      "type": "Feature",
      "geometry": {
        "type": "Point",
        "coordinates": [
          121.0341613,
          14.5980824
        ]
      },
      "properties": {
        "osm_id": 6011498239,
        "osm_type": "nodes",
        "amenity": "restaurant",
        "tourism": null,
        "beds": null,
        "name": "Nena Tapsilogan",
        "opening_hours": "Mo-Su 17:00-02:00",
        "shop": null,
        "rooms": null
      }
    },
    {
      "type": "Feature",
      "geometry": {
        "type": "Point",
        "coordinates": [
          121.0402096,
          14.6071971
        ]
      },
      "properties": {
        "osm_id": 1444105973,
        "osm_type": "nodes",
        "amenity": "restaurant",
        "tourism": null,
        "beds": null,
        "name": "Secret Fresh",
        "opening_hours": null,
        "shop": null,
        "rooms": null
      }
    },
    {
      "type": "Feature",
      "geometry": {
        "type": "Point",
        "coordinates": [
          121.0459421,
          14.6028258
        ]
      },
      "properties": {
        "osm_id": 1445182143,
        "osm_type": "nodes",
        "amenity": "restaurant",
        "tourism": null,
        "beds": null,
        "name": "Chic-Boy",
        "opening_hours": null,
        "shop": null,
        "rooms": null
      }
    },
    {
      "type": "Feature",
      "geometry": {
        "type": "Point",
        "coordinates": [
          121.0335061,
          14.6047658
        ]
      },
      "properties": {
        "osm_id": 12920873002,
        "osm_type": "nodes",
        "amenity": "restaurant",
        "tourism": null,
        "beds": null,
        "name": "A1 Family Shabu Shabu",
        "opening_hours": null,
        "shop": null,
        "rooms": null
      }
    },
    {
      "type": "Feature",
      "geometry": {
        "type": "Point",
        "coordinates": [
          121.038407,
          14.5983715
        ]
      },
      "properties": {
        "osm_id": 12655280697,
        "osm_type": "nodes",
        "amenity": "fast_food",
        "tourism": null,
        "beds": null,
        "name": "Maki Haus",
        "opening_hours": null,
        "shop": null,
        "rooms": null
      }
    },
    {
      "type": "Feature",
      "geometry": {
        "type": "Point",
        "coordinates": [
          121.038413,
          14.5963715
        ]
      },
      "properties": {
        "osm_id": 12140944467,
        "osm_type": "nodes",
        "amenity": "fast_food",
        "tourism": null,
        "beds": null,
        "name": "Kaokee",
        "opening_hours": null,
        "shop": null,
        "rooms": null
      }
    },
    {
      "type": "Feature",
      "geometry": {
        "type": "Point",
        "coordinates": [
          121.0396858,
          14.5957488
        ]
      },
      "properties": {
        "osm_id": 12740965186,
        "osm_type": "nodes",
        "amenity": "cafe",
        "tourism": null,
        "beds": null,
        "name": "Mabuhay Craft Coffee",
        "opening_hours": null,
        "shop": null,
        "rooms": null
      }
    },
    {
      "type": "Feature",
      "geometry": {
        "type": "Point",
        "coordinates": [
          121.0384008,
          14.5984023
        ]
      },
      "properties": {
        "osm_id": 5405003868,
        "osm_type": "nodes",
        "amenity": "fast_food",
        "tourism": null,
        "beds": null,
        "name": "Ling Nam",
        "opening_hours": null,
        "shop": null,
        "rooms": null
      }
    },
    {
      "type": "Feature",
      "geometry": {
        "type": "Point",
        "coordinates": [
          121.0405501,
          14.5947732
        ]
      },
      "properties": {
        "osm_id": 11613052343,
        "osm_type": "nodes",
        "amenity": "restaurant",
        "tourism": null,
        "beds": null,
        "name": "Organico",
        "opening_hours": "Mo-Th 07:00-21:30; Fr-Su 07:00-22:30",
        "shop": null,
        "rooms": null
      }
    },
    {
      "type": "Feature",
      "geometry": {
        "type": "Point",
        "coordinates": [
          121.0396472,
          14.5958041
        ]
      },
      "properties": {
        "osm_id": 11941578033,
        "osm_type": "nodes",
        "amenity": "fast_food",
        "tourism": null,
        "beds": null,
        "name": "Bun Run",
        "opening_hours": "06:00-24:00",
        "shop": null,
        "rooms": null
      }
    },
    {
      "type": "Feature",
      "geometry": {
        "type": "Point",
        "coordinates": [
          121.0379471,
          14.5969615
        ]
      },
      "properties": {
        "osm_id": 11914548635,
        "osm_type": "nodes",
        "amenity": "fast_food",
        "tourism": null,
        "beds": null,
        "name": "Bulalo World",
        "opening_hours": null,
        "shop": null,
        "rooms": null
      }
    },
    {
      "type": "Feature",
      "geometry": {
        "type": "Point",
        "coordinates": [
          121.0384633,
          14.5963016
        ]
      },
      "properties": {
        "osm_id": 11750265657,
        "osm_type": "nodes",
        "amenity": "fast_food",
        "tourism": null,
        "beds": null,
        "name": "Bun App\u00e9tit",
        "opening_hours": "11:00-21:00",
        "shop": null,
        "rooms": null
      }
    },
    {
      "type": "Feature",
      "geometry": {
        "type": "Point",
        "coordinates": [
          121.0375496,
          14.5978257
        ]
      },
      "properties": {
        "osm_id": 3610397235,
        "osm_type": "nodes",
        "amenity": "fast_food",
        "tourism": null,
        "beds": null,
        "name": "Nathaniel's",
        "opening_hours": null,
        "shop": null,
        "rooms": null
      }
    },
    {
      "type": "Feature",
      "geometry": {
        "type": "Point",
        "coordinates": [
          121.0377628,
          14.5984461
        ]
      },
      "properties": {
        "osm_id": 9892603919,
        "osm_type": "nodes",
        "amenity": "restaurant",
        "tourism": null,
        "beds": null,
        "name": "Gianetto Pizzeria",
        "opening_hours": "Tu-Su 12:00-20:00",
        "shop": null,
        "rooms": null
      }
    },
    {
      "type": "Feature",
      "geometry": {
        "type": "Point",
        "coordinates": [
          121.0413903,
          14.5972356
        ]
      },
      "properties": {
        "osm_id": 1682598416,
        "osm_type": "nodes",
        "amenity": "restaurant",
        "tourism": null,
        "beds": null,
        "name": "The Century",
        "opening_hours": null,
        "shop": null,
        "rooms": null
      }
    },
    {
      "type": "Feature",
      "geometry": {
        "type": "Point",
        "coordinates": [
          121.0406875,
          14.5948446
        ]
      },
      "properties": {
        "osm_id": 11613126657,
        "osm_type": "nodes",
        "amenity": "cafe",
        "tourism": null,
        "beds": null,
        "name": "Bamb\u016b",
        "opening_hours": null,
        "shop": null,
        "rooms": null
      }
    },
    {
      "type": "Feature",
      "geometry": {
        "type": "Point",
        "coordinates": [
          121.0382019,
          14.5983316
        ]
      },
      "properties": {
        "osm_id": 11296893633,
        "osm_type": "nodes",
        "amenity": "fast_food",
        "tourism": null,
        "beds": null,
        "name": "Uniku",
        "opening_hours": "Mo-Fr 09:30-21:30; Sa-Su 10:00-22:00",
        "shop": null,
        "rooms": null
      }
    },
    {
      "type": "Feature",
      "geometry": {
        "type": "Point",
        "coordinates": [
          121.0460154,
          14.598204
        ]
      },
      "properties": {
        "osm_id": 3111387702,
        "osm_type": "nodes",
        "amenity": "restaurant",
        "tourism": null,
        "beds": null,
        "name": "Pancake House",
        "opening_hours": null,
        "shop": null,
        "rooms": null
      }
    },
    {
      "type": "Feature",
      "geometry": {
        "type": "Point",
        "coordinates": [
          121.0463797,
          14.5978907
        ]
      },
      "properties": {
        "osm_id": 3111387704,
        "osm_type": "nodes",
        "amenity": "fast_food",
        "tourism": null,
        "beds": null,
        "name": "Tapa King",
        "opening_hours": null,
        "shop": null,
        "rooms": null
      }
    },
    {
      "type": "Feature",
      "geometry": {
        "type": "Point",
        "coordinates": [
          121.0355166,
          14.5949462
        ]
      },
      "properties": {
        "osm_id": 10913173335,
        "osm_type": "nodes",
        "amenity": "fast_food",
        "tourism": null,
        "beds": null,
        "name": "Pizzulu",
        "opening_hours": null,
        "shop": null,
        "rooms": null
      }
    },
    {
      "type": "Feature",
      "geometry": {
        "type": "Point",
        "coordinates": [
          121.0385341,
          14.597207
        ]
      },
      "properties": {
        "osm_id": 10547881685,
        "osm_type": "nodes",
        "amenity": "restaurant",
        "tourism": null,
        "beds": null,
        "name": "My Thai Kitchen",
        "opening_hours": null,
        "shop": null,
        "rooms": null
      }
    },
    {
      "type": "Feature",
      "geometry": {
        "type": "Point",
        "coordinates": [
          121.0396173,
          14.597324
        ]
      },
      "properties": {
        "osm_id": 4031006659,
        "osm_type": "nodes",
        "amenity": "cafe",
        "tourism": null,
        "beds": null,
        "name": "Starbucks",
        "opening_hours": null,
        "shop": null,
        "rooms": null
      }
    },
    {
      "type": "Feature",
      "geometry": {
        "type": "Point",
        "coordinates": [
          121.039599,
          14.5972984
        ]
      },
      "properties": {
        "osm_id": 6015391418,
        "osm_type": "nodes",
        "amenity": "restaurant",
        "tourism": null,
        "beds": null,
        "name": "Romantic Baboy",
        "opening_hours": null,
        "shop": null,
        "rooms": null
      }
    },
    {
      "type": "Feature",
      "geometry": {
        "type": "Point",
        "coordinates": [
          121.0379487,
          14.5989124
        ]
      },
      "properties": {
        "osm_id": 4925628929,
        "osm_type": "nodes",
        "amenity": "restaurant",
        "tourism": null,
        "beds": null,
        "name": "Laobeijing",
        "opening_hours": "07:30-22:30",
        "shop": null,
        "rooms": null
      }
    },
    {
      "type": "Feature",
      "geometry": {
        "type": "Point",
        "coordinates": [
          121.0380571,
          14.5995757
        ]
      },
      "properties": {
        "osm_id": 8904587845,
        "osm_type": "nodes",
        "amenity": "restaurant",
        "tourism": null,
        "beds": null,
        "name": "Tra Vinh",
        "opening_hours": "Mo-Su 11:00-20:00",
        "shop": null,
        "rooms": null
      }
    },
    {
      "type": "Feature",
      "geometry": {
        "type": "Point",
        "coordinates": [
          121.0383417,
          14.5988109
        ]
      },
      "properties": {
        "osm_id": 12174494105,
        "osm_type": "nodes",
        "amenity": "fast_food",
        "tourism": null,
        "beds": null,
        "name": "Angus Pares",
        "opening_hours": null,
        "shop": null,
        "rooms": null
      }
    },
    {
      "type": "Feature",
      "geometry": {
        "type": "Point",
        "coordinates": [
          121.0377445,
          14.5978949
        ]
      },
      "properties": {
        "osm_id": 3610397239,
        "osm_type": "nodes",
        "amenity": "cafe",
        "tourism": null,
        "beds": null,
        "name": "Pegi Waffles",
        "opening_hours": "10:00-19:00",
        "shop": null,
        "rooms": null
      }
    },
    {
      "type": "Feature",
      "geometry": {
        "type": "Point",
        "coordinates": [
          121.0404367,
          14.5972249
        ]
      },
      "properties": {
        "osm_id": 12870106289,
        "osm_type": "nodes",
        "amenity": "pub",
        "tourism": null,
        "beds": null,
        "name": "Kauri Taproom",
        "opening_hours": "18:00-02:00",
        "shop": null,
        "rooms": null
      }
    },
    {
      "type": "Feature",
      "geometry": {
        "type": "Point",
        "coordinates": [
          121.039135,
          14.5968683
        ]
      },
      "properties": {
        "osm_id": 13061514200,
        "osm_type": "nodes",
        "amenity": "fast_food",
        "tourism": null,
        "beds": null,
        "name": "The House of Dym Sun",
        "opening_hours": null,
        "shop": null,
        "rooms": null
      }
    },
    {
      "type": "Feature",
      "geometry": {
        "type": "Point",
        "coordinates": [
          121.0331322,
          14.5976709
        ]
      },
      "properties": {
        "osm_id": 4185386386,
        "osm_type": "nodes",
        "amenity": "fast_food",
        "tourism": null,
        "beds": null,
        "name": "Dada's Fried Itik",
        "opening_hours": null,
        "shop": null,
        "rooms": null
      }
    },
    {
      "type": "Feature",
      "geometry": {
        "type": "Point",
        "coordinates": [
          121.0246979,
          14.5988942
        ]
      },
      "properties": {
        "osm_id": 8317663135,
        "osm_type": "nodes",
        "amenity": "cafe",
        "tourism": null,
        "beds": null,
        "name": "Jack's Corner",
        "opening_hours": null,
        "shop": null,
        "rooms": null
      }
    },
    {
      "type": "Feature",
      "geometry": {
        "type": "Point",
        "coordinates": [
          121.0401428,
          14.6072382
        ]
      },
      "properties": {
        "osm_id": 1444105978,
        "osm_type": "nodes",
        "amenity": "restaurant",
        "tourism": null,
        "beds": null,
        "name": "Mao Jia Hunan Cuisine",
        "opening_hours": null,
        "shop": null,
        "rooms": null
      }
    },
    {
      "type": "Feature",
      "geometry": {
        "type": "Point",
        "coordinates": [
          121.0386488,
          14.5963508
        ]
      },
      "properties": {
        "osm_id": 12140944463,
        "osm_type": "nodes",
        "amenity": "fast_food",
        "tourism": null,
        "beds": null,
        "name": "Papeo",
        "opening_hours": null,
        "shop": null,
        "rooms": null
      }
    },
    {
      "type": "Feature",
      "geometry": {
        "type": "Point",
        "coordinates": [
          121.0526232,
          14.6028069
        ]
      },
      "properties": {
        "osm_id": 8754665384,
        "osm_type": "nodes",
        "amenity": "restaurant",
        "tourism": null,
        "beds": null,
        "name": "Salad Stop",
        "opening_hours": null,
        "shop": null,
        "rooms": null
      }
    },
    {
      "type": "Feature",
      "geometry": {
        "type": "Point",
        "coordinates": [
          121.0448892,
          14.6027697
        ]
      },
      "properties": {
        "osm_id": 1108695817,
        "osm_type": "nodes",
        "amenity": "cafe",
        "tourism": null,
        "beds": null,
        "name": "Segafredo",
        "opening_hours": null,
        "shop": null,
        "rooms": null
      }
    },
    {
      "type": "Feature",
      "geometry": {
        "type": "Point",
        "coordinates": [
          121.0412306,
          14.597538
        ]
      },
      "properties": {
        "osm_id": 1682598400,
        "osm_type": "nodes",
        "amenity": "cafe",
        "tourism": null,
        "beds": null,
        "name": "Tokyo Bubble Tea",
        "opening_hours": "10:00-21:00",
        "shop": null,
        "rooms": null
      }
    },
    {
      "type": "Feature",
      "geometry": {
        "type": "Point",
        "coordinates": [
          121.0506226,
          14.6028779
        ]
      },
      "properties": {
        "osm_id": 1271279001,
        "osm_type": "nodes",
        "amenity": "cafe",
        "tourism": null,
        "beds": null,
        "name": "Gloria Jean's Coffee",
        "opening_hours": null,
        "shop": null,
        "rooms": null
      }
    },
    {
      "type": "Feature",
      "geometry": {
        "type": "Point",
        "coordinates": [
          121.0511914,
          14.6037757
        ]
      },
      "properties": {
        "osm_id": 7023844521,
        "osm_type": "nodes",
        "amenity": "restaurant",
        "tourism": null,
        "beds": null,
        "name": "Kanto Freestyle",
        "opening_hours": null,
        "shop": null,
        "rooms": null
      }
    },
    {
      "type": "Feature",
      "geometry": {
        "type": "Point",
        "coordinates": [
          121.0371455,
          14.5966508
        ]
      },
      "properties": {
        "osm_id": 9331091030,
        "osm_type": "nodes",
        "amenity": "restaurant",
        "tourism": null,
        "beds": null,
        "name": "L\u00e1grima",
        "opening_hours": "11:00-22:00",
        "shop": null,
        "rooms": null
      }
    },
    {
      "type": "Feature",
      "geometry": {
        "type": "Point",
        "coordinates": [
          121.0327547,
          14.6042777
        ]
      },
      "properties": {
        "osm_id": 6239553063,
        "osm_type": "nodes",
        "amenity": "fast_food",
        "tourism": null,
        "beds": null,
        "name": "Burger Machine",
        "opening_hours": null,
        "shop": null,
        "rooms": null
      }
    },
    {
      "type": "Feature",
      "geometry": {
        "type": "Point",
        "coordinates": [
          121.0361088,
          14.6005839
        ]
      },
      "properties": {
        "osm_id": 11919383034,
        "osm_type": "nodes",
        "amenity": "fast_food",
        "tourism": null,
        "beds": null,
        "name": "Fat Daddy",
        "opening_hours": "11:00-22:00",
        "shop": null,
        "rooms": null
      }
    },
    {
      "type": "Feature",
      "geometry": {
        "type": "Point",
        "coordinates": [
          121.0324643,
          14.605397
        ]
      },
      "properties": {
        "osm_id": 11462331162,
        "osm_type": "nodes",
        "amenity": "cafe",
        "tourism": null,
        "beds": null,
        "name": "Cooper's Coffee Haus",
        "opening_hours": null,
        "shop": null,
        "rooms": null
      }
    },
    {
      "type": "Feature",
      "geometry": {
        "type": "Point",
        "coordinates": [
          121.0334355,
          14.604587
        ]
      },
      "properties": {
        "osm_id": 6239553374,
        "osm_type": "nodes",
        "amenity": "restaurant",
        "tourism": null,
        "beds": null,
        "name": "Kaya",
        "opening_hours": null,
        "shop": null,
        "rooms": null
      }
    },
    {
      "type": "Feature",
      "geometry": {
        "type": "Point",
        "coordinates": [
          121.0339657,
          14.6043034
        ]
      },
      "properties": {
        "osm_id": 12920954545,
        "osm_type": "nodes",
        "amenity": "restaurant",
        "tourism": null,
        "beds": null,
        "name": "Sicilian Roast",
        "opening_hours": null,
        "shop": null,
        "rooms": null
      }
    },
    {
      "type": "Feature",
      "geometry": {
        "type": "Point",
        "coordinates": [
          121.0376411,
          14.5971288
        ]
      },
      "properties": {
        "osm_id": 12229260428,
        "osm_type": "nodes",
        "amenity": "fast_food",
        "tourism": null,
        "beds": null,
        "name": "Hainan Guys & Friends",
        "opening_hours": "11:00-22:00",
        "shop": null,
        "rooms": null
      }
    },
    {
      "type": "Feature",
      "geometry": {
        "type": "Point",
        "coordinates": [
          121.0509658,
          14.6026984
        ]
      },
      "properties": {
        "osm_id": 1270332380,
        "osm_type": "nodes",
        "amenity": "cafe",
        "tourism": null,
        "beds": null,
        "name": "Cafe France",
        "opening_hours": null,
        "shop": null,
        "rooms": null
      }
    },
    {
      "type": "Feature",
      "geometry": {
        "type": "Point",
        "coordinates": [
          121.0479637,
          14.6014429
        ]
      },
      "properties": {
        "osm_id": 5648564721,
        "osm_type": "nodes",
        "amenity": "restaurant",
        "tourism": null,
        "beds": null,
        "name": "Blue Posts Boiling Crabs and Shrimps",
        "opening_hours": null,
        "shop": null,
        "rooms": null
      }
    },
    {
      "type": "Feature",
      "geometry": {
        "type": "Point",
        "coordinates": [
          121.046652,
          14.6022629
        ]
      },
      "properties": {
        "osm_id": 13061391743,
        "osm_type": "nodes",
        "amenity": "fast_food",
        "tourism": null,
        "beds": null,
        "name": "KFC",
        "opening_hours": null,
        "shop": null,
        "rooms": null
      }
    },
    {
      "type": "Feature",
      "geometry": {
        "type": "Point",
        "coordinates": [
          121.0398377,
          14.5943546
        ]
      },
      "properties": {
        "osm_id": 4539132932,
        "osm_type": "nodes",
        "amenity": "fast_food",
        "tourism": null,
        "beds": null,
        "name": null,
        "opening_hours": null,
        "shop": null,
        "rooms": null
      }
    },
    {
      "type": "Feature",
      "geometry": {
        "type": "Point",
        "coordinates": [
          121.0398541,
          14.5953838
        ]
      },
      "properties": {
        "osm_id": 12740965185,
        "osm_type": "nodes",
        "amenity": "bar",
        "tourism": null,
        "beds": null,
        "name": "Gaea",
        "opening_hours": null,
        "shop": null,
        "rooms": null
      }
    },
    {
      "type": "Feature",
      "geometry": {
        "type": "Point",
        "coordinates": [
          121.0492547,
          14.6010646
        ]
      },
      "properties": {
        "osm_id": 12243621271,
        "osm_type": "nodes",
        "amenity": "restaurant",
        "tourism": null,
        "beds": null,
        "name": "Locavore",
        "opening_hours": null,
        "shop": null,
        "rooms": null
      }
    },
    {
      "type": "Feature",
      "geometry": {
        "type": "Point",
        "coordinates": [
          121.0412249,
          14.5929125
        ]
      },
      "properties": {
        "osm_id": 8911345746,
        "osm_type": "nodes",
        "amenity": "cafe",
        "tourism": null,
        "beds": null,
        "name": "Caf\u00e9 Mabini",
        "opening_hours": "Mo-Su 08:00-21:00",
        "shop": null,
        "rooms": null
      }
    },
    {
      "type": "Feature",
      "geometry": {
        "type": "Point",
        "coordinates": [
          121.0510797,
          14.6015975
        ]
      },
      "properties": {
        "osm_id": 11075068409,
        "osm_type": "nodes",
        "amenity": "restaurant",
        "tourism": null,
        "beds": null,
        "name": "Max's Restaurant",
        "opening_hours": null,
        "shop": null,
        "rooms": null
      }
    },
    {
      "type": "Feature",
      "geometry": {
        "type": "Point",
        "coordinates": [
          121.0512942,
          14.6034543
        ]
      },
      "properties": {
        "osm_id": 1271278990,
        "osm_type": "nodes",
        "amenity": "restaurant",
        "tourism": null,
        "beds": null,
        "name": null,
        "opening_hours": null,
        "shop": null,
        "rooms": null
      }
    },
    {
      "type": "Feature",
      "geometry": {
        "type": "Point",
        "coordinates": [
          121.05038,
          14.6034313
        ]
      },
      "properties": {
        "osm_id": 1271278995,
        "osm_type": "nodes",
        "amenity": "fast_food",
        "tourism": null,
        "beds": null,
        "name": "Papa John's",
        "opening_hours": null,
        "shop": null,
        "rooms": null
      }
    },
    {
      "type": "Feature",
      "geometry": {
        "type": "Point",
        "coordinates": [
          121.0403705,
          14.6070747
        ]
      },
      "properties": {
        "osm_id": 1444105992,
        "osm_type": "nodes",
        "amenity": "restaurant",
        "tourism": null,
        "beds": null,
        "name": "Charlie's Grind and Grill",
        "opening_hours": null,
        "shop": null,
        "rooms": null
      }
    },
    {
      "type": "Feature",
      "geometry": {
        "type": "Point",
        "coordinates": [
          121.0231678,
          14.6052901
        ]
      },
      "properties": {
        "osm_id": 1303029948,
        "osm_type": "nodes",
        "amenity": "fast_food",
        "tourism": null,
        "beds": null,
        "name": "Mang Inasal",
        "opening_hours": null,
        "shop": null,
        "rooms": null
      }
    },
    {
      "type": "Feature",
      "geometry": {
        "type": "Point",
        "coordinates": [
          121.0517187,
          14.6025575
        ]
      },
      "properties": {
        "osm_id": 3258971713,
        "osm_type": "nodes",
        "amenity": "restaurant",
        "tourism": null,
        "beds": null,
        "name": "Tong Yang",
        "opening_hours": null,
        "shop": null,
        "rooms": null
      }
    },
    {
      "type": "Feature",
      "geometry": {
        "type": "Point",
        "coordinates": [
          121.0522996,
          14.6036337
        ]
      },
      "properties": {
        "osm_id": 393732207,
        "osm_type": "nodes",
        "amenity": "restaurant",
        "tourism": null,
        "beds": null,
        "name": "C3 Events",
        "opening_hours": null,
        "shop": null,
        "rooms": null
      }
    },
    {
      "type": "Feature",
      "geometry": {
        "type": "Point",
        "coordinates": [
          121.0375836,
          14.5971051
        ]
      },
      "properties": {
        "osm_id": 4693597206,
        "osm_type": "nodes",
        "amenity": "pub",
        "tourism": null,
        "beds": null,
        "name": "Tori Tori",
        "opening_hours": "11:00-24:00",
        "shop": null,
        "rooms": null
      }
    },
    {
      "type": "Feature",
      "geometry": {
        "type": "Point",
        "coordinates": [
          121.0252816,
          14.6104369
        ]
      },
      "properties": {
        "osm_id": 5904547171,
        "osm_type": "nodes",
        "amenity": "bar",
        "tourism": null,
        "beds": null,
        "name": "Hennesy KTV Bar",
        "opening_hours": null,
        "shop": null,
        "rooms": null
      }
    },
    {
      "type": "Feature",
      "geometry": {
        "type": "Point",
        "coordinates": [
          121.0222002,
          14.6094945
        ]
      },
      "properties": {
        "osm_id": 5994544616,
        "osm_type": "nodes",
        "amenity": "restaurant",
        "tourism": null,
        "beds": null,
        "name": "Ramba's Eatery",
        "opening_hours": "Mo-Sa 08:00-21:00",
        "shop": null,
        "rooms": null
      }
    },
    {
      "type": "Feature",
      "geometry": {
        "type": "Point",
        "coordinates": [
          121.0235492,
          14.6098426
        ]
      },
      "properties": {
        "osm_id": 5994544629,
        "osm_type": "nodes",
        "amenity": "restaurant",
        "tourism": null,
        "beds": null,
        "name": "Aling Banang Eatery",
        "opening_hours": null,
        "shop": null,
        "rooms": null
      }
    },
    {
      "type": "Feature",
      "geometry": {
        "type": "Point",
        "coordinates": [
          121.0478514,
          14.6090999
        ]
      },
      "properties": {
        "osm_id": 5769547391,
        "osm_type": "nodes",
        "amenity": "fast_food",
        "tourism": null,
        "beds": null,
        "name": "Potato Corner",
        "opening_hours": null,
        "shop": null,
        "rooms": null
      }
    },
    {
      "type": "Feature",
      "geometry": {
        "type": "Point",
        "coordinates": [
          121.0516481,
          14.6023104
        ]
      },
      "properties": {
        "osm_id": 10203040311,
        "osm_type": "nodes",
        "amenity": "cafe",
        "tourism": null,
        "beds": null,
        "name": "Dot Coffee",
        "opening_hours": "Mo-Su 07:00-23:00",
        "shop": null,
        "rooms": null
      }
    },
    {
      "type": "Feature",
      "geometry": {
        "type": "Point",
        "coordinates": [
          121.0511912,
          14.6021256
        ]
      },
      "properties": {
        "osm_id": 4916307410,
        "osm_type": "nodes",
        "amenity": "cafe",
        "tourism": null,
        "beds": null,
        "name": "Tita Paring Suman Latik",
        "opening_hours": null,
        "shop": null,
        "rooms": null
      }
    },
    {
      "type": "Feature",
      "geometry": {
        "type": "Point",
        "coordinates": [
          121.0492971,
          14.6017178
        ]
      },
      "properties": {
        "osm_id": 3256854936,
        "osm_type": "nodes",
        "amenity": "restaurant",
        "tourism": null,
        "beds": null,
        "name": "Luk Yuen",
        "opening_hours": null,
        "shop": null,
        "rooms": null
      }
    },
    {
      "type": "Feature",
      "geometry": {
        "type": "Point",
        "coordinates": [
          121.0492385,
          14.6021307
        ]
      },
      "properties": {
        "osm_id": 1348751803,
        "osm_type": "nodes",
        "amenity": "cafe",
        "tourism": null,
        "beds": null,
        "name": "Pancake House",
        "opening_hours": null,
        "shop": null,
        "rooms": null
      }
    },
    {
      "type": "Feature",
      "geometry": {
        "type": "Point",
        "coordinates": [
          121.049327,
          14.6020625
        ]
      },
      "properties": {
        "osm_id": 1348756680,
        "osm_type": "nodes",
        "amenity": "restaurant",
        "tourism": null,
        "beds": null,
        "name": "Phoa",
        "opening_hours": null,
        "shop": null,
        "rooms": null
      }
    },
    {
      "type": "Feature",
      "geometry": {
        "type": "Point",
        "coordinates": [
          121.0494829,
          14.6026518
        ]
      },
      "properties": {
        "osm_id": 7023844522,
        "osm_type": "nodes",
        "amenity": "restaurant",
        "tourism": null,
        "beds": null,
        "name": "House of Lasagna",
        "opening_hours": null,
        "shop": null,
        "rooms": null
      }
    },
    {
      "type": "Feature",
      "geometry": {
        "type": "Point",
        "coordinates": [
          121.0509194,
          14.6026328
        ]
      },
      "properties": {
        "osm_id": 1270332360,
        "osm_type": "nodes",
        "amenity": "restaurant",
        "tourism": null,
        "beds": null,
        "name": "Pasto",
        "opening_hours": null,
        "shop": null,
        "rooms": null
      }
    },
    {
      "type": "Feature",
      "geometry": {
        "type": "Point",
        "coordinates": [
          121.0509106,
          14.6027386
        ]
      },
      "properties": {
        "osm_id": 541070652,
        "osm_type": "nodes",
        "amenity": "cafe",
        "tourism": null,
        "beds": null,
        "name": "Starbucks",
        "opening_hours": null,
        "shop": null,
        "rooms": null
      }
    },
    {
      "type": "Feature",
      "geometry": {
        "type": "Point",
        "coordinates": [
          121.0516659,
          14.602694
        ]
      },
      "properties": {
        "osm_id": 3258971710,
        "osm_type": "nodes",
        "amenity": "restaurant",
        "tourism": null,
        "beds": null,
        "name": "Sibyullee",
        "opening_hours": null,
        "shop": null,
        "rooms": null
      }
    },
    {
      "type": "Feature",
      "geometry": {
        "type": "Point",
        "coordinates": [
          121.0518732,
          14.6026039
        ]
      },
      "properties": {
        "osm_id": 3672600501,
        "osm_type": "nodes",
        "amenity": "restaurant",
        "tourism": null,
        "beds": null,
        "name": "8 Cuts Burger Blends",
        "opening_hours": null,
        "shop": null,
        "rooms": null
      }
    },
    {
      "type": "Feature",
      "geometry": {
        "type": "Point",
        "coordinates": [
          121.0516421,
          14.6030026
        ]
      },
      "properties": {
        "osm_id": 1270332414,
        "osm_type": "nodes",
        "amenity": "cafe",
        "tourism": null,
        "beds": null,
        "name": "Starbucks",
        "opening_hours": null,
        "shop": null,
        "rooms": null
      }
    },
    {
      "type": "Feature",
      "geometry": {
        "type": "Point",
        "coordinates": [
          121.0516303,
          14.6032449
        ]
      },
      "properties": {
        "osm_id": 3672600499,
        "osm_type": "nodes",
        "amenity": "cafe",
        "tourism": null,
        "beds": null,
        "name": "Happy Lemon",
        "opening_hours": null,
        "shop": null,
        "rooms": null
      }
    },
    {
      "type": "Feature",
      "geometry": {
        "type": "Point",
        "coordinates": [
          121.0518649,
          14.6030357
        ]
      },
      "properties": {
        "osm_id": 3258971715,
        "osm_type": "nodes",
        "amenity": "restaurant",
        "tourism": null,
        "beds": null,
        "name": "Via Mare",
        "opening_hours": null,
        "shop": null,
        "rooms": null
      }
    },
    {
      "type": "Feature",
      "geometry": {
        "type": "Point",
        "coordinates": [
          121.0519662,
          14.6033343
        ]
      },
      "properties": {
        "osm_id": 5097327292,
        "osm_type": "nodes",
        "amenity": "restaurant",
        "tourism": null,
        "beds": null,
        "name": "Taione",
        "opening_hours": null,
        "shop": null,
        "rooms": null
      }
    },
    {
      "type": "Feature",
      "geometry": {
        "type": "Point",
        "coordinates": [
          121.0508687,
          14.6032786
        ]
      },
      "properties": {
        "osm_id": 1271278993,
        "osm_type": "nodes",
        "amenity": "restaurant",
        "tourism": null,
        "beds": null,
        "name": "Banana Leaf",
        "opening_hours": null,
        "shop": null,
        "rooms": null
      }
    },
    {
      "type": "Feature",
      "geometry": {
        "type": "Point",
        "coordinates": [
          121.0509471,
          14.603311
        ]
      },
      "properties": {
        "osm_id": 3258971716,
        "osm_type": "nodes",
        "amenity": "restaurant",
        "tourism": null,
        "beds": null,
        "name": "J. Co Donuts & Coffee",
        "opening_hours": null,
        "shop": null,
        "rooms": null
      }
    },
    {
      "type": "Feature",
      "geometry": {
        "type": "Point",
        "coordinates": [
          121.0508878,
          14.6033431
        ]
      },
      "properties": {
        "osm_id": 3258971697,
        "osm_type": "nodes",
        "amenity": "restaurant",
        "tourism": null,
        "beds": null,
        "name": "BBQ Chicken",
        "opening_hours": null,
        "shop": null,
        "rooms": null
      }
    },
    {
      "type": "Feature",
      "geometry": {
        "type": "Point",
        "coordinates": [
          121.0511039,
          14.6033757
        ]
      },
      "properties": {
        "osm_id": 919492167,
        "osm_type": "nodes",
        "amenity": "restaurant",
        "tourism": null,
        "beds": null,
        "name": "Tender Bob's",
        "opening_hours": null,
        "shop": null,
        "rooms": null
      }
    },
    {
      "type": "Feature",
      "geometry": {
        "type": "Point",
        "coordinates": [
          121.0510811,
          14.6034234
        ]
      },
      "properties": {
        "osm_id": 3258971698,
        "osm_type": "nodes",
        "amenity": "restaurant",
        "tourism": null,
        "beds": null,
        "name": "Blu Frog",
        "opening_hours": null,
        "shop": null,
        "rooms": null
      }
    },
    {
      "type": "Feature",
      "geometry": {
        "type": "Point",
        "coordinates": [
          121.0514192,
          14.6034252
        ]
      },
      "properties": {
        "osm_id": 1270332398,
        "osm_type": "nodes",
        "amenity": "cafe",
        "tourism": null,
        "beds": null,
        "name": "Elait & Overdoughs",
        "opening_hours": null,
        "shop": null,
        "rooms": null
      }
    },
    {
      "type": "Feature",
      "geometry": {
        "type": "Point",
        "coordinates": [
          121.0513661,
          14.603484
        ]
      },
      "properties": {
        "osm_id": 1271279004,
        "osm_type": "nodes",
        "amenity": "restaurant",
        "tourism": null,
        "beds": null,
        "name": "Arya",
        "opening_hours": null,
        "shop": null,
        "rooms": null
      }
    },
    {
      "type": "Feature",
      "geometry": {
        "type": "Point",
        "coordinates": [
          121.0512124,
          14.6034781
        ]
      },
      "properties": {
        "osm_id": 2394631551,
        "osm_type": "nodes",
        "amenity": "restaurant",
        "tourism": null,
        "beds": null,
        "name": "Gerry's Grill",
        "opening_hours": null,
        "shop": null,
        "rooms": null
      }
    },
    {
      "type": "Feature",
      "geometry": {
        "type": "Point",
        "coordinates": [
          121.0330436,
          14.6077786
        ]
      },
      "properties": {
        "osm_id": 4923205721,
        "osm_type": "nodes",
        "amenity": "restaurant",
        "tourism": null,
        "beds": null,
        "name": "Cafe Ysabel",
        "opening_hours": "Mo-Th, Su 11:00-14:00, 16:00-22:00; Fr, Sa 11:00-14:00, 16:00-23:00; Su 11:00-14:00",
        "shop": null,
        "rooms": null
      }
    },
    {
      "type": "Feature",
      "geometry": {
        "type": "Point",
        "coordinates": [
          121.0273413,
          14.6023808
        ]
      },
      "properties": {
        "osm_id": 5770934827,
        "osm_type": "nodes",
        "amenity": "fast_food",
        "tourism": null,
        "beds": null,
        "name": "Conerbricks Barbeque House",
        "opening_hours": null,
        "shop": null,
        "rooms": null
      }
    },
    {
      "type": "Feature",
      "geometry": {
        "type": "Point",
        "coordinates": [
          121.0257148,
          14.6070795
        ]
      },
      "properties": {
        "osm_id": 5285016821,
        "osm_type": "nodes",
        "amenity": "restaurant",
        "tourism": null,
        "beds": null,
        "name": "Golden Chicken House",
        "opening_hours": null,
        "shop": null,
        "rooms": null
      }
    },
    {
      "type": "Feature",
      "geometry": {
        "type": "Point",
        "coordinates": [
          121.0262836,
          14.6071296
        ]
      },
      "properties": {
        "osm_id": 4900810622,
        "osm_type": "nodes",
        "amenity": "fast_food",
        "tourism": null,
        "beds": null,
        "name": "Pares",
        "opening_hours": null,
        "shop": null,
        "rooms": null
      }
    },
    {
      "type": "Feature",
      "geometry": {
        "type": "Point",
        "coordinates": [
          121.0278167,
          14.6080371
        ]
      },
      "properties": {
        "osm_id": 5903386285,
        "osm_type": "nodes",
        "amenity": "bar",
        "tourism": null,
        "beds": null,
        "name": "Maligamgam KTV",
        "opening_hours": null,
        "shop": null,
        "rooms": null
      }
    },
    {
      "type": "Feature",
      "geometry": {
        "type": "Point",
        "coordinates": [
          121.0289272,
          14.6091086
        ]
      },
      "properties": {
        "osm_id": 4719607985,
        "osm_type": "nodes",
        "amenity": "fast_food",
        "tourism": null,
        "beds": null,
        "name": "Jasper Store and Eatery",
        "opening_hours": null,
        "shop": null,
        "rooms": null
      }
    },
    {
      "type": "Feature",
      "geometry": {
        "type": "Point",
        "coordinates": [
          121.0288583,
          14.6090399
        ]
      },
      "properties": {
        "osm_id": 4719607987,
        "osm_type": "nodes",
        "amenity": "fast_food",
        "tourism": null,
        "beds": null,
        "name": null,
        "opening_hours": null,
        "shop": null,
        "rooms": null
      }
    },
    {
      "type": "Feature",
      "geometry": {
        "type": "Point",
        "coordinates": [
          121.0292913,
          14.6091381
        ]
      },
      "properties": {
        "osm_id": 4719609346,
        "osm_type": "nodes",
        "amenity": "fast_food",
        "tourism": null,
        "beds": null,
        "name": "Aling Banang",
        "opening_hours": null,
        "shop": null,
        "rooms": null
      }
    },
    {
      "type": "Feature",
      "geometry": {
        "type": "Point",
        "coordinates": [
          121.0294288,
          14.6092562
        ]
      },
      "properties": {
        "osm_id": 4719609342,
        "osm_type": "nodes",
        "amenity": "fast_food",
        "tourism": null,
        "beds": null,
        "name": null,
        "opening_hours": null,
        "shop": null,
        "rooms": null
      }
    },
    {
      "type": "Feature",
      "geometry": {
        "type": "Point",
        "coordinates": [
          121.0290377,
          14.6091744
        ]
      },
      "properties": {
        "osm_id": 4719607982,
        "osm_type": "nodes",
        "amenity": "fast_food",
        "tourism": null,
        "beds": null,
        "name": "Imba Imbang Kainan",
        "opening_hours": null,
        "shop": null,
        "rooms": null
      }
    },
    {
      "type": "Feature",
      "geometry": {
        "type": "Point",
        "coordinates": [
          121.025843,
          14.6106369
        ]
      },
      "properties": {
        "osm_id": 5904547172,
        "osm_type": "nodes",
        "amenity": "bar",
        "tourism": null,
        "beds": null,
        "name": "BUNSO KTV Bar",
        "opening_hours": null,
        "shop": null,
        "rooms": null
      }
    },
    {
      "type": "Feature",
      "geometry": {
        "type": "Point",
        "coordinates": [
          121.0300265,
          14.6097925
        ]
      },
      "properties": {
        "osm_id": 8904299690,
        "osm_type": "nodes",
        "amenity": "fast_food",
        "tourism": null,
        "beds": null,
        "name": "Burger Machine",
        "opening_hours": "24/7",
        "shop": null,
        "rooms": null
      }
    },
    {
      "type": "Feature",
      "geometry": {
        "type": "Point",
        "coordinates": [
          121.0295018,
          14.6095816
        ]
      },
      "properties": {
        "osm_id": 4719607958,
        "osm_type": "nodes",
        "amenity": "restaurant",
        "tourism": null,
        "beds": null,
        "name": "808 Grill",
        "opening_hours": null,
        "shop": null,
        "rooms": null
      }
    },
    {
      "type": "Feature",
      "geometry": {
        "type": "Point",
        "coordinates": [
          121.0415281,
          14.6054694
        ]
      },
      "properties": {
        "osm_id": 8761479506,
        "osm_type": "nodes",
        "amenity": "restaurant",
        "tourism": null,
        "beds": null,
        "name": "Muhan Samgyupsal",
        "opening_hours": null,
        "shop": null,
        "rooms": null
      }
    },
    {
      "type": "Feature",
      "geometry": {
        "type": "Point",
        "coordinates": [
          121.0477215,
          14.6015844
        ]
      },
      "properties": {
        "osm_id": 4792907850,
        "osm_type": "nodes",
        "amenity": "restaurant",
        "tourism": null,
        "beds": null,
        "name": "Kimono Ken",
        "opening_hours": null,
        "shop": null,
        "rooms": null
      }
    },
    {
      "type": "Feature",
      "geometry": {
        "type": "Point",
        "coordinates": [
          121.0471995,
          14.6018364
        ]
      },
      "properties": {
        "osm_id": 1477473156,
        "osm_type": "nodes",
        "amenity": "restaurant",
        "tourism": null,
        "beds": null,
        "name": "House of Wagyu",
        "opening_hours": null,
        "shop": null,
        "rooms": null
      }
    },
    {
      "type": "Feature",
      "geometry": {
        "type": "Point",
        "coordinates": [
          121.0470862,
          14.6023208
        ]
      },
      "properties": {
        "osm_id": 9906827456,
        "osm_type": "nodes",
        "amenity": "restaurant",
        "tourism": null,
        "beds": null,
        "name": "Omakase",
        "opening_hours": null,
        "shop": null,
        "rooms": null
      }
    },
    {
      "type": "Feature",
      "geometry": {
        "type": "Point",
        "coordinates": [
          121.0470643,
          14.6023087
        ]
      },
      "properties": {
        "osm_id": 4178281054,
        "osm_type": "nodes",
        "amenity": "restaurant",
        "tourism": null,
        "beds": null,
        "name": "Sunmoon Seafood House",
        "opening_hours": null,
        "shop": null,
        "rooms": null
      }
    },
    {
      "type": "Feature",
      "geometry": {
        "type": "Point",
        "coordinates": [
          121.0439456,
          14.6042127
        ]
      },
      "properties": {
        "osm_id": 357727774,
        "osm_type": "nodes",
        "amenity": "fast_food",
        "tourism": null,
        "beds": null,
        "name": "Burger King",
        "opening_hours": null,
        "shop": null,
        "rooms": null
      }
    },
    {
      "type": "Feature",
      "geometry": {
        "type": "Point",
        "coordinates": [
          121.0418743,
          14.6046512
        ]
      },
      "properties": {
        "osm_id": 9069311445,
        "osm_type": "nodes",
        "amenity": "fast_food",
        "tourism": null,
        "beds": null,
        "name": "General's Lechon",
        "opening_hours": "Mo-Su 10:00-19:00",
        "shop": null,
        "rooms": null
      }
    },
    {
      "type": "Feature",
      "geometry": {
        "type": "Point",
        "coordinates": [
          121.0418775,
          14.6046478
        ]
      },
      "properties": {
        "osm_id": 8757739461,
        "osm_type": "nodes",
        "amenity": "fast_food",
        "tourism": null,
        "beds": null,
        "name": "General's Lechon",
        "opening_hours": null,
        "shop": null,
        "rooms": null
      }
    },
    {
      "type": "Feature",
      "geometry": {
        "type": "Point",
        "coordinates": [
          121.0416026,
          14.6054117
        ]
      },
      "properties": {
        "osm_id": 8761479507,
        "osm_type": "nodes",
        "amenity": "restaurant",
        "tourism": null,
        "beds": null,
        "name": "Shinjuku",
        "opening_hours": null,
        "shop": null,
        "rooms": null
      }
    },
    {
      "type": "Feature",
      "geometry": {
        "type": "Point",
        "coordinates": [
          121.0427578,
          14.605215
        ]
      },
      "properties": {
        "osm_id": 11193099105,
        "osm_type": "nodes",
        "amenity": "restaurant",
        "tourism": null,
        "beds": null,
        "name": "Masuki",
        "opening_hours": null,
        "shop": null,
        "rooms": null
      }
    },
    {
      "type": "Feature",
      "geometry": {
        "type": "Point",
        "coordinates": [
          121.0393954,
          14.6025423
        ]
      },
      "properties": {
        "osm_id": 9372713533,
        "osm_type": "nodes",
        "amenity": "cafe",
        "tourism": null,
        "beds": null,
        "name": "Four50 Caf\u00e9",
        "opening_hours": "Tu-Th 10:00-19:00;Fr-Su 10:00-22:00;PH off",
        "shop": null,
        "rooms": null
      }
    },
    {
      "type": "Feature",
      "geometry": {
        "type": "Point",
        "coordinates": [
          121.0361152,
          14.6020832
        ]
      },
      "properties": {
        "osm_id": 8678141463,
        "osm_type": "nodes",
        "amenity": "restaurant",
        "tourism": null,
        "beds": null,
        "name": "Barbeque Shack",
        "opening_hours": null,
        "shop": null,
        "rooms": null
      }
    },
    {
      "type": "Feature",
      "geometry": {
        "type": "Point",
        "coordinates": [
          121.0342191,
          14.6023023
        ]
      },
      "properties": {
        "osm_id": 3498323963,
        "osm_type": "nodes",
        "amenity": "restaurant",
        "tourism": null,
        "beds": null,
        "name": "Wu Xiang House of Chicken",
        "opening_hours": "Mo-Sa 10:00-22:00, Su10:00-16:00",
        "shop": null,
        "rooms": null
      }
    },
    {
      "type": "Feature",
      "geometry": {
        "type": "Point",
        "coordinates": [
          121.0382649,
          14.6030271
        ]
      },
      "properties": {
        "osm_id": 7165366823,
        "osm_type": "nodes",
        "amenity": "fast_food",
        "tourism": null,
        "beds": null,
        "name": null,
        "opening_hours": null,
        "shop": null,
        "rooms": null
      }
    },
    {
      "type": "Feature",
      "geometry": {
        "type": "Point",
        "coordinates": [
          121.0384143,
          14.6032313
        ]
      },
      "properties": {
        "osm_id": 5555472345,
        "osm_type": "nodes",
        "amenity": "restaurant",
        "tourism": null,
        "beds": null,
        "name": "Asian Flavors",
        "opening_hours": "Mo-Su 11:00-24:00",
        "shop": null,
        "rooms": null
      }
    },
    {
      "type": "Feature",
      "geometry": {
        "type": "Point",
        "coordinates": [
          121.0384943,
          14.6034172
        ]
      },
      "properties": {
        "osm_id": 7165366822,
        "osm_type": "nodes",
        "amenity": "fast_food",
        "tourism": null,
        "beds": null,
        "name": null,
        "opening_hours": null,
        "shop": null,
        "rooms": null
      }
    },
    {
      "type": "Feature",
      "geometry": {
        "type": "Point",
        "coordinates": [
          121.0336498,
          14.6042885
        ]
      },
      "properties": {
        "osm_id": 6240872233,
        "osm_type": "nodes",
        "amenity": "fast_food",
        "tourism": null,
        "beds": null,
        "name": "Sunrise Buckets",
        "opening_hours": null,
        "shop": null,
        "rooms": null
      }
    },
    {
      "type": "Feature",
      "geometry": {
        "type": "Point",
        "coordinates": [
          121.0337669,
          14.6043209
        ]
      },
      "properties": {
        "osm_id": 7171313748,
        "osm_type": "nodes",
        "amenity": "restaurant",
        "tourism": null,
        "beds": null,
        "name": "Scout's Honor",
        "opening_hours": null,
        "shop": null,
        "rooms": null
      }
    },
    {
      "type": "Feature",
      "geometry": {
        "type": "Point",
        "coordinates": [
          121.0341897,
          14.6042876
        ]
      },
      "properties": {
        "osm_id": 6239553377,
        "osm_type": "nodes",
        "amenity": "cafe",
        "tourism": null,
        "beds": null,
        "name": "Press Cafe",
        "opening_hours": null,
        "shop": null,
        "rooms": null
      }
    },
    {
      "type": "Feature",
      "geometry": {
        "type": "Point",
        "coordinates": [
          121.0386337,
          14.6039765
        ]
      },
      "properties": {
        "osm_id": 5556276966,
        "osm_type": "nodes",
        "amenity": "restaurant",
        "tourism": null,
        "beds": null,
        "name": "Cops and Robbers",
        "opening_hours": null,
        "shop": null,
        "rooms": null
      }
    },
    {
      "type": "Feature",
      "geometry": {
        "type": "Point",
        "coordinates": [
          121.0378579,
          14.6036212
        ]
      },
      "properties": {
        "osm_id": 7165366826,
        "osm_type": "nodes",
        "amenity": "fast_food",
        "tourism": null,
        "beds": null,
        "name": null,
        "opening_hours": null,
        "shop": null,
        "rooms": null
      }
    },
    {
      "type": "Feature",
      "geometry": {
        "type": "Point",
        "coordinates": [
          121.0367282,
          14.6050204
        ]
      },
      "properties": {
        "osm_id": 5767006053,
        "osm_type": "nodes",
        "amenity": "fast_food",
        "tourism": null,
        "beds": null,
        "name": "Edm's Canteen",
        "opening_hours": null,
        "shop": null,
        "rooms": null
      }
    },
    {
      "type": "Feature",
      "geometry": {
        "type": "Point",
        "coordinates": [
          121.0235744,
          14.6031276
        ]
      },
      "properties": {
        "osm_id": 8317521666,
        "osm_type": "nodes",
        "amenity": "fast_food",
        "tourism": null,
        "beds": null,
        "name": "Jho and JR Canteen",
        "opening_hours": null,
        "shop": null,
        "rooms": null
      }
    },
    {
      "type": "Feature",
      "geometry": {
        "type": "Point",
        "coordinates": [
          121.019799,
          14.6025773
        ]
      },
      "properties": {
        "osm_id": 255059979,
        "osm_type": "nodes",
        "amenity": "townhall",
        "tourism": null,
        "beds": null,
        "name": "Progreso Barangay Hall",
        "opening_hours": null,
        "shop": null,
        "rooms": null
      }
    },
    {
      "type": "Feature",
      "geometry": {
        "type": "Point",
        "coordinates": [
          121.0208222,
          14.6025767
        ]
      },
      "properties": {
        "osm_id": 7022813100,
        "osm_type": "nodes",
        "amenity": "fast_food",
        "tourism": null,
        "beds": null,
        "name": "JBLR Food Hun",
        "opening_hours": null,
        "shop": null,
        "rooms": null
      }
    },
    {
      "type": "Feature",
      "geometry": {
        "type": "Point",
        "coordinates": [
          121.0208027,
          14.6025511
        ]
      },
      "properties": {
        "osm_id": 7022813099,
        "osm_type": "nodes",
        "amenity": "cafe",
        "tourism": null,
        "beds": null,
        "name": null,
        "opening_hours": null,
        "shop": null,
        "rooms": null
      }
    },
    {
      "type": "Feature",
      "geometry": {
        "type": "Point",
        "coordinates": [
          121.0212806,
          14.6031922
        ]
      },
      "properties": {
        "osm_id": 4458795301,
        "osm_type": "nodes",
        "amenity": "fast_food",
        "tourism": null,
        "beds": null,
        "name": "Aling Banang",
        "opening_hours": null,
        "shop": null,
        "rooms": null
      }
    },
    {
      "type": "Feature",
      "geometry": {
        "type": "Point",
        "coordinates": [
          121.0229602,
          14.60596
        ]
      },
      "properties": {
        "osm_id": 4907186173,
        "osm_type": "nodes",
        "amenity": "restaurant",
        "tourism": null,
        "beds": null,
        "name": "Aling Banang's",
        "opening_hours": null,
        "shop": null,
        "rooms": null
      }
    },
    {
      "type": "Feature",
      "geometry": {
        "type": "Point",
        "coordinates": [
          121.0229071,
          14.6059258
        ]
      },
      "properties": {
        "osm_id": 4907186174,
        "osm_type": "nodes",
        "amenity": "restaurant",
        "tourism": null,
        "beds": null,
        "name": "Nolasco's Eatery",
        "opening_hours": null,
        "shop": null,
        "rooms": null
      }
    },
    {
      "type": "Feature",
      "geometry": {
        "type": "Point",
        "coordinates": [
          121.0228735,
          14.6059035
        ]
      },
      "properties": {
        "osm_id": 4907186175,
        "osm_type": "nodes",
        "amenity": "restaurant",
        "tourism": null,
        "beds": null,
        "name": "Benson's BBQ",
        "opening_hours": null,
        "shop": null,
        "rooms": null
      }
    },
    {
      "type": "Feature",
      "geometry": {
        "type": "Point",
        "coordinates": [
          121.0236497,
          14.6060329
        ]
      },
      "properties": {
        "osm_id": 4792499780,
        "osm_type": "nodes",
        "amenity": "cafe",
        "tourism": null,
        "beds": null,
        "name": "Dunkin' Donuts",
        "opening_hours": null,
        "shop": null,
        "rooms": null
      }
    },
    {
      "type": "Feature",
      "geometry": {
        "type": "Point",
        "coordinates": [
          121.0247227,
          14.6065544
        ]
      },
      "properties": {
        "osm_id": 7010440994,
        "osm_type": "nodes",
        "amenity": "cafe",
        "tourism": null,
        "beds": null,
        "name": null,
        "opening_hours": null,
        "shop": null,
        "rooms": null
      }
    },
    {
      "type": "Feature",
      "geometry": {
        "type": "Point",
        "coordinates": [
          121.023403,
          14.6042822
        ]
      },
      "properties": {
        "osm_id": 5932954533,
        "osm_type": "nodes",
        "amenity": "fast_food",
        "tourism": null,
        "beds": null,
        "name": "king am",
        "opening_hours": null,
        "shop": null,
        "rooms": null
      }
    },
    {
      "type": "Feature",
      "geometry": {
        "type": "Point",
        "coordinates": [
          121.0230264,
          14.6040265
        ]
      },
      "properties": {
        "osm_id": 5982533384,
        "osm_type": "nodes",
        "amenity": "fast_food",
        "tourism": null,
        "beds": null,
        "name": "Maricor's Tapsilogan",
        "opening_hours": null,
        "shop": null,
        "rooms": null
      }
    },
    {
      "type": "Feature",
      "geometry": {
        "type": "Point",
        "coordinates": [
          121.0213344,
          14.6039619
        ]
      },
      "properties": {
        "osm_id": 5994491047,
        "osm_type": "nodes",
        "amenity": "bar",
        "tourism": null,
        "beds": null,
        "name": null,
        "opening_hours": null,
        "shop": null,
        "rooms": null
      }
    },
    {
      "type": "Feature",
      "geometry": {
        "type": "Point",
        "coordinates": [
          121.0231189,
          14.6039179
        ]
      },
      "properties": {
        "osm_id": 5932954540,
        "osm_type": "nodes",
        "amenity": "fast_food",
        "tourism": null,
        "beds": null,
        "name": "Boyet's Tapsilogan",
        "opening_hours": null,
        "shop": null,
        "rooms": null
      }
    },
    {
      "type": "Feature",
      "geometry": {
        "type": "Point",
        "coordinates": [
          121.0230367,
          14.6038486
        ]
      },
      "properties": {
        "osm_id": 5911463264,
        "osm_type": "nodes",
        "amenity": "fast_food",
        "tourism": null,
        "beds": null,
        "name": "Dan's and Norm's Eatery",
        "opening_hours": null,
        "shop": null,
        "rooms": null
      }
    },
    {
      "type": "Feature",
      "geometry": {
        "type": "Point",
        "coordinates": [
          121.0257393,
          14.6036973
        ]
      },
      "properties": {
        "osm_id": 5903365742,
        "osm_type": "nodes",
        "amenity": "fast_food",
        "tourism": null,
        "beds": null,
        "name": "Mercy Bentelogan",
        "opening_hours": "24/7",
        "shop": null,
        "rooms": null
      }
    },
    {
      "type": "Feature",
      "geometry": {
        "type": "Point",
        "coordinates": [
          121.0386414,
          14.5963878
        ]
      },
      "properties": {
        "osm_id": 12140944464,
        "osm_type": "nodes",
        "amenity": "fast_food",
        "tourism": null,
        "beds": null,
        "name": "La Rotisserie",
        "opening_hours": null,
        "shop": null,
        "rooms": null
      }
    },
    {
      "type": "Feature",
      "geometry": {
        "type": "Point",
        "coordinates": [
          121.0383231,
          14.5963437
        ]
      },
      "properties": {
        "osm_id": 12140944466,
        "osm_type": "nodes",
        "amenity": "fast_food",
        "tourism": null,
        "beds": null,
        "name": "Upper Crust",
        "opening_hours": null,
        "shop": null,
        "rooms": null
      }
    },
    {
      "type": "Feature",
      "geometry": {
        "type": "Point",
        "coordinates": [
          121.0384029,
          14.5983896
        ]
      },
      "properties": {
        "osm_id": 4172492628,
        "osm_type": "nodes",
        "amenity": "fast_food",
        "tourism": null,
        "beds": null,
        "name": "Soy & Bean",
        "opening_hours": "Mo-Su 08:00-20:00",
        "shop": null,
        "rooms": null
      }
    },
    {
      "type": "Feature",
      "geometry": {
        "type": "Point",
        "coordinates": [
          121.038514,
          14.5972012
        ]
      },
      "properties": {
        "osm_id": 10547881687,
        "osm_type": "nodes",
        "amenity": "restaurant",
        "tourism": null,
        "beds": null,
        "name": "Hokkaido Ramen Bangaichi",
        "opening_hours": null,
        "shop": null,
        "rooms": null
      }
    },
    {
      "type": "Feature",
      "geometry": {
        "type": "Point",
        "coordinates": [
          121.0380582,
          14.596588
        ]
      },
      "properties": {
        "osm_id": 10839315248,
        "osm_type": "nodes",
        "amenity": "cafe",
        "tourism": null,
        "beds": null,
        "name": "Acaf\u00e9",
        "opening_hours": null,
        "shop": null,
        "rooms": null
      }
    },
    {
      "type": "Feature",
      "geometry": {
        "type": "Point",
        "coordinates": [
          121.0389198,
          14.5954721
        ]
      },
      "properties": {
        "osm_id": 4538843596,
        "osm_type": "nodes",
        "amenity": "fast_food",
        "tourism": null,
        "beds": null,
        "name": null,
        "opening_hours": null,
        "shop": null,
        "rooms": null
      }
    },
    {
      "type": "Feature",
      "geometry": {
        "type": "Point",
        "coordinates": [
          121.039971,
          14.5952967
        ]
      },