{
  "type": "FeatureCollection",
  "features": [
    {
      "type": "Feature",
      "geometry": {
        "type": "Point",
        "coordinates": [
          120.9801006,
          14.535539
        ]
      },
      "properties": {
        "osm_id": 12183459672,
        "osm_type": "nodes",
        "amenity": "restaurant",
        "tourism": null,
        "beds": null,
        "name": "Kiwami Japanese Master Kitchens",
        "opening_hours": null,
        "shop": null,
        "rooms": null
      }
    },
    {
      "type": "Feature",
      "geometry": {
        "type": "Point",
        "coordinates": [
          121.0039249,
          14.5376695
        ]
      },
      "properties": {
        "osm_id": 11124578418,
        "osm_type": "nodes",
        "amenity": "fast_food",
        "tourism": null,
        "beds": null,
        "name": "Andok's",
        "opening_hours": null,
        "shop": null,
        "rooms": null
      }
    },
    {
      "type": "Feature",
      "geometry": {
        "type": "Point",
        "coordinates": [
          121.0010623,
          14.5381239
        ]
      },
      "properties": {
        "osm_id": 13112181627,
        "osm_type": "nodes",
        "amenity": "fast_food",
        "tourism": null,
        "beds": null,
        "name": "Pickup Coffee",
        "opening_hours": null,
        "shop": null,
        "rooms": null
      }
    },
    {
      "type": "Feature",
      "geometry": {
        "type": "Point",
        "coordinates": [
          121.0011891,
          14.5381758
        ]
      },
      "properties": {
        "osm_id": 13112181641,
        "osm_type": "nodes",
        "amenity": "fast_food",
        "tourism": null,
        "beds": null,
        "name": "Greenwich",
        "opening_hours": null,
        "shop": null,
        "rooms": null
      }
    },
    {
      "type": "Feature",
      "geometry": {
        "type": "Point",
        "coordinates": [
          120.9995787,
          14.5378561
        ]
      },
      "properties": {
        "osm_id": 13112181661,
        "osm_type": "nodes",
        "amenity": "fast_food",
        "tourism": null,
        "beds": null,
        "name": "Lovers in Pares",
        "opening_hours": null,
        "shop": null,
        "rooms": null
      }
    },
    {
      "type": "Feature",
      "geometry": {
        "type": "Point",
        "coordinates": [
          120.9998479,
          14.5378285
        ]
      },
      "properties": {
        "osm_id": 13112181665,
        "osm_type": "nodes",
        "amenity": "fast_food",
        "tourism": null,
        "beds": null,
        "name": "Master Siomai",
        "opening_hours": null,
        "shop": null,
        "rooms": null
      }
    },
    {
      "type": "Feature",
      "geometry": {
        "type": "Point",
        "coordinates": [
          120.9899113,
          14.531462
        ]
      },
      "properties": {
        "osm_id": 6953629491,
        "osm_type": "nodes",
        "amenity": "restaurant",
        "tourism": null,
        "beds": null,
        "name": "Top Chef Abalone",
        "opening_hours": null,
        "shop": null,
        "rooms": null
      }
    },
    {
      "type": "Feature",
      "geometry": {
        "type": "Point",
        "coordinates": [
          120.9891087,
          14.5326472
        ]
      },
      "properties": {
        "osm_id": 6200922033,
        "osm_type": "nodes",
        "amenity": "fast_food",
        "tourism": null,
        "beds": null,
        "name": "KFC",
        "opening_hours": "24/7",
        "shop": null,
        "rooms": null
      }
    },
    {
      "type": "Feature",
      "geometry": {
        "type": "Point",
        "coordinates": [
          120.9887443,
          14.5341424
        ]
      },
      "properties": {
        "osm_id": 4907243761,
        "osm_type": "nodes",
        "amenity": "fast_food",
        "tourism": null,
        "beds": null,
        "name": "Jollibee",
        "opening_hours": "24/7",
        "shop": null,
        "rooms": null
      }
    },
    {
      "type": "Feature",
      "geometry": {
        "type": "Point",
        "coordinates": [
          121.0142584,
          14.5192519
        ]
      },
      "properties": {
        "osm_id": 11998158837,
        "osm_type": "nodes",
        "amenity": "restaurant",
        "tourism": null,
        "beds": null,
        "name": "Golden Wong Kok",
        "opening_hours": null,
        "shop": null,
        "rooms": null
      }
    },
    {
      "type": "Feature",
      "geometry": {
        "type": "Point",
        "coordinates": [
          120.9801646,
          14.532572
        ]
      },
      "properties": {
        "osm_id": 12550864030,
        "osm_type": "nodes",
        "amenity": "fast_food",
        "tourism": null,
        "beds": null,
        "name": "Randy's Donuts",
        "opening_hours": null,
        "shop": null,
        "rooms": null
      }
    },
    {
      "type": "Feature",
      "geometry": {
        "type": "Point",
        "coordinates": [
          120.9801286,
          14.5325715
        ]
      },
      "properties": {
        "osm_id": 12550864031,
        "osm_type": "nodes",
        "amenity": "restaurant",
        "tourism": null,
        "beds": null,
        "name": "Modern Shang",
        "opening_hours": null,
        "shop": null,
        "rooms": null
      }
    },
    {
      "type": "Feature",
      "geometry": {
        "type": "Point",
        "coordinates": [
          120.9800738,
          14.5322364
        ]
      },
      "properties": {
        "osm_id": 4522475101,
        "osm_type": "nodes",
        "amenity": "restaurant",
        "tourism": null,
        "beds": null,
        "name": "Texas Roadhouse",
        "opening_hours": null,
        "shop": null,
        "rooms": null
      }
    },
    {
      "type": "Feature",
      "geometry": {
        "type": "Point",
        "coordinates": [
          120.9801224,
          14.5323629
        ]
      },
      "properties": {
        "osm_id": 12550864002,
        "osm_type": "nodes",
        "amenity": "restaurant",
        "tourism": null,
        "beds": null,
        "name": "Las Flores",
        "opening_hours": null,
        "shop": null,
        "rooms": null
      }
    },
    {
      "type": "Feature",
      "geometry": {
        "type": "Point",
        "coordinates": [
          120.9801733,
          14.5345792
        ]
      },
      "properties": {
        "osm_id": 12144006864,
        "osm_type": "nodes",
        "amenity": "cafe",
        "tourism": null,
        "beds": null,
        "name": "After Tree Dessert Cafe",
        "opening_hours": null,
        "shop": null,
        "rooms": null
      }
    },
    {
      "type": "Feature",
      "geometry": {
        "type": "Point",
        "coordinates": [
          120.981571,
          14.5347045
        ]
      },
      "properties": {
        "osm_id": 11215842454,
        "osm_type": "nodes",
        "amenity": "fast_food",
        "tourism": null,
        "beds": null,
        "name": "Krispy Kreme",
        "opening_hours": null,
        "shop": "pastry",
        "rooms": null
      }
    },
    {
      "type": "Feature",
      "geometry": {
        "type": "Point",
        "coordinates": [
          120.9802084,
          14.5335871
        ]
      },
      "properties": {
        "osm_id": 12183459664,
        "osm_type": "nodes",
        "amenity": "restaurant",
        "tourism": null,
        "beds": null,
        "name": "Gerry's Grill",
        "opening_hours": null,
        "shop": null,
        "rooms": null
      }
    },
    {
      "type": "Feature",
      "geometry": {
        "type": "Point",
        "coordinates": [
          120.9826193,
          14.5359873
        ]
      },
      "properties": {
        "osm_id": 12183459691,
        "osm_type": "nodes",
        "amenity": "restaurant",
        "tourism": null,
        "beds": null,
        "name": "Yayoi",
        "opening_hours": null,
        "shop": null,
        "rooms": null
      }
    },
    {
      "type": "Feature",
      "geometry": {
        "type": "Point",
        "coordinates": [
          120.9791375,
          14.5377128
        ]
      },
      "properties": {
        "osm_id": 1324283589,
        "osm_type": "nodes",
        "amenity": "restaurant",
        "tourism": null,
        "beds": null,
        "name": "678 Korean BBQ",
        "opening_hours": null,
        "shop": null,
        "rooms": null
      }
    },
    {
      "type": "Feature",
      "geometry": {
        "type": "Point",
        "coordinates": [
          120.9802943,
          14.5343874
        ]
      },
      "properties": {
        "osm_id": 11215842513,
        "osm_type": "nodes",
        "amenity": "fast_food",
        "tourism": null,
        "beds": null,
        "name": "Turks",
        "opening_hours": null,
        "shop": null,
        "rooms": null
      }
    },
    {
      "type": "Feature",
      "geometry": {
        "type": "Point",
        "coordinates": [
          120.9820803,
          14.5352062
        ]
      },
      "properties": {
        "osm_id": 11248508022,
        "osm_type": "nodes",
        "amenity": "restaurant",
        "tourism": null,
        "beds": null,
        "name": "Tandoor",
        "opening_hours": null,
        "shop": null,
        "rooms": null
      }
    },
    {
      "type": "Feature",
      "geometry": {
        "type": "Point",
        "coordinates": [
          120.9825034,
          14.5342553
        ]
      },
      "properties": {
        "osm_id": 11215842410,
        "osm_type": "nodes",
        "amenity": "restaurant",
        "tourism": null,
        "beds": null,
        "name": "Tsurumaru Udon x Tempura",
        "opening_hours": null,
        "shop": null,
        "rooms": null
      }
    },
    {
      "type": "Feature",
      "geometry": {
        "type": "Point",
        "coordinates": [
          120.9809731,
          14.5409289
        ]
      },
      "properties": {
        "osm_id": 6488689556,
        "osm_type": "nodes",
        "amenity": "cafe",
        "tourism": null,
        "beds": null,
        "name": "Starbucks Reserve",
        "opening_hours": null,
        "shop": null,
        "rooms": null
      }
    },
    {
      "type": "Feature",
      "geometry": {
        "type": "Point",
        "coordinates": [
          120.9816226,
          14.5342677
        ]
      },
      "properties": {
        "osm_id": 11217645542,
        "osm_type": "nodes",
        "amenity": "restaurant",
        "tourism": null,
        "beds": null,
        "name": "Jinjoo Korean Grill",
        "opening_hours": null,
        "shop": null,
        "rooms": null
      }
    },
    {
      "type": "Feature",
      "geometry": {
        "type": "Point",
        "coordinates": [
          120.9828686,
          14.5365751
        ]
      },
      "properties": {
        "osm_id": 11248508052,
        "osm_type": "nodes",
        "amenity": "toilets",
        "tourism": null,
        "beds": null,
        "name": null,
        "opening_hours": null,
        "shop": "electronics",
        "rooms": null
      }
    },
    {
      "type": "Feature",
      "geometry": {
        "type": "Point",
        "coordinates": [
          120.9827361,
          14.5348473
        ]
      },
      "properties": {
        "osm_id": 11215842444,
        "osm_type": "nodes",
        "amenity": "fast_food",
        "tourism": null,
        "beds": null,
        "name": "Greenwich",
        "opening_hours": null,
        "shop": null,
        "rooms": null
      }
    },
    {
      "type": "Feature",
      "geometry": {
        "type": "Point",
        "coordinates": [
          120.982891,
          14.5346473
        ]
      },
      "properties": {
        "osm_id": 11215842443,
        "osm_type": "nodes",
        "amenity": "fast_food",
        "tourism": null,
        "beds": null,
        "name": "KFC",
        "opening_hours": null,
        "shop": null,
        "rooms": null
      }
    },
    {
      "type": "Feature",
      "geometry": {
        "type": "Point",
        "coordinates": [
          120.9827529,
          14.534387
        ]
      },
      "properties": {
        "osm_id": 11248508125,
        "osm_type": "nodes",
        "amenity": "restaurant",
        "tourism": null,
        "beds": null,
        "name": "Prologue",
        "opening_hours": null,
        "shop": null,
        "rooms": null
      }
    },
    {
      "type": "Feature",
      "geometry": {
        "type": "Point",
        "coordinates": [
          120.9817547,
          14.5377358
        ]
      },
      "properties": {
        "osm_id": 1324283556,
        "osm_type": "nodes",
        "amenity": "restaurant",
        "tourism": null,
        "beds": null,
        "name": "Bonchon Chicken",
        "opening_hours": "Mo-Fr 10:00-02:00,Sa-Su 10:00-12:00",
        "shop": null,
        "rooms": null
      }
    },
    {
      "type": "Feature",
      "geometry": {
        "type": "Point",
        "coordinates": [
          120.9828248,
          14.5363548
        ]
      },
      "properties": {
        "osm_id": 1324283468,
        "osm_type": "nodes",
        "amenity": "fast_food",
        "tourism": null,
        "beds": null,
        "name": "McDonald's",
        "opening_hours": "Mo-Su 10:00-24:00",
        "shop": null,
        "rooms": null
      }
    },
    {
      "type": "Feature",
      "geometry": {
        "type": "Point",
        "coordinates": [
          120.9817692,
          14.5349875
        ]
      },
      "properties": {
        "osm_id": 11281607159,
        "osm_type": "nodes",
        "amenity": "fast_food",
        "tourism": null,
        "beds": null,
        "name": "Le Sucre Lab",
        "opening_hours": null,
        "shop": null,
        "rooms": null
      }
    },
    {
      "type": "Feature",
      "geometry": {
        "type": "Point",
        "coordinates": [
          120.981572,
          14.5362117
        ]
      },
      "properties": {
        "osm_id": 11281607132,
        "osm_type": "nodes",
        "amenity": "fast_food",
        "tourism": null,
        "beds": null,
        "name": "Khun Thai Tea",
        "opening_hours": null,
        "shop": null,
        "rooms": null
      }
    },
    {
      "type": "Feature",
      "geometry": {
        "type": "Point",
        "coordinates": [
          120.981581,
          14.5349509
        ]
      },
      "properties": {
        "osm_id": 11215828290,
        "osm_type": "nodes",
        "amenity": "fast_food",
        "tourism": null,
        "beds": null,
        "name": "Earl of Sandwich",
        "opening_hours": null,
        "shop": null,
        "rooms": null
      }
    },
    {
      "type": "Feature",
      "geometry": {
        "type": "Point",
        "coordinates": [
          120.9815003,
          14.5340697
        ]
      },
      "properties": {
        "osm_id": 11215842539,
        "osm_type": "nodes",
        "amenity": "fast_food",
        "tourism": null,
        "beds": null,
        "name": "Soy Yummy",
        "opening_hours": null,
        "shop": null,
        "rooms": null
      }
    },
    {
      "type": "Feature",
      "geometry": {
        "type": "Point",
        "coordinates": [
          120.9814135,
          14.5339814
        ]
      },
      "properties": {
        "osm_id": 11248508012,
        "osm_type": "nodes",
        "amenity": "restaurant",
        "tourism": null,
        "beds": null,
        "name": "Congo Grille",
        "opening_hours": null,
        "shop": null,
        "rooms": null
      }
    },
    {
      "type": "Feature",
      "geometry": {
        "type": "Point",
        "coordinates": [
          120.9825557,
          14.5340112
        ]
      },
      "properties": {
        "osm_id": 11248508015,
        "osm_type": "nodes",
        "amenity": "restaurant",
        "tourism": null,
        "beds": null,
        "name": "Khao Khai Thai Chicken House",
        "opening_hours": null,
        "shop": null,
        "rooms": null
      }
    },
    {
      "type": "Feature",
      "geometry": {
        "type": "Point",
        "coordinates": [
          120.9822057,
          14.5330285
        ]
      },
      "properties": {
        "osm_id": 11248508162,
        "osm_type": "nodes",
        "amenity": "cafe",
        "tourism": null,
        "beds": null,
        "name": "Yardstick Coffee",
        "opening_hours": null,
        "shop": null,
        "rooms": null
      }
    },
    {
      "type": "Feature",
      "geometry": {
        "type": "Point",
        "coordinates": [
          120.9822922,
          14.5328855
        ]
      },
      "properties": {
        "osm_id": 11248508164,
        "osm_type": "nodes",
        "amenity": "fast_food",
        "tourism": null,
        "beds": null,
        "name": "Koomi",
        "opening_hours": null,
        "shop": null,
        "rooms": null
      }
    },
    {
      "type": "Feature",
      "geometry": {
        "type": "Point",
        "coordinates": [
          120.9815905,
          14.5348411
        ]
      },
      "properties": {
        "osm_id": 11248508176,
        "osm_type": "nodes",
        "amenity": "fast_food",
        "tourism": null,
        "beds": null,
        "name": "ChaTraMue",
        "opening_hours": null,
        "shop": null,
        "rooms": null
      }
    },
    {
      "type": "Feature",
      "geometry": {
        "type": "Point",
        "coordinates": [
          120.9815513,
          14.5354224
        ]
      },
      "properties": {
        "osm_id": 11215842357,
        "osm_type": "nodes",
        "amenity": "cafe",
        "tourism": null,
        "beds": null,
        "name": "The Coffee Bean & Tea Leaf",
        "opening_hours": null,
        "shop": null,
        "rooms": null
      }
    },
    {
      "type": "Feature",
      "geometry": {
        "type": "Point",
        "coordinates": [
          120.9814621,
          14.5350057
        ]
      },
      "properties": {
        "osm_id": 11215842466,
        "osm_type": "nodes",
        "amenity": "fast_food",
        "tourism": null,
        "beds": null,
        "name": "Bambu",
        "opening_hours": null,
        "shop": null,
        "rooms": null
      }
    },
    {
      "type": "Feature",
      "geometry": {
        "type": "Point",
        "coordinates": [
          120.9829613,
          14.5370321
        ]
      },
      "properties": {
        "osm_id": 9794017648,
        "osm_type": "nodes",
        "amenity": "restaurant",
        "tourism": null,
        "beds": null,
        "name": "David's Tea House",
        "opening_hours": null,
        "shop": null,
        "rooms": null
      }
    },
    {
      "type": "Feature",
      "geometry": {
        "type": "Point",
        "coordinates": [
          120.9801308,
          14.5325622
        ]
      },
      "properties": {
        "osm_id": 12550864029,
        "osm_type": "nodes",
        "amenity": "restaurant",
        "tourism": null,
        "beds": null,
        "name": "Fish and Co",
        "opening_hours": null,
        "shop": null,
        "rooms": null
      }
    },
    {
      "type": "Feature",
      "geometry": {
        "type": "Point",
        "coordinates": [
          120.980829,
          14.5324489
        ]
      },
      "properties": {
        "osm_id": 12550853977,
        "osm_type": "nodes",
        "amenity": "fast_food",
        "tourism": null,
        "beds": null,
        "name": "BLK 513",
        "opening_hours": null,
        "shop": null,
        "rooms": null
      }
    },
    {
      "type": "Feature",
      "geometry": {
        "type": "Point",
        "coordinates": [
          120.9799991,
          14.5362153
        ]
      },
      "properties": {
        "osm_id": 1324283406,
        "osm_type": "nodes",
        "amenity": "restaurant",
        "tourism": null,
        "beds": null,
        "name": "TGI Friday's",
        "opening_hours": "Mo-Su 11:00-22:00",
        "shop": null,
        "rooms": null
      }
    },
    {
      "type": "Feature",
      "geometry": {
        "type": "Point",
        "coordinates": [
          120.9790897,
          14.5355035
        ]
      },
      "properties": {
        "osm_id": 11281607142,
        "osm_type": "nodes",
        "amenity": "cafe",
        "tourism": null,
        "beds": null,
        "name": "Blvck Cafe",
        "opening_hours": null,
        "shop": null,
        "rooms": null
      }
    },
    {
      "type": "Feature",
      "geometry": {
        "type": "Point",
        "coordinates": [
          120.9802744,
          14.5342689
        ]
      },
      "properties": {
        "osm_id": 11215842519,
        "osm_type": "nodes",
        "amenity": "fast_food",
        "tourism": null,
        "beds": null,
        "name": "Simply Lemon",
        "opening_hours": null,
        "shop": null,
        "rooms": null
      }
    },
    {
      "type": "Feature",
      "geometry": {
        "type": "Point",
        "coordinates": [
          120.9804864,
          14.5347953
        ]
      },
      "properties": {
        "osm_id": 11215828263,
        "osm_type": "nodes",
        "amenity": "fast_food",
        "tourism": null,
        "beds": null,
        "name": "Famous Belgian Waffles",
        "opening_hours": null,
        "shop": null,
        "rooms": null
      }
    },
    {
      "type": "Feature",
      "geometry": {
        "type": "Point",
        "coordinates": [
          120.9802048,
          14.5344994
        ]
      },
      "properties": {
        "osm_id": 11215828270,
        "osm_type": "nodes",
        "amenity": "restaurant",
        "tourism": null,
        "beds": null,
        "name": "Classic Savory",
        "opening_hours": null,
        "shop": null,
        "rooms": null
      }
    },
    {
      "type": "Feature",
      "geometry": {
        "type": "Point",
        "coordinates": [
          120.9808738,
          14.5340187
        ]
      },
      "properties": {
        "osm_id": 1729194930,
        "osm_type": "nodes",
        "amenity": "fast_food",
        "tourism": null,
        "beds": null,
        "name": "Krispy Kreme",
        "opening_hours": "Mo-Su 10:00-22:00",
        "shop": null,
        "rooms": null
      }
    },
    {
      "type": "Feature",
      "geometry": {
        "type": "Point",
        "coordinates": [
          120.9801666,
          14.5343955
        ]
      },
      "properties": {
        "osm_id": 12144006865,
        "osm_type": "nodes",
        "amenity": "cafe",
        "tourism": null,
        "beds": null,
        "name": "Aperitif",
        "opening_hours": null,
        "shop": null,
        "rooms": null
      }
    },
    {
      "type": "Feature",
      "geometry": {
        "type": "Point",
        "coordinates": [
          120.9826241,
          14.5344715
        ]
      },
      "properties": {
        "osm_id": 11215842440,
        "osm_type": "nodes",
        "amenity": "fast_food",
        "tourism": null,
        "beds": null,
        "name": "Irvins Salted Egg",
        "opening_hours": null,
        "shop": null,
        "rooms": null
      }
    },
    {
      "type": "Feature",
      "geometry": {
        "type": "Point",
        "coordinates": [
          120.9801006,
          14.5358521
        ]
      },
      "properties": {
        "osm_id": 12183459674,
        "osm_type": "nodes",
        "amenity": "restaurant",
        "tourism": null,
        "beds": null,
        "name": "Hawker Chan",
        "opening_hours": null,
        "shop": null,
        "rooms": null
      }
    },
    {
      "type": "Feature",
      "geometry": {
        "type": "Point",
        "coordinates": [
          120.9825654,
          14.5355006
        ]
      },
      "properties": {
        "osm_id": 12144006884,
        "osm_type": "nodes",
        "amenity": "fast_food",
        "tourism": null,
        "beds": null,
        "name": "Krispy Kreme",
        "opening_hours": null,
        "shop": null,
        "rooms": null
      }
    },
    {
      "type": "Feature",
      "geometry": {
        "type": "Point",
        "coordinates": [
          120.9825718,
          14.5324846
        ]
      },
      "properties": {
        "osm_id": 12209163034,
        "osm_type": "nodes",
        "amenity": "restaurant",
        "tourism": null,
        "beds": null,
        "name": "Swedish Restaurant",
        "opening_hours": null,
        "shop": null,
        "rooms": null
      }
    },
    {
      "type": "Feature",
      "geometry": {
        "type": "Point",
        "coordinates": [
          120.9801994,
          14.5343215
        ]
      },
      "properties": {
        "osm_id": 11215828272,
        "osm_type": "nodes",
        "amenity": "fast_food",
        "tourism": null,
        "beds": null,
        "name": "Chowking",
        "opening_hours": null,
        "shop": null,
        "rooms": null
      }
    },
    {
      "type": "Feature",
      "geometry": {
        "type": "Point",
        "coordinates": [
          120.980416,
          14.5367854
        ]
      },
      "properties": {
        "osm_id": 11248507952,
        "osm_type": "nodes",
        "amenity": "restaurant",
        "tourism": null,
        "beds": null,
        "name": "Botejyu",
        "opening_hours": null,
        "shop": null,
        "rooms": null
      }
    },
    {
      "type": "Feature",
      "geometry": {
        "type": "Point",
        "coordinates": [
          120.9816351,
          14.5308287
        ]
      },
      "properties": {
        "osm_id": 11665263411,
        "osm_type": "nodes",
        "amenity": "restaurant",
        "tourism": null,
        "beds": null,
        "name": "Chicken Chingu",
        "opening_hours": null,
        "shop": null,
        "rooms": null
      }
    },
    {
      "type": "Feature",
      "geometry": {
        "type": "Point",
        "coordinates": [
          120.981446,
          14.530841
        ]
      },
      "properties": {
        "osm_id": 11665263413,
        "osm_type": "nodes",
        "amenity": "restaurant",
        "tourism": null,
        "beds": null,
        "name": "Popeyes",
        "opening_hours": null,
        "shop": null,
        "rooms": null
      }
    },
    {
      "type": "Feature",
      "geometry": {
        "type": "Point",
        "coordinates": [
          120.9802084,
          14.5338456
        ]
      },
      "properties": {
        "osm_id": 12183459666,
        "osm_type": "nodes",
        "amenity": "restaurant",
        "tourism": null,
        "beds": null,
        "name": "Rico's Lechon",
        "opening_hours": null,
        "shop": null,
        "rooms": null
      }
    },
    {
      "type": "Feature",
      "geometry": {
        "type": "Point",
        "coordinates": [
          120.9804069,
          14.5365446
        ]
      },
      "properties": {
        "osm_id": 12183459677,
        "osm_type": "nodes",
        "amenity": "fast_food",
        "tourism": null,
        "beds": null,
        "name": "Dunkin'",
        "opening_hours": null,
        "shop": null,
        "rooms": null
      }
    },
    {
      "type": "Feature",
      "geometry": {
        "type": "Point",
        "coordinates": [
          120.981458,
          14.5359802
        ]
      },
      "properties": {
        "osm_id": 12183459687,
        "osm_type": "nodes",
        "amenity": "restaurant",
        "tourism": null,
        "beds": null,
        "name": "Yabu",
        "opening_hours": null,
        "shop": null,
        "rooms": null
      }
    },
    {
      "type": "Feature",
      "geometry": {
        "type": "Point",
        "coordinates": [
          120.9815686,
          14.5354386
        ]
      },
      "properties": {
        "osm_id": 11248508182,
        "osm_type": "nodes",
        "amenity": "fast_food",
        "tourism": null,
        "beds": null,
        "name": "Nineteen Degrees",
        "opening_hours": null,
        "shop": null,
        "rooms": null
      }
    },
    {
      "type": "Feature",
      "geometry": {
        "type": "Point",
        "coordinates": [
          120.9826697,
          14.5356807
        ]
      },
      "properties": {
        "osm_id": 12144006885,
        "osm_type": "nodes",
        "amenity": "restaurant",
        "tourism": null,
        "beds": null,
        "name": "Little Flour Cafe",
        "opening_hours": null,
        "shop": null,
        "rooms": null
      }
    },
    {
      "type": "Feature",
      "geometry": {
        "type": "Point",
        "coordinates": [
          120.9817605,
          14.5348083
        ]
      },
      "properties": {
        "osm_id": 11281607160,
        "osm_type": "nodes",
        "amenity": "restaurant",
        "tourism": null,
        "beds": null,
        "name": "Tuan Tuan",
        "opening_hours": null,
        "shop": null,
        "rooms": null
      }
    },
    {
      "type": "Feature",
      "geometry": {
        "type": "Point",
        "coordinates": [
          120.9822292,
          14.53615
        ]
      },
      "properties": {
        "osm_id": 11281607164,
        "osm_type": "nodes",
        "amenity": "fast_food",
        "tourism": null,
        "beds": null,
        "name": "Quickly",
        "opening_hours": null,
        "shop": null,
        "rooms": null
      }
    },
    {
      "type": "Feature",
      "geometry": {
        "type": "Point",
        "coordinates": [
          120.9824104,
          14.5340133
        ]
      },
      "properties": {
        "osm_id": 3191488704,
        "osm_type": "nodes",
        "amenity": "fast_food",
        "tourism": null,
        "beds": null,
        "name": "Wendy's",
        "opening_hours": null,
        "shop": null,
        "rooms": null
      }
    },
    {
      "type": "Feature",
      "geometry": {
        "type": "Point",
        "coordinates": [
          120.981271,
          14.5342326
        ]
      },
      "properties": {
        "osm_id": 7230812727,
        "osm_type": "nodes",
        "amenity": "restaurant",
        "tourism": null,
        "beds": null,
        "name": "Ramen Nagi",
        "opening_hours": null,
        "shop": null,
        "rooms": null
      }
    },
    {
      "type": "Feature",
      "geometry": {
        "type": "Point",
        "coordinates": [
          120.9820897,
          14.53487
        ]
      },
      "properties": {
        "osm_id": 11248508017,
        "osm_type": "nodes",
        "amenity": "restaurant",
        "tourism": null,
        "beds": null,
        "name": "Sea Salt",
        "opening_hours": null,
        "shop": null,
        "rooms": null
      }
    },
    {
      "type": "Feature",
      "geometry": {
        "type": "Point",
        "coordinates": [
          120.9800767,
          14.5347691
        ]
      },
      "properties": {
        "osm_id": 11215842348,
        "osm_type": "nodes",
        "amenity": "restaurant",
        "tourism": null,
        "beds": null,
        "name": "Pepper Lunch",
        "opening_hours": null,
        "shop": null,
        "rooms": null
      }
    },
    {
      "type": "Feature",
      "geometry": {
        "type": "Point",
        "coordinates": [
          120.9828226,
          14.5341112
        ]
      },
      "properties": {
        "osm_id": 11215842409,
        "osm_type": "nodes",
        "amenity": "fast_food",
        "tourism": null,
        "beds": null,
        "name": "McDonald's",
        "opening_hours": null,
        "shop": null,
        "rooms": null
      }
    },
    {
      "type": "Feature",
      "geometry": {
        "type": "Point",
        "coordinates": [
          120.9792779,
          14.5333507
        ]
      },
      "properties": {
        "osm_id": 1618365358,
        "osm_type": "nodes",
        "amenity": "restaurant",
        "tourism": null,
        "beds": null,
        "name": "The Roadhouse Manila Bay",
        "opening_hours": null,
        "shop": null,
        "rooms": null
      }
    },
    {
      "type": "Feature",
      "geometry": {
        "type": "Point",
        "coordinates": [
          120.980638,
          14.534019
        ]
      },
      "properties": {
        "osm_id": 11215828274,
        "osm_type": "nodes",
        "amenity": "restaurant",
        "tourism": null,
        "beds": null,
        "name": "Din Tai Fung",
        "opening_hours": null,
        "shop": null,
        "rooms": null
      }
    },
    {
      "type": "Feature",
      "geometry": {
        "type": "Point",
        "coordinates": [
          120.9827287,
          14.5351017
        ]
      },
      "properties": {
        "osm_id": 11215842552,
        "osm_type": "nodes",
        "amenity": "cafe",
        "tourism": null,
        "beds": null,
        "name": "French Baker",
        "opening_hours": null,
        "shop": null,
        "rooms": null
      }
    },
    {
      "type": "Feature",
      "geometry": {
        "type": "Point",
        "coordinates": [
          120.990561,
          14.532829
        ]
      },
      "properties": {
        "osm_id": 12638686501,
        "osm_type": "nodes",
        "amenity": "restaurant",
        "tourism": null,
        "beds": null,
        "name": "Gala Food Park",
        "opening_hours": "Mo-Th 10:00-22:00; Fr-Su 10:00-00:00",
        "shop": null,
        "rooms": null
      }
    },
    {
      "type": "Feature",
      "geometry": {
        "type": "Point",
        "coordinates": [
          120.9911922,
          14.5364055
        ]
      },
      "properties": {
        "osm_id": 6470583601,
        "osm_type": "nodes",
        "amenity": "restaurant",
        "tourism": null,
        "beds": null,
        "name": "The Orange Bucket",
        "opening_hours": null,
        "shop": null,
        "rooms": null
      }
    },
    {
      "type": "Feature",
      "geometry": {
        "type": "Point",
        "coordinates": [
          120.988808,
          14.5347382
        ]
      },
      "properties": {
        "osm_id": 12189598279,
        "osm_type": "nodes",
        "amenity": "restaurant",
        "tourism": null,
        "beds": null,
        "name": "Infinity Taste",
        "opening_hours": null,
        "shop": null,
        "rooms": null
      }
    },
    {
      "type": "Feature",
      "geometry": {
        "type": "Point",
        "coordinates": [
          120.9894596,
          14.5345666
        ]
      },
      "properties": {
        "osm_id": 12189598288,
        "osm_type": "nodes",
        "amenity": "restaurant",
        "tourism": null,
        "beds": null,
        "name": "Dongji Xiangju Restaurant",
        "opening_hours": null,
        "shop": null,
        "rooms": null
      }
    },
    {
      "type": "Feature",
      "geometry": {
        "type": "Point",
        "coordinates": [
          120.9842514,
          14.5310804
        ]
      },
      "properties": {
        "osm_id": 4907243760,
        "osm_type": "nodes",
        "amenity": "cafe",
        "tourism": null,
        "beds": null,
        "name": "The HubStop Cafe",
        "opening_hours": null,
        "shop": null,
        "rooms": null
      }
    },
    {
      "type": "Feature",
      "geometry": {
        "type": "Point",
        "coordinates": [
          120.9838115,
          14.5310579
        ]
      },
      "properties": {
        "osm_id": 9794017639,
        "osm_type": "nodes",
        "amenity": "restaurant",
        "tourism": null,
        "beds": null,
        "name": "Buffalo's Wing N' Things",
        "opening_hours": null,
        "shop": null,
        "rooms": null
      }
    },
    {
      "type": "Feature",
      "geometry": {
        "type": "Point",
        "coordinates": [
          120.9836126,
          14.5340763
        ]
      },
      "properties": {
        "osm_id": 12183459613,
        "osm_type": "nodes",
        "amenity": "fast_food",
        "tourism": null,
        "beds": null,
        "name": "Chichabog",
        "opening_hours": null,
        "shop": null,
        "rooms": null
      }
    },
    {
      "type": "Feature",
      "geometry": {
        "type": "Point",
        "coordinates": [
          120.9836432,
          14.5363279
        ]
      },
      "properties": {
        "osm_id": 12183459626,
        "osm_type": "nodes",
        "amenity": "fast_food",
        "tourism": null,
        "beds": null,
        "name": "Itlog on Stick",
        "opening_hours": null,
        "shop": null,
        "rooms": null
      }
    },
    {
      "type": "Feature",
      "geometry": {
        "type": "Point",
        "coordinates": [
          120.9837057,
          14.5363291
        ]
      },
      "properties": {
        "osm_id": 12183459628,
        "osm_type": "nodes",
        "amenity": "fast_food",
        "tourism": null,
        "beds": null,
        "name": "Fruitas",
        "opening_hours": null,
        "shop": null,
        "rooms": null
      }
    },
    {
      "type": "Feature",
      "geometry": {
        "type": "Point",
        "coordinates": [
          120.9853679,
          14.539322
        ]
      },
      "properties": {
        "osm_id": 12071293916,
        "osm_type": "nodes",
        "amenity": "bar",
        "tourism": null,
        "beds": null,
        "name": "Shinya Izakaya",
        "opening_hours": null,
        "shop": null,
        "rooms": null
      }
    },
    {
      "type": "Feature",
      "geometry": {
        "type": "Point",
        "coordinates": [
          120.9845803,
          14.5407616
        ]
      },
      "properties": {
        "osm_id": 12061034214,
        "osm_type": "nodes",
        "amenity": "cafe",
        "tourism": null,
        "beds": null,
        "name": "Starbucks",
        "opening_hours": null,
        "shop": null,
        "rooms": null
      }
    },
    {
      "type": "Feature",
      "geometry": {
        "type": "Point",
        "coordinates": [
          120.9863901,
          14.536142
        ]
      },
      "properties": {
        "osm_id": 11171283933,
        "osm_type": "nodes",
        "amenity": "restaurant",
        "tourism": null,
        "beds": null,
        "name": "Mister Kabab",
        "opening_hours": null,
        "shop": null,
        "rooms": null
      }
    },
    {
      "type": "Feature",
      "geometry": {
        "type": "Point",
        "coordinates": [
          120.9906504,
          14.5362705
        ]
      },
      "properties": {
        "osm_id": 6470583605,
        "osm_type": "nodes",
        "amenity": "fast_food",
        "tourism": null,
        "beds": null,
        "name": "Burger King",
        "opening_hours": null,
        "shop": null,
        "rooms": null
      }
    },
    {
      "type": "Feature",
      "geometry": {
        "type": "Point",
        "coordinates": [
          120.9891973,
          14.5374749
        ]
      },
      "properties": {
        "osm_id": 2639732949,
        "osm_type": "nodes",
        "amenity": "restaurant",
        "tourism": null,
        "beds": null,
        "name": "The Food Club",
        "opening_hours": null,
        "shop": null,
        "rooms": null
      }
    },
    {
      "type": "Feature",
      "geometry": {
        "type": "Point",
        "coordinates": [
          120.9800813,
          14.5342131
        ]
      },
      "properties": {
        "osm_id": 1324283582,
        "osm_type": "nodes",
        "amenity": "restaurant",
        "tourism": null,
        "beds": null,
        "name": "Rack's",
        "opening_hours": "Mo-Su 11:00-22:00",
        "shop": null,
        "rooms": null
      }
    },
    {
      "type": "Feature",
      "geometry": {
        "type": "Point",
        "coordinates": [
          121.0154467,
          14.5172197
        ]
      },
      "properties": {
        "osm_id": 11933891718,
        "osm_type": "nodes",
        "amenity": "cafe",
        "tourism": null,
        "beds": null,
        "name": "Fly Caf\u00e9",
        "opening_hours": null,
        "shop": null,
        "rooms": null
      }
    },
    {
      "type": "Feature",
      "geometry": {
        "type": "Point",
        "coordinates": [
          121.0156674,
          14.5170194
        ]
      },
      "properties": {
        "osm_id": 11844494098,
        "osm_type": "nodes",
        "amenity": "cafe",
        "tourism": null,
        "beds": null,
        "name": "Ciosco Pocofino",
        "opening_hours": null,
        "shop": null,
        "rooms": null
      }
    },
    {
      "type": "Feature",
      "geometry": {
        "type": "Point",
        "coordinates": [
          121.0165292,
          14.5206824
        ]
      },
      "properties": {
        "osm_id": 12000028363,
        "osm_type": "nodes",
        "amenity": "cafe",
        "tourism": null,
        "beds": null,
        "name": "Caf\u00e9 Belmont",
        "opening_hours": "06:00-22:00",
        "shop": null,
        "rooms": null
      }
    },
    {
      "type": "Feature",
      "geometry": {
        "type": "Point",
        "coordinates": [
          121.0157536,
          14.520731
        ]
      },
      "properties": {
        "osm_id": 943229683,
        "osm_type": "nodes",
        "amenity": "cafe",
        "tourism": null,
        "beds": null,
        "name": "Cafe Bonjour",
        "opening_hours": null,
        "shop": null,
        "rooms": null
      }
    },
    {
      "type": "Feature",
      "geometry": {
        "type": "Point",
        "coordinates": [
          121.0199434,
          14.5190452
        ]
      },
      "properties": {
        "osm_id": 11018945054,
        "osm_type": "nodes",
        "amenity": "restaurant",
        "tourism": null,
        "beds": null,
        "name": "Italiani\u2019s",
        "opening_hours": null,
        "shop": null,
        "rooms": null
      }
    },
    {
      "type": "Feature",
      "geometry": {
        "type": "Point",
        "coordinates": [
          121.0177791,
          14.518842
        ]
      },
      "properties": {
        "osm_id": 948087967,
        "osm_type": "nodes",
        "amenity": "restaurant",
        "tourism": null,
        "beds": null,
        "name": "Pancake House",
        "opening_hours": null,
        "shop": null,
        "rooms": null
      }
    },
    {
      "type": "Feature",
      "geometry": {
        "type": "Point",
        "coordinates": [
          121.003409,
          14.5153938
        ]
      },
      "properties": {
        "osm_id": 12498251307,
        "osm_type": "nodes",
        "amenity": "fast_food",
        "tourism": null,
        "beds": null,
        "name": "Burger Machine",
        "opening_hours": null,
        "shop": null,
        "rooms": null
      }
    },
    {
      "type": "Feature",
      "geometry": {
        "type": "Point",
        "coordinates": [
          121.0137899,
          14.5095323
        ]
      },
      "properties": {
        "osm_id": 11340597447,
        "osm_type": "nodes",
        "amenity": "fast_food",
        "tourism": null,
        "beds": null,
        "name": "Central Cafe",
        "opening_hours": null,
        "shop": null,
        "rooms": null
      }
    },
    {
      "type": "Feature",
      "geometry": {
        "type": "Point",
        "coordinates": [
          121.0126036,
          14.5103668
        ]
      },
      "properties": {
        "osm_id": 10959245078,
        "osm_type": "nodes",
        "amenity": "cafe",
        "tourism": null,
        "beds": null,
        "name": "Cafe France",
        "opening_hours": null,
        "shop": null,
        "rooms": null
      }
    },
    {
      "type": "Feature",
      "geometry": {
        "type": "Point",
        "coordinates": [
          120.9883439,
          14.5462515
        ]
      },
      "properties": {
        "osm_id": 6684991471,
        "osm_type": "nodes",
        "amenity": "restaurant",
        "tourism": null,
        "beds": null,
        "name": "Bacham Eatery",
        "opening_hours": "Mo-Sa 06:00-18:00",
        "shop": null,
        "rooms": null
      }
    },
    {
      "type": "Feature",
      "geometry": {
        "type": "Point",
        "coordinates": [
          120.9989271,
          14.5472006
        ]
      },
      "properties": {
        "osm_id": 10106773841,
        "osm_type": "nodes",
        "amenity": "cafe",
        "tourism": null,
        "beds": null,
        "name": "Vee Tea plus Cafe",
        "opening_hours": null,
        "shop": null,
        "rooms": null
      }
    },
    {
      "type": "Feature",
      "geometry": {
        "type": "Point",
        "coordinates": [
          120.9970708,
          14.5550357
        ]
      },
      "properties": {
        "osm_id": 2916660954,
        "osm_type": "nodes",
        "amenity": "cafe",
        "tourism": null,
        "beds": null,
        "name": "Dunkin' Donuts",
        "opening_hours": "Mo-Su 06:00-22:00",
        "shop": null,
        "rooms": null
      }
    },
    {
      "type": "Feature",
      "geometry": {
        "type": "Point",
        "coordinates": [
          120.986763,
          14.5455145
        ]
      },
      "properties": {
        "osm_id": 5293565922,
        "osm_type": "nodes",
        "amenity": "restaurant",
        "tourism": null,
        "beds": null,
        "name": "Heuying restaurant Seaside",
        "opening_hours": "Mo-Su 11:00-22:00",
        "shop": null,
        "rooms": null
      }
    },
    {
      "type": "Feature",
      "geometry": {
        "type": "Point",
        "coordinates": [
          120.9977455,
          14.5507558
        ]
      },
      "properties": {
        "osm_id": 11677308018,
        "osm_type": "nodes",
        "amenity": "fast_food",
        "tourism": null,
        "beds": null,
        "name": "McDonald's",
        "opening_hours": null,
        "shop": null,
        "rooms": null
      }
    },
    {
      "type": "Feature",
      "geometry": {
        "type": "Point",
        "coordinates": [
          120.9925715,
          14.545905
        ]
      },
      "properties": {
        "osm_id": 4670260993,
        "osm_type": "nodes",
        "amenity": "fast_food",
        "tourism": null,
        "beds": null,
        "name": "Kulitz Food House",
        "opening_hours": null,
        "shop": null,
        "rooms": null
      }
    },
    {
      "type": "Feature",
      "geometry": {
        "type": "Point",
        "coordinates": [
          120.9960496,
          14.5469465
        ]
      },
      "properties": {
        "osm_id": 9214436252,
        "osm_type": "nodes",
        "amenity": "restaurant",
        "tourism": null,
        "beds": null,
        "name": "199 Avenue Restaurant",
        "opening_hours": null,
        "shop": null,
        "rooms": null
      }
    },
    {
      "type": "Feature",
      "geometry": {
        "type": "Point",
        "coordinates": [
          120.9893544,
          14.5546203
        ]
      },
      "properties": {
        "osm_id": 255071872,
        "osm_type": "nodes",
        "amenity": "pub",
        "tourism": null,
        "beds": null,
        "name": "East Asia",
        "opening_hours": null,
        "shop": null,
        "rooms": null
      }
    },
    {
      "type": "Feature",
      "geometry": {
        "type": "Point",
        "coordinates": [
          120.9861199,
          14.5468406
        ]
      },
      "properties": {
        "osm_id": 4512994190,
        "osm_type": "nodes",
        "amenity": "restaurant",
        "tourism": null,
        "beds": null,
        "name": "Cheng's Kitchenette",
        "opening_hours": null,
        "shop": null,
        "rooms": null
      }
    },
    {
      "type": "Feature",
      "geometry": {
        "type": "Point",
        "coordinates": [
          121.0014425,
          14.5378658
        ]
      },
      "properties": {
        "osm_id": 2532994551,
        "osm_type": "nodes",
        "amenity": "fast_food",
        "tourism": null,
        "beds": null,
        "name": "Chowking",
        "opening_hours": null,
        "shop": null,
        "rooms": null
      }
    },
    {
      "type": "Feature",
      "geometry": {
        "type": "Point",
        "coordinates": [
          121.0115794,
          14.5211999
        ]
      },
      "properties": {
        "osm_id": 12542954634,
        "osm_type": "nodes",
        "amenity": "fast_food",
        "tourism": null,
        "beds": null,
        "name": "Goto King",
        "opening_hours": null,
        "shop": null,
        "rooms": null
      }
    },
    {
      "type": "Feature",
      "geometry": {
        "type": "Point",
        "coordinates": [
          121.0126142,
          14.5199228
        ]
      },
      "properties": {
        "osm_id": 12141087869,
        "osm_type": "nodes",
        "amenity": "fast_food",
        "tourism": null,
        "beds": null,
        "name": "Krispy Kreme",
        "opening_hours": null,
        "shop": null,
        "rooms": null
      }
    },
    {
      "type": "Feature",
      "geometry": {
        "type": "Point",
        "coordinates": [
          121.0144435,
          14.5198103
        ]
      },
      "properties": {
        "osm_id": 12141006682,
        "osm_type": "nodes",
        "amenity": "restaurant",
        "tourism": null,
        "beds": null,
        "name": "Denny's",
        "opening_hours": null,
        "shop": null,
        "rooms": null
      }
    },
    {
      "type": "Feature",
      "geometry": {
        "type": "Point",
        "coordinates": [
          121.0087269,
          14.5382372
        ]
      },
      "properties": {
        "osm_id": 4418576189,
        "osm_type": "nodes",
        "amenity": "bar",
        "tourism": null,
        "beds": null,
        "name": "Diana Resto Bar",
        "opening_hours": null,
        "shop": null,
        "rooms": null
      }
    },
    {
      "type": "Feature",
      "geometry": {
        "type": "Point",
        "coordinates": [
          121.0142032,
          14.5190034
        ]
      },
      "properties": {
        "osm_id": 11817999980,
        "osm_type": "nodes",
        "amenity": "restaurant",
        "tourism": null,
        "beds": null,
        "name": "Shanghai Saloon",
        "opening_hours": null,
        "shop": null,
        "rooms": null
      }
    },
    {
      "type": "Feature",
      "geometry": {
        "type": "Point",
        "coordinates": [
          121.0142172,
          14.5194819
        ]
      },
      "properties": {
        "osm_id": 11143523875,
        "osm_type": "nodes",
        "amenity": "cafe",
        "tourism": null,
        "beds": null,
        "name": "M Boutique",
        "opening_hours": null,
        "shop": null,
        "rooms": null
      }
    },
    {
      "type": "Feature",
      "geometry": {
        "type": "Point",
        "coordinates": [
          121.0108382,
          14.5218297
        ]
      },
      "properties": {
        "osm_id": 11782429569,
        "osm_type": "nodes",
        "amenity": "fast_food",
        "tourism": null,
        "beds": null,
        "name": "Army Navy",
        "opening_hours": null,
        "shop": null,
        "rooms": null
      }
    },
    {
      "type": "Feature",
      "geometry": {
        "type": "Point",
        "coordinates": [
          121.0036808,
          14.5342709
        ]
      },
      "properties": {
        "osm_id": 11694585626,
        "osm_type": "nodes",
        "amenity": "fast_food",
        "tourism": null,
        "beds": null,
        "name": "Jollibee",
        "opening_hours": null,
        "shop": null,
        "rooms": null
      }
    },
    {
      "type": "Feature",
      "geometry": {
        "type": "Point",
        "coordinates": [
          121.0143211,
          14.5195866
        ]
      },
      "properties": {
        "osm_id": 6684039175,
        "osm_type": "nodes",
        "amenity": "fast_food",
        "tourism": null,
        "beds": null,
        "name": "Dairy Queen",
        "opening_hours": null,
        "shop": null,
        "rooms": null
      }
    },
    {
      "type": "Feature",
      "geometry": {
        "type": "Point",
        "coordinates": [
          121.0123608,
          14.5201723
        ]
      },
      "properties": {
        "osm_id": 5783070554,
        "osm_type": "nodes",
        "amenity": "bar",
        "tourism": null,
        "beds": null,
        "name": "Chaikofi",
        "opening_hours": null,
        "shop": null,
        "rooms": null
      }
    },
    {
      "type": "Feature",
      "geometry": {
        "type": "Point",
        "coordinates": [
          121.001059,
          14.538166
        ]
      },
      "properties": {
        "osm_id": 13112181615,
        "osm_type": "nodes",
        "amenity": "fast_food",
        "tourism": null,
        "beds": null,
        "name": "Jollibee",
        "opening_hours": null,
        "shop": null,
        "rooms": null
      }
    },
    {
      "type": "Feature",
      "geometry": {
        "type": "Point",
        "coordinates": [
          121.0012648,
          14.5382316
        ]
      },
      "properties": {
        "osm_id": 13112181622,
        "osm_type": "nodes",
        "amenity": "restaurant",
        "tourism": null,
        "beds": null,
        "name": "King Sisig",
        "opening_hours": null,
        "shop": null,
        "rooms": null
      }
    },
    {
      "type": "Feature",
      "geometry": {
        "type": "Point",
        "coordinates": [
          121.0012581,
          14.5382443
        ]
      },
      "properties": {
        "osm_id": 13112181623,
        "osm_type": "nodes",
        "amenity": "restaurant",
        "tourism": null,
        "beds": null,
        "name": "Bulalo World",
        "opening_hours": null,
        "shop": null,
        "rooms": null
      }
    },
    {
      "type": "Feature",
      "geometry": {
        "type": "Point",
        "coordinates": [
          121.0015967,
          14.5378741
        ]
      },
      "properties": {
        "osm_id": 2532994571,
        "osm_type": "nodes",
        "amenity": "fast_food",
        "tourism": null,
        "beds": null,
        "name": "Jollibee",
        "opening_hours": null,
        "shop": null,
        "rooms": null
      }
    },
    {
      "type": "Feature",
      "geometry": {
        "type": "Point",
        "coordinates": [
          120.9891178,
          14.5315706
        ]
      },
      "properties": {
        "osm_id": 12832923595,
        "osm_type": "nodes",
        "amenity": "fast_food",
        "tourism": null,
        "beds": null,
        "name": "Pickup Coffee",
        "opening_hours": null,
        "shop": null,
        "rooms": null
      }
    },
    {
      "type": "Feature",
      "geometry": {
        "type": "Point",
        "coordinates": [
          120.9801125,
          14.536486
        ]
      },
      "properties": {
        "osm_id": 255064830,
        "osm_type": "nodes",
        "amenity": "restaurant",
        "tourism": null,
        "beds": null,
        "name": "Mesa",
        "opening_hours": null,
        "shop": null,
        "rooms": null
      }
    },
    {
      "type": "Feature",
      "geometry": {
        "type": "Point",
        "coordinates": [
          120.9803036,
          14.5347142
        ]
      },
      "properties": {
        "osm_id": 11215828256,
        "osm_type": "nodes",
        "amenity": "fast_food",
        "tourism": null,
        "beds": null,
        "name": "Onigiri Ya",
        "opening_hours": null,
        "shop": null,
        "rooms": null
      }
    },
    {
      "type": "Feature",
      "geometry": {
        "type": "Point",
        "coordinates": [
          120.980093,
          14.5357797
        ]
      },
      "properties": {
        "osm_id": 12183459673,
        "osm_type": "nodes",
        "amenity": "restaurant",
        "tourism": null,
        "beds": null,
        "name": "Killiney",
        "opening_hours": null,
        "shop": null,
        "rooms": null
      }
    },
    {
      "type": "Feature",
      "geometry": {
        "type": "Point",
        "coordinates": [
          120.9802946,
          14.5351757
        ]
      },
      "properties": {
        "osm_id": 12707165695,
        "osm_type": "nodes",
        "amenity": "fast_food",
        "tourism": null,
        "beds": null,
        "name": "Homer",
        "opening_hours": null,
        "shop": null,
        "rooms": null
      }
    },
    {
      "type": "Feature",
      "geometry": {
        "type": "Point",
        "coordinates": [
          120.9801015,
          14.5367932
        ]
      },
      "properties": {
        "osm_id": 12832943726,
        "osm_type": "nodes",
        "amenity": "restaurant",
        "tourism": null,
        "beds": null,
        "name": "Soi Chicken",
        "opening_hours": null,
        "shop": null,
        "rooms": null
      }
    },
    {
      "type": "Feature",
      "geometry": {
        "type": "Point",
        "coordinates": [
          120.982659,
          14.5358027
        ]
      },
      "properties": {
        "osm_id": 12144006882,
        "osm_type": "nodes",
        "amenity": "pharmacy",
        "tourism": null,
        "beds": null,
        "name": "Watsons",
        "opening_hours": null,
        "shop": "chemist",
        "rooms": null
      }
    },
    {
      "type": "Feature",
      "geometry": {
        "type": "Point",
        "coordinates": [
          120.9808078,
          14.5325662
        ]
      },
      "properties": {
        "osm_id": 12550853974,
        "osm_type": "nodes",
        "amenity": "restaurant",
        "tourism": null,
        "beds": null,
        "name": "Harry's",
        "opening_hours": null,
        "shop": null,
        "rooms": null
      }
    },
    {
      "type": "Feature",
      "geometry": {
        "type": "Point",
        "coordinates": [
          120.9808653,
          14.5325915
        ]
      },
      "properties": {
        "osm_id": 12707187673,
        "osm_type": "nodes",
        "amenity": "fast_food",
        "tourism": null,
        "beds": null,
        "name": "DC Delights",
        "opening_hours": null,
        "shop": null,
        "rooms": null
      }
    },
    {
      "type": "Feature",
      "geometry": {
        "type": "Point",
        "coordinates": [
          120.9805986,
          14.5361272
        ]
      },
      "properties": {
        "osm_id": 12339276920,
        "osm_type": "nodes",
        "amenity": "cafe",
        "tourism": null,
        "beds": null,
        "name": "Kenangan Coffee",
        "opening_hours": null,
        "shop": null,
        "rooms": null
      }
    },
    {
      "type": "Feature",
      "geometry": {
        "type": "Point",
        "coordinates": [
          120.9808253,
          14.5324923
        ]
      },
      "properties": {
        "osm_id": 12550853976,
        "osm_type": "nodes",
        "amenity": "restaurant",
        "tourism": null,
        "beds": null,
        "name": "Tsujiri",
        "opening_hours": null,
        "shop": null,
        "rooms": null
      }
    },
    {
      "type": "Feature",
      "geometry": {
        "type": "Point",
        "coordinates": [
          120.9800689,
          14.5323923
        ]
      },
      "properties": {
        "osm_id": 12550864033,
        "osm_type": "nodes",
        "amenity": "restaurant",
        "tourism": null,
        "beds": null,
        "name": "Italianni's",
        "opening_hours": null,
        "shop": null,
        "rooms": null
      }
    },
    {
      "type": "Feature",
      "geometry": {
        "type": "Point",
        "coordinates": [
          120.9800759,
          14.5325042
        ]
      },
      "properties": {
        "osm_id": 12550864034,
        "osm_type": "nodes",
        "amenity": "restaurant",
        "tourism": null,
        "beds": null,
        "name": "Watami Grill & Sushi Bar",
        "opening_hours": null,
        "shop": null,
        "rooms": null
      }
    },
    {
      "type": "Feature",
      "geometry": {
        "type": "Point",
        "coordinates": [
          120.9802698,
          14.5326217
        ]
      },
      "properties": {
        "osm_id": 12550864038,
        "osm_type": "nodes",
        "amenity": "cafe",
        "tourism": null,
        "beds": null,
        "name": "UCC Mentore",
        "opening_hours": null,
        "shop": null,
        "rooms": null
      }
    },
    {
      "type": "Feature",
      "geometry": {
        "type": "Point",
        "coordinates": [
          121.013996,
          14.5213051
        ]
      },
      "properties": {
        "osm_id": 11827722476,
        "osm_type": "nodes",
        "amenity": "restaurant",
        "tourism": null,
        "beds": null,
        "name": "Kusina",
        "opening_hours": null,
        "shop": null,
        "rooms": null
      }
    },
    {
      "type": "Feature",
      "geometry": {
        "type": "Point",
        "coordinates": [
          121.0117369,
          14.5210511
        ]
      },
      "properties": {
        "osm_id": 11811730293,
        "osm_type": "nodes",
        "amenity": "cafe",
        "tourism": null,
        "beds": null,
        "name": "Highlands Coffee",
        "opening_hours": null,
        "shop": null,
        "rooms": null
      }
    },
    {
      "type": "Feature",
      "geometry": {
        "type": "Point",
        "coordinates": [
          120.980198,
          14.5354358
        ]
      },
      "properties": {
        "osm_id": 12339276928,
        "osm_type": "nodes",
        "amenity": "cafe",
        "tourism": null,
        "beds": null,
        "name": "BBK",
        "opening_hours": null,
        "shop": null,
        "rooms": null
      }
    },
    {
      "type": "Feature",
      "geometry": {
        "type": "Point",
        "coordinates": [
          120.9795131,
          14.5341797
        ]
      },
      "properties": {
        "osm_id": 12707165690,
        "osm_type": "nodes",
        "amenity": "fast_food",
        "tourism": null,
        "beds": null,
        "name": "Chachago",
        "opening_hours": null,
        "shop": null,
        "rooms": null
      }
    },
    {
      "type": "Feature",
      "geometry": {
        "type": "Point",
        "coordinates": [
          120.982427,
          14.5360001
        ]
      },
      "properties": {
        "osm_id": 12832943734,
        "osm_type": "nodes",
        "amenity": "restaurant",
        "tourism": null,
        "beds": null,
        "name": "Gyukatsu Kyoto Katsuguyu",
        "opening_hours": null,
        "shop": null,
        "rooms": null
      }
    },
    {
      "type": "Feature",
      "geometry": {
        "type": "Point",
        "coordinates": [
          120.9801461,
          14.536234
        ]
      },
      "properties": {
        "osm_id": 4109322289,
        "osm_type": "nodes",
        "amenity": "restaurant",
        "tourism": null,
        "beds": null,
        "name": "Cabalen Plus",
        "opening_hours": null,
        "shop": null,
        "rooms": null
      }
    },
    {
      "type": "Feature",
      "geometry": {
        "type": "Point",
        "coordinates": [
          120.9801153,
          14.5365917
        ]
      },
      "properties": {
        "osm_id": 4907243750,
        "osm_type": "nodes",
        "amenity": "restaurant",
        "tourism": null,
        "beds": null,
        "name": "Dongwon Garden",
        "opening_hours": null,
        "shop": null,
        "rooms": null
      }
    },
    {
      "type": "Feature",
      "geometry": {
        "type": "Point",
        "coordinates": [
          120.9800942,
          14.5366823
        ]
      },
      "properties": {
        "osm_id": 7230812731,
        "osm_type": "nodes",
        "amenity": "restaurant",
        "tourism": null,
        "beds": null,
        "name": "Tong Yang Plus",
        "opening_hours": null,
        "shop": null,
        "rooms": null
      }
    },
    {
      "type": "Feature",
      "geometry": {
        "type": "Point",
        "coordinates": [
          120.9892063,
          14.5313486
        ]
      },
      "properties": {
        "osm_id": 12832923597,
        "osm_type": "nodes",
        "amenity": "restaurant",
        "tourism": null,
        "beds": null,
        "name": "North Park",
        "opening_hours": null,
        "shop": null,
        "rooms": null
      }
    },
    {
      "type": "Feature",
      "geometry": {
        "type": "Point",
        "coordinates": [
          120.9802987,
          14.5353302
        ]
      },
      "properties": {
        "osm_id": 12832943721,
        "osm_type": "nodes",
        "amenity": "fast_food",
        "tourism": null,
        "beds": null,
        "name": "Tarsier Fried Food",
        "opening_hours": null,
        "shop": null,
        "rooms": null
      }
    },
    {
      "type": "Feature",
      "geometry": {
        "type": "Point",
        "coordinates": [
          120.9804113,
          14.536888
        ]
      },
      "properties": {
        "osm_id": 12832943727,
        "osm_type": "nodes",
        "amenity": "restaurant",
        "tourism": null,
        "beds": null,
        "name": "Tonkotsu Kazan Ramen",
        "opening_hours": null,
        "shop": null,
        "rooms": null
      }
    },
    {
      "type": "Feature",
      "geometry": {
        "type": "Point",
        "coordinates": [
          120.9805991,
          14.536126
        ]
      },
      "properties": {
        "osm_id": 12832943728,
        "osm_type": "nodes",
        "amenity": "fast_food",
        "tourism": null,
        "beds": null,
        "name": "Koi The",
        "opening_hours": null,
        "shop": null,
        "rooms": null
      }
    },
    {
      "type": "Feature",
      "geometry": {
        "type": "Point",
        "coordinates": [
          120.9803016,
          14.534783
        ]
      },
      "properties": {
        "osm_id": 11215828257,
        "osm_type": "nodes",
        "amenity": "fast_food",
        "tourism": null,
        "beds": null,
        "name": "Happy Lemon",
        "opening_hours": null,
        "shop": null,
        "rooms": null
      }
    },
    {
      "type": "Feature",
      "geometry": {
        "type": "Point",
        "coordinates": [
          120.980299,
          14.5344909
        ]
      },
      "properties": {
        "osm_id": 11248508223,
        "osm_type": "nodes",
        "amenity": "restaurant",
        "tourism": null,
        "beds": null,
        "name": "La Churrera",
        "opening_hours": null,
        "shop": null,
        "rooms": null
      }
    },
    {
      "type": "Feature",
      "geometry": {
        "type": "Point",
        "coordinates": [
          120.9808165,
          14.5325298
        ]
      },
      "properties": {
        "osm_id": 12550853975,
        "osm_type": "nodes",
        "amenity": "fast_food",
        "tourism": null,
        "beds": null,
        "name": "Famous Amos",
        "opening_hours": null,
        "shop": null,
        "rooms": null
      }
    },
    {
      "type": "Feature",
      "geometry": {
        "type": "Point",
        "coordinates": [
          120.9802237,
          14.5326213
        ]
      },
      "properties": {
        "osm_id": 6283146185,
        "osm_type": "nodes",
        "amenity": "restaurant",
        "tourism": null,
        "beds": null,
        "name": "Hard Rock Cafe",
        "opening_hours": null,
        "shop": null,
        "rooms": null
      }
    },
    {
      "type": "Feature",
      "geometry": {
        "type": "Point",
        "coordinates": [
          120.9801283,
          14.5313214
        ]
      },
      "properties": {
        "osm_id": 7230812729,
        "osm_type": "nodes",
        "amenity": "restaurant",
        "tourism": null,
        "beds": null,
        "name": "Locavore",
        "opening_hours": null,
        "shop": null,
        "rooms": null
      }
    },
    {
      "type": "Feature",
      "geometry": {
        "type": "Point",
        "coordinates": [
          120.9820643,
          14.5360198
        ]
      },
      "properties": {
        "osm_id": 12183468402,
        "osm_type": "nodes",
        "amenity": "restaurant",
        "tourism": null,
        "beds": null,
        "name": "Ya Yun Kaya Toast",
        "opening_hours": null,
        "shop": null,
        "rooms": null
      }
    },
    {
      "type": "Feature",
      "geometry": {
        "type": "Point",
        "coordinates": [
          120.9801481,
          14.5315287
        ]
      },
      "properties": {
        "osm_id": 12550853993,
        "osm_type": "nodes",
        "amenity": "restaurant",
        "tourism": null,
        "beds": null,
        "name": "Uma Uma",
        "opening_hours": null,
        "shop": null,
        "rooms": null
      }
    },
    {
      "type": "Feature",
      "geometry": {
        "type": "Point",
        "coordinates": [
          120.9801252,
          14.5318953
        ]
      },
      "properties": {
        "osm_id": 12550853995,
        "osm_type": "nodes",
        "amenity": "restaurant",
        "tourism": null,
        "beds": null,
        "name": "Paradise Dynasty",
        "opening_hours": null,
        "shop": null,
        "rooms": null
      }
    },
    {
      "type": "Feature",
      "geometry": {
        "type": "Point",
        "coordinates": [
          120.9801215,
          14.5322184
        ]
      },
      "properties": {
        "osm_id": 12550864001,
        "osm_type": "nodes",
        "amenity": "restaurant",
        "tourism": null,
        "beds": null,
        "name": "Barcino",
        "opening_hours": null,
        "shop": null,
        "rooms": null
      }
    },
    {
      "type": "Feature",
      "geometry": {
        "type": "Point",
        "coordinates": [
          121.0198212,
          14.5184982
        ]
      },
      "properties": {
        "osm_id": 11018945056,
        "osm_type": "nodes",
        "amenity": "cafe",
        "tourism": null,
        "beds": null,
        "name": "Starbucks",
        "opening_hours": "Mo-Fr 06:00-23:00",
        "shop": null,
        "rooms": null
      }
    },
    {
      "type": "Feature",
      "geometry": {
        "type": "Point",
        "coordinates": [
          121.0120797,
          14.5204407
        ]
      },
      "properties": {
        "osm_id": 5783070653,
        "osm_type": "nodes",
        "amenity": "fast_food",
        "tourism": null,
        "beds": null,
        "name": "Tsim Sha Tsui",
        "opening_hours": null,
        "shop": null,
        "rooms": null
      }
    },
    {
      "type": "Feature",
      "geometry": {
        "type": "Point",
        "coordinates": [
          121.0125086,
          14.5089906
        ]
      },
      "properties": {
        "osm_id": 4627366890,
        "osm_type": "nodes",
        "amenity": "cafe",
        "tourism": null,
        "beds": null,
        "name": "Cafe France",
        "opening_hours": null,
        "shop": null,
        "rooms": null
      }
    },
    {
      "type": "Feature",
      "geometry": {
        "type": "Point",
        "coordinates": [
          121.0132104,
          14.5093611
        ]
      },
      "properties": {
        "osm_id": 11454170063,
        "osm_type": "nodes",
        "amenity": "fast_food",
        "tourism": null,
        "beds": null,
        "name": "Persian Avenue",
        "opening_hours": null,
        "shop": null,
        "rooms": null
      }
    },
    {
      "type": "Feature",
      "geometry": {
        "type": "Point",
        "coordinates": [
          121.0128654,
          14.5091181
        ]
      },
      "properties": {
        "osm_id": 11454170066,
        "osm_type": "nodes",
        "amenity": "cafe",
        "tourism": null,
        "beds": null,
        "name": "Singapura Cafe",
        "opening_hours": null,
        "shop": null,
        "rooms": null
      }
    },
    {
      "type": "Feature",
      "geometry": {
        "type": "Point",
        "coordinates": [
          120.981978,
          14.5360178
        ]
      },
      "properties": {
        "osm_id": 12183468401,
        "osm_type": "nodes",
        "amenity": "restaurant",
        "tourism": null,
        "beds": null,
        "name": "Stuff'd",
        "opening_hours": null,
        "shop": null,
        "rooms": null
      }
    },
    {
      "type": "Feature",
      "geometry": {
        "type": "Point",
        "coordinates": [
          120.9883768,
          14.5371369
        ]
      },
      "properties": {
        "osm_id": 6393959937,
        "osm_type": "nodes",
        "amenity": "restaurant",
        "tourism": null,
        "beds": null,
        "name": "Li Garden Hot Pot Kitchen",
        "opening_hours": null,
        "shop": null,
        "rooms": null
      }
    },
    {
      "type": "Feature",
      "geometry": {
        "type": "Point",
        "coordinates": [
          120.9893534,
          14.5359637
        ]
      },
      "properties": {
        "osm_id": 6470583594,
        "osm_type": "nodes",
        "amenity": "restaurant",
        "tourism": null,
        "beds": null,
        "name": "Yoshinoya",
        "opening_hours": null,
        "shop": null,
        "rooms": null
      }
    },
    {
      "type": "Feature",
      "geometry": {
        "type": "Point",
        "coordinates": [
          120.981465,
          14.5349529
        ]
      },
      "properties": {
        "osm_id": 11215842463,
        "osm_type": "nodes",
        "amenity": "fast_food",
        "tourism": null,
        "beds": null,
        "name": "Marugame Udon",
        "opening_hours": null,
        "shop": null,
        "rooms": null
      }
    },
    {
      "type": "Feature",
      "geometry": {
        "type": "Point",
        "coordinates": [
          120.9818153,
          14.5360182
        ]
      },
      "properties": {
        "osm_id": 12144006847,
        "osm_type": "nodes",
        "amenity": "restaurant",
        "tourism": null,
        "beds": null,
        "name": "Tamoya Udon & Tempura",
        "opening_hours": null,
        "shop": null,
        "rooms": null
      }
    },
    {
      "type": "Feature",
      "geometry": {
        "type": "Point",
        "coordinates": [
          120.9838107,
          14.5340786
        ]
      },
      "properties": {
        "osm_id": 12183459610,
        "osm_type": "nodes",
        "amenity": "fast_food",
        "tourism": null,
        "beds": null,
        "name": "Hotdog on Stick",
        "opening_hours": null,
        "shop": null,
        "rooms": null
      }
    },
    {
      "type": "Feature",
      "geometry": {
        "type": "Point",
        "coordinates": [
          120.9862184,
          14.5361035
        ]
      },
      "properties": {
        "osm_id": 12060670715,
        "osm_type": "nodes",
        "amenity": "restaurant",
        "tourism": null,
        "beds": null,
        "name": "Trendy Dimsum",
        "opening_hours": null,
        "shop": null,
        "rooms": null
      }
    },
    {
      "type": "Feature",
      "geometry": {
        "type": "Point",
        "coordinates": [
          120.9800815,
          14.5362084
        ]
      },
      "properties": {
        "osm_id": 11248507954,
        "osm_type": "nodes",
        "amenity": "restaurant",
        "tourism": null,
        "beds": null,
        "name": "Highlands Steakhouse",
        "opening_hours": null,
        "shop": null,
        "rooms": null
      }
    },
    {
      "type": "Feature",
      "geometry": {
        "type": "Point",
        "coordinates": [
          120.9815918,
          14.5363472
        ]
      },
      "properties": {
        "osm_id": 1729161402,
        "osm_type": "nodes",
        "amenity": "restaurant",
        "tourism": null,
        "beds": null,
        "name": "Bacolod Chk-n-BBQ House",
        "opening_hours": "Mo-Su 10:00-22:00",
        "shop": null,
        "rooms": null
      }
    },
    {
      "type": "Feature",
      "geometry": {
        "type": "Point",
        "coordinates": [
          120.9828619,
          14.5340405
        ]
      },
      "properties": {
        "osm_id": 3191530362,
        "osm_type": "nodes",
        "amenity": "restaurant",
        "tourism": null,
        "beds": null,
        "name": "Bonchon Chicken",
        "opening_hours": "Mo-Su 10:00-21:00",
        "shop": null,
        "rooms": null
      }
    },
    {
      "type": "Feature",
      "geometry": {
        "type": "Point",
        "coordinates": [
          120.9801949,
          14.5342201
        ]
      },
      "properties": {
        "osm_id": 3191530363,
        "osm_type": "nodes",
        "amenity": "fast_food",
        "tourism": null,
        "beds": null,
        "name": "Burger King",
        "opening_hours": "Mo-Su 10:00-22:00",
        "shop": null,
        "rooms": null
      }
    },
    {
      "type": "Feature",
      "geometry": {
        "type": "Point",
        "coordinates": [
          120.9822397,
          14.5321144
        ]
      },
      "properties": {
        "osm_id": 10158797817,
        "osm_type": "nodes",
        "amenity": "restaurant",
        "tourism": null,
        "beds": null,
        "name": "Mendekoro",
        "opening_hours": null,
        "shop": null,
        "rooms": null
      }
    },
    {
      "type": "Feature",
      "geometry": {
        "type": "Point",
        "coordinates": [
          120.9802898,
          14.5344936
        ]
      },
      "properties": {
        "osm_id": 11215842514,
        "osm_type": "nodes",
        "amenity": "fast_food",
        "tourism": null,
        "beds": null,
        "name": "True Boss",
        "opening_hours": null,
        "shop": null,
        "rooms": null
      }
    },
    {
      "type": "Feature",
      "geometry": {
        "type": "Point",
        "coordinates": [
          120.9817404,
          14.5340022
        ]
      },
      "properties": {
        "osm_id": 11248508013,
        "osm_type": "nodes",
        "amenity": "restaurant",
        "tourism": null,
        "beds": null,
        "name": "Holy Cow! Sizzlers",
        "opening_hours": null,
        "shop": null,
        "rooms": null
      }
    },
    {
      "type": "Feature",
      "geometry": {
        "type": "Point",
        "coordinates": [
          120.9820361,
          14.5349336
        ]
      },
      "properties": {
        "osm_id": 11248508019,
        "osm_type": "nodes",
        "amenity": "fast_food",
        "tourism": null,
        "beds": null,
        "name": "Tiger Manju",
        "opening_hours": null,
        "shop": null,
        "rooms": null
      }
    },
    {
      "type": "Feature",
      "geometry": {
        "type": "Point",
        "coordinates": [
          120.98202,
          14.5352224
        ]
      },
      "properties": {
        "osm_id": 11248508023,
        "osm_type": "nodes",
        "amenity": "restaurant",
        "tourism": null,
        "beds": null,
        "name": "Por Que",
        "opening_hours": null,
        "shop": null,
        "rooms": null
      }
    },
    {
      "type": "Feature",
      "geometry": {
        "type": "Point",
        "coordinates": [
          120.982085,
          14.5350342
        ]
      },
      "properties": {
        "osm_id": 11248508026,
        "osm_type": "nodes",
        "amenity": "restaurant",
        "tourism": null,
        "beds": null,
        "name": "Pizzulu",
        "opening_hours": null,
        "shop": null,
        "rooms": null
      }
    },
    {
      "type": "Feature",
      "geometry": {
        "type": "Point",
        "coordinates": [
          120.9828347,
          14.5330038
        ]
      },
      "properties": {
        "osm_id": 11248508152,
        "osm_type": "nodes",
        "amenity": "restaurant",
        "tourism": null,
        "beds": null,
        "name": "Cibo",
        "opening_hours": null,
        "shop": null,
        "rooms": null
      }
    },
    {
      "type": "Feature",
      "geometry": {
        "type": "Point",
        "coordinates": [
          120.9823268,
          14.5363454
        ]
      },
      "properties": {
        "osm_id": 1729161414,
        "osm_type": "nodes",
        "amenity": "restaurant",
        "tourism": null,
        "beds": null,
        "name": "Soi",
        "opening_hours": "Mo-Su 10:00-22:00",
        "shop": null,
        "rooms": null
      }
    },
    {
      "type": "Feature",
      "geometry": {
        "type": "Point",
        "coordinates": [
          120.9815811,
          14.5347113
        ]
      },
      "properties": {
        "osm_id": 11215842477,
        "osm_type": "nodes",
        "amenity": "ice_cream",
        "tourism": null,
        "beds": null,
        "name": "Ben's Cookies",
        "opening_hours": null,
        "shop": "pastry",
        "rooms": null
      }
    },
    {
      "type": "Feature",
      "geometry": {
        "type": "Point",
        "coordinates": [
          120.9815204,
          14.5347851
        ]
      },
      "properties": {
        "osm_id": 11215828293,
        "osm_type": "nodes",
        "amenity": "fast_food",
        "tourism": null,
        "beds": null,
        "name": "Macao Imperial Tea",
        "opening_hours": null,
        "shop": null,
        "rooms": null
      }
    },
    {
      "type": "Feature",
      "geometry": {
        "type": "Point",
        "coordinates": [
          120.9801166,
          14.5347678
        ]
      },
      "properties": {
        "osm_id": 11215828261,
        "osm_type": "nodes",
        "amenity": "restaurant",
        "tourism": null,
        "beds": null,
        "name": "Watami",
        "opening_hours": null,
        "shop": null,
        "rooms": null
      }
    },
    {
      "type": "Feature",
      "geometry": {
        "type": "Point",
        "coordinates": [
          120.989135,
          14.5372521
        ]
      },
      "properties": {
        "osm_id": 2636966646,
        "osm_type": "nodes",
        "amenity": "cafe",
        "tourism": null,
        "beds": null,
        "name": "Starbucks",
        "opening_hours": null,
        "shop": null,
        "rooms": null
      }
    },
    {
      "type": "Feature",
      "geometry": {
        "type": "Point",
        "coordinates": [
          120.9897495,
          14.536058
        ]
      },
      "properties": {
        "osm_id": 6470583598,
        "osm_type": "nodes",
        "amenity": "restaurant",
        "tourism": null,
        "beds": null,
        "name": "Ramen Kuroda",
        "opening_hours": null,
        "shop": null,
        "rooms": null
      }
    },
    {
      "type": "Feature",
      "geometry": {
        "type": "Point",
        "coordinates": [
          120.9815714,
          14.5342652
        ]
      },
      "properties": {
        "osm_id": 11217645541,
        "osm_type": "nodes",
        "amenity": "restaurant",
        "tourism": null,
        "beds": null,
        "name": "Yayoi",
        "opening_hours": null,
        "shop": null,
        "rooms": null
      }
    },
    {
      "type": "Feature",
      "geometry": {
        "type": "Point",
        "coordinates": [
          120.9953123,
          14.5467338
        ]
      },
      "properties": {
        "osm_id": 11682242685,
        "osm_type": "nodes",
        "amenity": "restaurant",
        "tourism": null,
        "beds": null,
        "name": "Rong Hui Restaurant",
        "opening_hours": null,
        "shop": null,
        "rooms": null
      }
    },
    {
      "type": "Feature",
      "geometry": {
        "type": "Point",
        "coordinates": [
          120.9981315,
          14.5546255
        ]
      },
      "properties": {
        "osm_id": 517062612,
        "osm_type": "nodes",
        "amenity": "restaurant",
        "tourism": null,
        "beds": null,
        "name": "Nemoto Restaurant",
        "opening_hours": null,
        "shop": null,
        "rooms": null
      }
    },
    {
      "type": "Feature",
      "geometry": {
        "type": "Point",
        "coordinates": [
          120.9893246,
          14.5384792
        ]
      },
      "properties": {
        "osm_id": 2690824244,
        "osm_type": "nodes",
        "amenity": "fast_food",
        "tourism": null,
        "beds": null,
        "name": "Dairy Queen",
        "opening_hours": null,
        "shop": null,
        "rooms": null
      }
    },
    {
      "type": "Feature",
      "geometry": {
        "type": "Point",
        "coordinates": [
          120.989393,
          14.5382799
        ]
      },
      "properties": {
        "osm_id": 2690824245,
        "osm_type": "nodes",
        "amenity": "fast_food",
        "tourism": null,
        "beds": null,
        "name": "Hot Star",
        "opening_hours": null,
        "shop": null,
        "rooms": null
      }
    },
    {
      "type": "Feature",
      "geometry": {
        "type": "Point",
        "coordinates": [
          121.0129107,
          14.5099555
        ]
      },
      "properties": {
        "osm_id": 12198539114,
        "osm_type": "nodes",
        "amenity": "fast_food",
        "tourism": null,
        "beds": null,
        "name": "Randy's",
        "opening_hours": null,
        "shop": null,
        "rooms": null
      }
    },
    {
      "type": "Feature",
      "geometry": {
        "type": "Point",
        "coordinates": [
          120.9790613,
          14.5405513
        ]
      },
      "properties": {
        "osm_id": 1618365375,
        "osm_type": "nodes",
        "amenity": "restaurant",
        "tourism": null,
        "beds": null,
        "name": "Vikings",
        "opening_hours": "11:00-14:30,17:30-22:00",
        "shop": null,
        "rooms": null
      }
    },
    {
      "type": "Feature",
      "geometry": {
        "type": "Point",
        "coordinates": [
          121.008412,
          14.5374724
        ]
      },
      "properties": {
        "osm_id": 4428505790,
        "osm_type": "nodes",
        "amenity": "restaurant",
        "tourism": null,
        "beds": null,
        "name": "Tomboy Silog - Tapsilogan",
        "opening_hours": null,
        "shop": null,
        "rooms": null
      }
    },
    {
      "type": "Feature",
      "geometry": {
        "type": "Point",
        "coordinates": [
          121.0106838,
          14.5383291
        ]
      },
      "properties": {
        "osm_id": 7010222466,
        "osm_type": "nodes",
        "amenity": "fast_food",
        "tourism": null,
        "beds": null,
        "name": "Julico's cafe",
        "opening_hours": null,
        "shop": null,
        "rooms": null
      }
    },
    {
      "type": "Feature",
      "geometry": {
        "type": "Point",
        "coordinates": [
          121.0108136,
          14.5384233
        ]
      },
      "properties": {
        "osm_id": 7010222467,
        "osm_type": "nodes",
        "amenity": "fast_food",
        "tourism": null,
        "beds": null,
        "name": "Dunkin'",
        "opening_hours": null,
        "shop": null,
        "rooms": null
      }
    },
    {
      "type": "Feature",
      "geometry": {
        "type": "Point",
        "coordinates": [
          121.0007907,
          14.5387924
        ]
      },
      "properties": {
        "osm_id": 10092579053,
        "osm_type": "nodes",
        "amenity": "fast_food",
        "tourism": null,
        "beds": null,
        "name": "Dunkin'",
        "opening_hours": null,
        "shop": null,
        "rooms": null
      }
    },
    {
      "type": "Feature",
      "geometry": {
        "type": "Point",
        "coordinates": [
          121.00124,
          14.5372885
        ]
      },
      "properties": {
        "osm_id": 13112181489,
        "osm_type": "nodes",
        "amenity": "fast_food",
        "tourism": null,
        "beds": null,
        "name": "Turks",
        "opening_hours": null,
        "shop": null,
        "rooms": null
      }
    },
    {
      "type": "Feature",
      "geometry": {
        "type": "Point",
        "coordinates": [
          121.0000035,
          14.5378558
        ]
      },
      "properties": {
        "osm_id": 13112181662,
        "osm_type": "nodes",
        "amenity": "fast_food",
        "tourism": null,
        "beds": null,
        "name": "Mang Inasal",
        "opening_hours": null,
        "shop": null,
        "rooms": null
      }
    },
    {
      "type": "Feature",
      "geometry": {
        "type": "Point",
        "coordinates": [
          120.9998275,
          14.5378288
        ]
      },
      "properties": {
        "osm_id": 13112181664,
        "osm_type": "nodes",
        "amenity": "fast_food",
        "tourism": null,
        "beds": null,
        "name": "Zagu",
        "opening_hours": null,
        "shop": null,
        "rooms": null
      }
    },
    {
      "type": "Feature",
      "geometry": {
        "type": "Point",
        "coordinates": [
          121.0001712,
          14.5364103
        ]
      },
      "properties": {
        "osm_id": 13155317636,
        "osm_type": "nodes",
        "amenity": "fast_food",
        "tourism": null,
        "beds": null,
        "name": "Jollibee",
        "opening_hours": null,
        "shop": null,
        "rooms": null
      }
    },
    {
      "type": "Feature",
      "geometry": {
        "type": "Point",
        "coordinates": [
          120.9943752,
          14.5551159
        ]
      },
      "properties": {
        "osm_id": 11210475793,
        "osm_type": "nodes",
        "amenity": "fast_food",
        "tourism": null,
        "beds": null,
        "name": null,
        "opening_hours": null,
        "shop": null,
        "rooms": null
      }
    },
    {
      "type": "Feature",
      "geometry": {
        "type": "Point",
        "coordinates": [
          120.995001,
          14.5532842
        ]
      },
      "properties": {
        "osm_id": 24815678,
        "osm_type": "nodes",
        "amenity": "restaurant",
        "tourism": null,
        "beds": null,
        "name": "Kamakura Japanese Restaurant",
        "opening_hours": null,
        "shop": null,
        "rooms": null
      }
    },
    {
      "type": "Feature",
      "geometry": {
        "type": "Point",
        "coordinates": [
          120.9965281,
          14.5572898
        ]
      },
      "properties": {
        "osm_id": 11757381697,
        "osm_type": "nodes",
        "amenity": "bar",
        "tourism": null,
        "beds": null,
        "name": "CHAI Unli Hotpot Resto & Bar",
        "opening_hours": "17:00-02:00",
        "shop": null,
        "rooms": null
      }
    },
    {
      "type": "Feature",
      "geometry": {
        "type": "Point",
        "coordinates": [
          120.9960653,
          14.5593277
        ]
      },
      "properties": {
        "osm_id": 11757381698,
        "osm_type": "nodes",
        "amenity": "cafe",
        "tourism": null,
        "beds": null,
        "name": "Unnie Cafe",
        "opening_hours": "Mo-Fr 10:00-20:00",
        "shop": null,
        "rooms": null
      }
    },
    {
      "type": "Feature",
      "geometry": {
        "type": "Point",
        "coordinates": [
          120.9882154,
          14.5578792
        ]
      },
      "properties": {
        "osm_id": 255061928,
        "osm_type": "nodes",
        "amenity": "pub",
        "tourism": null,
        "beds": null,
        "name": "Infiniti",
        "opening_hours": null,
        "shop": null,
        "rooms": null
      }
    },
    {
      "type": "Feature",
      "geometry": {
        "type": "Point",
        "coordinates": [
          121.0178448,
          14.5187767
        ]
      },
      "properties": {
        "osm_id": 948087973,
        "osm_type": "nodes",
        "amenity": "restaurant",
        "tourism": null,
        "beds": null,
        "name": "Savory",
        "opening_hours": null,
        "shop": null,
        "rooms": null
      }
    },
    {
      "type": "Feature",
      "geometry": {
        "type": "Point",
        "coordinates": [
          121.0200556,
          14.5190368
        ]
      },
      "properties": {
        "osm_id": 11018945058,
        "osm_type": "nodes",
        "amenity": "restaurant",
        "tourism": null,
        "beds": null,
        "name": "Barcino",
        "opening_hours": null,
        "shop": null,
        "rooms": null
      }
    },
    {
      "type": "Feature",
      "geometry": {
        "type": "Point",
        "coordinates": [
          121.0196377,
          14.5189
        ]
      },
      "properties": {
        "osm_id": 11018945057,
        "osm_type": "nodes",
        "amenity": "cafe",
        "tourism": null,
        "beds": null,
        "name": "Mary Grace",
        "opening_hours": null,
        "shop": null,
        "rooms": null
      }
    },
    {
      "type": "Feature",
      "geometry": {
        "type": "Point",
        "coordinates": [
          121.016759,
          14.5223823
        ]
      },
      "properties": {
        "osm_id": 4208015089,
        "osm_type": "nodes",
        "amenity": "fast_food",
        "tourism": null,
        "beds": null,
        "name": "Yellow Cab",
        "opening_hours": null,
        "shop": null,
        "rooms": null
      }
    },
    {
      "type": "Feature",
      "geometry": {
        "type": "Point",
        "coordinates": [
          121.0168158,
          14.5220709
        ]
      },
      "properties": {
        "osm_id": 4394392489,
        "osm_type": "nodes",
        "amenity": "fast_food",
        "tourism": null,
        "beds": null,
        "name": "Gerry's Grill",
        "opening_hours": null,
        "shop": null,
        "rooms": null
      }
    },
    {
      "type": "Feature",
      "geometry": {
        "type": "Point",
        "coordinates": [
          121.0167217,
          14.5209342
        ]
      },
      "properties": {
        "osm_id": 5625483874,
        "osm_type": "nodes",
        "amenity": "cafe",
        "tourism": null,
        "beds": null,
        "name": "Starbucks",
        "opening_hours": null,
        "shop": null,
        "rooms": null
      }
    },
    {
      "type": "Feature",
      "geometry": {
        "type": "Point",
        "coordinates": [
          121.0165015,
          14.5211777
        ]
      },
      "properties": {
        "osm_id": 13137313622,
        "osm_type": "nodes",
        "amenity": "cafe",
        "tourism": null,
        "beds": null,
        "name": "Chatime",
        "opening_hours": null,
        "shop": null,
        "rooms": null
      }
    },
    {
      "type": "Feature",
      "geometry": {
        "type": "Point",
        "coordinates": [
          121.0165923,
          14.5210873
        ]
      },
      "properties": {
        "osm_id": 13137313623,
        "osm_type": "nodes",
        "amenity": "fast_food",
        "tourism": null,
        "beds": null,
        "name": "Subway",
        "opening_hours": null,
        "shop": null,
        "rooms": null
      }
    },
    {
      "type": "Feature",
      "geometry": {
        "type": "Point",
        "coordinates": [
          121.0201341,
          14.5189668
        ]
      },
      "properties": {
        "osm_id": 11018945053,
        "osm_type": "nodes",
        "amenity": "restaurant",
        "tourism": null,
        "beds": null,
        "name": "Wolfgang\u2019s Steakhouse",
        "opening_hours": null,
        "shop": null,
        "rooms": null
      }
    },
    {
      "type": "Feature",
      "geometry": {
        "type": "Point",
        "coordinates": [
          121.0198306,
          14.5189536
        ]
      },
      "properties": {
        "osm_id": 13137244075,
        "osm_type": "nodes",
        "amenity": "restaurant",
        "tourism": null,
        "beds": null,
        "name": "Crisostomo",
        "opening_hours": null,
        "shop": null,
        "rooms": null
      }
    },
    {
      "type": "Feature",
      "geometry": {
        "type": "Point",
        "coordinates": [
          120.984881,
          14.5419602
        ]
      },
      "properties": {
        "osm_id": 6540485365,
        "osm_type": "nodes",
        "amenity": "cafe",
        "tourism": null,
        "beds": null,
        "name": "Starbucks",
        "opening_hours": "06:00-24:00",
        "shop": null,
        "rooms": null
      }
    },
    {
      "type": "Feature",
      "geometry": {
        "type": "Point",
        "coordinates": [
          120.9820251,
          14.5402011
        ]
      },
      "properties": {
        "osm_id": 12363377914,
        "osm_type": "nodes",
        "amenity": "cafe",
        "tourism": null,
        "beds": null,
        "name": "Pickup Coffee",
        "opening_hours": null,
        "shop": null,
        "rooms": null
      }
    },
    {
      "type": "Feature",
      "geometry": {
        "type": "Point",
        "coordinates": [
          120.9809967,
          14.5398449
        ]
      },
      "properties": {
        "osm_id": 6488689555,
        "osm_type": "nodes",
        "amenity": "restaurant",
        "tourism": null,
        "beds": null,
        "name": "Taoyuan Sanjieyie",
        "opening_hours": null,
        "shop": null,
        "rooms": null
      }
    },
    {
      "type": "Feature",
      "geometry": {
        "type": "Point",
        "coordinates": [
          121.0130518,
          14.5210082
        ]
      },
      "properties": {
        "osm_id": 4204349897,
        "osm_type": "nodes",
        "amenity": "fast_food",
        "tourism": null,
        "beds": null,
        "name": "Wendy's",
        "opening_hours": null,
        "shop": null,
        "rooms": null
      }
    },
    {
      "type": "Feature",
      "geometry": {
        "type": "Point",
        "coordinates": [
          121.01178,
          14.5210232
        ]
      },
      "properties": {
        "osm_id": 5783070553,
        "osm_type": "nodes",
        "amenity": "bar",
        "tourism": null,
        "beds": null,
        "name": "Pondohan",
        "opening_hours": null,
        "shop": null,
        "rooms": null
      }
    },
    {
      "type": "Feature",
      "geometry": {
        "type": "Point",
        "coordinates": [
          121.012318,
          14.5205479
        ]
      },
      "properties": {
        "osm_id": 5783070853,
        "osm_type": "nodes",
        "amenity": "fast_food",
        "tourism": null,
        "beds": null,
        "name": "Belgian Waffles",
        "opening_hours": null,
        "shop": null,
        "rooms": null
      }
    },
    {
      "type": "Feature",
      "geometry": {
        "type": "Point",
        "coordinates": [
          121.0121551,
          14.5203685
        ]
      },
      "properties": {
        "osm_id": 5783070654,
        "osm_type": "nodes",
        "amenity": "cafe",
        "tourism": null,
        "beds": null,
        "name": "Mrs. Fields",
        "opening_hours": null,
        "shop": "pastry",
        "rooms": null
      }
    },