{
  "type": "FeatureCollection",
  "features": [
    {
      "type": "Feature",
      "geometry": {
        "type": "Point",
        "coordinates": [
          121.0691281,
          14.5257955
        ]
      },
      "properties": {
        "osm_id": 9796020558,
        "osm_type": "nodes",
        "amenity": null,
        "tourism": null,
        "beds": null,
        "name": "Dulong Bayan Home Owners Association",
        "opening_hours": null,
        "shop": null,
        "rooms": null
      }
    },
    {
      "type": "Feature",
      "geometry": {
        "type": "Point",
        "coordinates": [
          121.0549257,
          14.5181132
        ]
      },
      "properties": {
        "osm_id": 3133250507,
        "osm_type": "nodes",
        "amenity": null,
        "tourism": null,
        "beds": null,
        "name": "Jun Gonzales Solar Power Supply",
        "opening_hours": null,
        "shop": "electronics",
        "rooms": null
      }
    },
    {
      "type": "Feature",
      "geometry": {
        "type": "Point",
        "coordinates": [
          121.0506067,
          14.50089
        ]
      },
      "properties": {
        "osm_id": 12264638134,
        "osm_type": "nodes",
        "amenity": null,
        "tourism": null,
        "beds": null,
        "name": "Cebuana Lhuillier",
        "opening_hours": null,
        "shop": "pawnbroker",
        "rooms": null
      }
    },
    {
      "type": "Feature",
      "geometry": {
        "type": "Point",
        "coordinates": [
          121.0889375,
          14.5267594
        ]
      },
      "properties": {
        "osm_id": 12491962061,
        "osm_type": "nodes",
        "amenity": null,
        "tourism": null,
        "beds": null,
        "name": "Dali",
        "opening_hours": null,
        "shop": "convenience",
        "rooms": null
      }
    },
    {
      "type": "Feature",
      "geometry": {
        "type": "Point",
        "coordinates": [
          121.0696035,
          14.5319094
        ]
      },
      "properties": {
        "osm_id": 12825956101,
        "osm_type": "nodes",
        "amenity": null,
        "tourism": null,
        "beds": null,
        "name": "Baa Baa Thai Tea",
        "opening_hours": null,
        "shop": "tea",
        "rooms": null
      }
    },
    {
      "type": "Feature",
      "geometry": {
        "type": "Point",
        "coordinates": [
          121.0641707,
          14.5014062
        ]
      },
      "properties": {
        "osm_id": 11937778011,
        "osm_type": "nodes",
        "amenity": null,
        "tourism": null,
        "beds": null,
        "name": "Motortrade",
        "opening_hours": null,
        "shop": "motorcycle",
        "rooms": null
      }
    },
    {
      "type": "Feature",
      "geometry": {
        "type": "Point",
        "coordinates": [
          121.0495238,
          14.5017307
        ]
      },
      "properties": {
        "osm_id": 11975762490,
        "osm_type": "nodes",
        "amenity": null,
        "tourism": null,
        "beds": null,
        "name": "LBC",
        "opening_hours": null,
        "shop": null,
        "rooms": null
      }
    },
    {
      "type": "Feature",
      "geometry": {
        "type": "Point",
        "coordinates": [
          121.049672,
          14.5012776
        ]
      },
      "properties": {
        "osm_id": 12462520855,
        "osm_type": "nodes",
        "amenity": null,
        "tourism": null,
        "beds": null,
        "name": null,
        "opening_hours": null,
        "shop": "gift",
        "rooms": null
      }
    },
    {
      "type": "Feature",
      "geometry": {
        "type": "Point",
        "coordinates": [
          121.0496614,
          14.501331
        ]
      },
      "properties": {
        "osm_id": 12462520869,
        "osm_type": "nodes",
        "amenity": null,
        "tourism": null,
        "beds": null,
        "name": "Lars Cabanacan SALON",
        "opening_hours": null,
        "shop": "hairdresser",
        "rooms": null
      }
    },
    {
      "type": "Feature",
      "geometry": {
        "type": "Point",
        "coordinates": [
          121.0533537,
          14.5138679
        ]
      },
      "properties": {
        "osm_id": 9851103486,
        "osm_type": "nodes",
        "amenity": null,
        "tourism": null,
        "beds": null,
        "name": "Tambunting",
        "opening_hours": null,
        "shop": "pawnbroker",
        "rooms": null
      }
    },
    {
      "type": "Feature",
      "geometry": {
        "type": "Point",
        "coordinates": [
          121.0545241,
          14.5039299
        ]
      },
      "properties": {
        "osm_id": 10936376005,
        "osm_type": "nodes",
        "amenity": null,
        "tourism": "apartment",
        "beds": null,
        "name": "Kuya To @ Tata Res",
        "opening_hours": null,
        "shop": null,
        "rooms": null
      }
    },
    {
      "type": "Feature",
      "geometry": {
        "type": "Point",
        "coordinates": [
          121.0515001,
          14.516272
        ]
      },
      "properties": {
        "osm_id": 6899531389,
        "osm_type": "nodes",
        "amenity": null,
        "tourism": null,
        "beds": null,
        "name": "Palawan Pawnshop",
        "opening_hours": null,
        "shop": "pawnbroker",
        "rooms": null
      }
    },
    {
      "type": "Feature",
      "geometry": {
        "type": "Point",
        "coordinates": [
          121.0536779,
          14.5073767
        ]
      },
      "properties": {
        "osm_id": 10266876896,
        "osm_type": "nodes",
        "amenity": null,
        "tourism": null,
        "beds": null,
        "name": "K 'n C Rice Dealer",
        "opening_hours": null,
        "shop": "rice",
        "rooms": null
      }
    },
    {
      "type": "Feature",
      "geometry": {
        "type": "Point",
        "coordinates": [
          121.0504512,
          14.5011841
        ]
      },
      "properties": {
        "osm_id": 12264638133,
        "osm_type": "nodes",
        "amenity": null,
        "tourism": null,
        "beds": null,
        "name": "Villarica",
        "opening_hours": null,
        "shop": "pawnbroker",
        "rooms": null
      }
    },
    {
      "type": "Feature",
      "geometry": {
        "type": "Point",
        "coordinates": [
          121.0747898,
          14.5301622
        ]
      },
      "properties": {
        "osm_id": 12825136203,
        "osm_type": "nodes",
        "amenity": null,
        "tourism": null,
        "beds": null,
        "name": "All Toys",
        "opening_hours": null,
        "shop": "toys",
        "rooms": null
      }
    },
    {
      "type": "Feature",
      "geometry": {
        "type": "Point",
        "coordinates": [
          121.0735948,
          14.5307394
        ]
      },
      "properties": {
        "osm_id": 12828423601,
        "osm_type": "nodes",
        "amenity": null,
        "tourism": null,
        "beds": null,
        "name": "PetBuddy",
        "opening_hours": null,
        "shop": "pet",
        "rooms": null
      }
    },
    {
      "type": "Feature",
      "geometry": {
        "type": "Point",
        "coordinates": [
          121.0729252,
          14.5328536
        ]
      },
      "properties": {
        "osm_id": 12864658976,
        "osm_type": "nodes",
        "amenity": null,
        "tourism": null,
        "beds": null,
        "name": "MG",
        "opening_hours": null,
        "shop": "car",
        "rooms": null
      }
    },
    {
      "type": "Feature",
      "geometry": {
        "type": "Point",
        "coordinates": [
          121.0741894,
          14.5274397
        ]
      },
      "properties": {
        "osm_id": 12491983947,
        "osm_type": "nodes",
        "amenity": null,
        "tourism": null,
        "beds": null,
        "name": "Alfamart",
        "opening_hours": null,
        "shop": "convenience",
        "rooms": null
      }
    },
    {
      "type": "Feature",
      "geometry": {
        "type": "Point",
        "coordinates": [
          121.0803021,
          14.5353014
        ]
      },
      "properties": {
        "osm_id": 4235442095,
        "osm_type": "nodes",
        "amenity": null,
        "tourism": "hotel",
        "beds": null,
        "name": "Generosa's Garden",
        "opening_hours": null,
        "shop": null,
        "rooms": null
      }
    },
    {
      "type": "Feature",
      "geometry": {
        "type": "Point",
        "coordinates": [
          121.089026,
          14.5396739
        ]
      },
      "properties": {
        "osm_id": 11961273295,
        "osm_type": "nodes",
        "amenity": null,
        "tourism": null,
        "beds": null,
        "name": "Torn Yang Philippines Incorporated",
        "opening_hours": null,
        "shop": null,
        "rooms": null
      }
    },
    {
      "type": "Feature",
      "geometry": {
        "type": "Point",
        "coordinates": [
          121.0801913,
          14.5382485
        ]
      },
      "properties": {
        "osm_id": 6422676299,
        "osm_type": "nodes",
        "amenity": null,
        "tourism": null,
        "beds": null,
        "name": "Sangguniang Barangay ng Palingon",
        "opening_hours": "Mo-Fr 08:00-17:00",
        "shop": null,
        "rooms": null
      }
    },
    {
      "type": "Feature",
      "geometry": {
        "type": "Point",
        "coordinates": [
          121.0745214,
          14.5263859
        ]
      },
      "properties": {
        "osm_id": 7417848497,
        "osm_type": "nodes",
        "amenity": null,
        "tourism": null,
        "beds": null,
        "name": "Cebuana Lhuillier",
        "opening_hours": null,
        "shop": "pawnbroker",
        "rooms": null
      }
    },
    {
      "type": "Feature",
      "geometry": {
        "type": "Point",
        "coordinates": [
          121.0695954,
          14.5360695
        ]
      },
      "properties": {
        "osm_id": 12032038179,
        "osm_type": "nodes",
        "amenity": null,
        "tourism": null,
        "beds": null,
        "name": "Scoot Daily MNL",
        "opening_hours": null,
        "shop": "motorcycle_repair",
        "rooms": null
      }
    },
    {
      "type": "Feature",
      "geometry": {
        "type": "Point",
        "coordinates": [
          121.0691334,
          14.5318225
        ]
      },
      "properties": {
        "osm_id": 12031954763,
        "osm_type": "nodes",
        "amenity": null,
        "tourism": null,
        "beds": null,
        "name": "Alwin Hydraulic Hose",
        "opening_hours": null,
        "shop": "hardware",
        "rooms": null
      }
    },
    {
      "type": "Feature",
      "geometry": {
        "type": "Point",
        "coordinates": [
          121.0684508,
          14.5337756
        ]
      },
      "properties": {
        "osm_id": 12031811116,
        "osm_type": "nodes",
        "amenity": null,
        "tourism": null,
        "beds": null,
        "name": "Fresh Hub",
        "opening_hours": null,
        "shop": "butcher",
        "rooms": null
      }
    },
    {
      "type": "Feature",
      "geometry": {
        "type": "Point",
        "coordinates": [
          121.0699783,
          14.5299213
        ]
      },
      "properties": {
        "osm_id": 12031788141,
        "osm_type": "nodes",
        "amenity": null,
        "tourism": null,
        "beds": null,
        "name": "Adea Cycle Parts",
        "opening_hours": null,
        "shop": "bicycle",
        "rooms": null
      }
    },
    {
      "type": "Feature",
      "geometry": {
        "type": "Point",
        "coordinates": [
          121.0555535,
          14.5241091
        ]
      },
      "properties": {
        "osm_id": 6449466052,
        "osm_type": "nodes",
        "amenity": null,
        "tourism": null,
        "beds": null,
        "name": null,
        "opening_hours": null,
        "shop": "hardware",
        "rooms": null
      }
    },
    {
      "type": "Feature",
      "geometry": {
        "type": "Point",
        "coordinates": [
          121.0551397,
          14.522002
        ]
      },
      "properties": {
        "osm_id": 13071754253,
        "osm_type": "nodes",
        "amenity": null,
        "tourism": null,
        "beds": null,
        "name": "Local Economic Development and Investment Promotions Office",
        "opening_hours": null,
        "shop": null,
        "rooms": null
      }
    },
    {
      "type": "Feature",
      "geometry": {
        "type": "Point",
        "coordinates": [
          121.0717948,
          14.531646
        ]
      },
      "properties": {
        "osm_id": 12031764424,
        "osm_type": "nodes",
        "amenity": null,
        "tourism": null,
        "beds": null,
        "name": "7-Eleven",
        "opening_hours": "24/7",
        "shop": "convenience",
        "rooms": null
      }
    },
    {
      "type": "Feature",
      "geometry": {
        "type": "Point",
        "coordinates": [
          121.0469277,
          14.4874671
        ]
      },
      "properties": {
        "osm_id": 11406920908,
        "osm_type": "nodes",
        "amenity": null,
        "tourism": null,
        "beds": null,
        "name": "Villarica",
        "opening_hours": null,
        "shop": "pawnbroker",
        "rooms": null
      }
    },
    {
      "type": "Feature",
      "geometry": {
        "type": "Point",
        "coordinates": [
          121.0472094,
          14.4899399
        ]
      },
      "properties": {
        "osm_id": 8613867538,
        "osm_type": "nodes",
        "amenity": null,
        "tourism": null,
        "beds": null,
        "name": "Cebuana Lhuillier",
        "opening_hours": null,
        "shop": "pawnbroker",
        "rooms": null
      }
    },
    {
      "type": "Feature",
      "geometry": {
        "type": "Point",
        "coordinates": [
          121.0636497,
          14.4998208
        ]
      },
      "properties": {
        "osm_id": 10019089597,
        "osm_type": "nodes",
        "amenity": null,
        "tourism": null,
        "beds": null,
        "name": "Maverick",
        "opening_hours": null,
        "shop": "motorcycle",
        "rooms": null
      }
    },
    {
      "type": "Feature",
      "geometry": {
        "type": "Point",
        "coordinates": [
          121.0622615,
          14.4951972
        ]
      },
      "properties": {
        "osm_id": 4469578990,
        "osm_type": "nodes",
        "amenity": null,
        "tourism": null,
        "beds": null,
        "name": "Funeraria Royale",
        "opening_hours": null,
        "shop": "funeral_directors",
        "rooms": null
      }
    },
    {
      "type": "Feature",
      "geometry": {
        "type": "Point",
        "coordinates": [
          121.0621722,
          14.494718
        ]
      },
      "properties": {
        "osm_id": 4506347689,
        "osm_type": "nodes",
        "amenity": null,
        "tourism": null,
        "beds": null,
        "name": "NBS Engineering Design and Fabrication",
        "opening_hours": null,
        "shop": null,
        "rooms": null
      }
    },
    {
      "type": "Feature",
      "geometry": {
        "type": "Point",
        "coordinates": [
          121.0620806,
          14.4942929
        ]
      },
      "properties": {
        "osm_id": 8614304995,
        "osm_type": "nodes",
        "amenity": null,
        "tourism": null,
        "beds": null,
        "name": "Ayana Marketing",
        "opening_hours": null,
        "shop": "trade",
        "rooms": null
      }
    },
    {
      "type": "Feature",
      "geometry": {
        "type": "Point",
        "coordinates": [
          121.0618794,
          14.4940423
        ]
      },
      "properties": {
        "osm_id": 10018954036,
        "osm_type": "nodes",
        "amenity": null,
        "tourism": null,
        "beds": null,
        "name": "Tri-Anstar",
        "opening_hours": null,
        "shop": "motorcycle",
        "rooms": null
      }
    },
    {
      "type": "Feature",
      "geometry": {
        "type": "Point",
        "coordinates": [
          121.0618439,
          14.4930509
        ]
      },
      "properties": {
        "osm_id": 8614304969,
        "osm_type": "nodes",
        "amenity": null,
        "tourism": null,
        "beds": null,
        "name": "San Miguel Food Avenue",
        "opening_hours": null,
        "shop": "convenience",
        "rooms": null
      }
    },
    {
      "type": "Feature",
      "geometry": {
        "type": "Point",
        "coordinates": [
          121.0621248,
          14.4944798
        ]
      },
      "properties": {
        "osm_id": 10018954037,
        "osm_type": "nodes",
        "amenity": null,
        "tourism": null,
        "beds": null,
        "name": "Precious Ann Store",
        "opening_hours": null,
        "shop": "convenience",
        "rooms": null
      }
    },
    {
      "type": "Feature",
      "geometry": {
        "type": "Point",
        "coordinates": [
          121.0736181,
          14.5179858
        ]
      },
      "properties": {
        "osm_id": 12491968637,
        "osm_type": "nodes",
        "amenity": null,
        "tourism": null,
        "beds": null,
        "name": "Dali",
        "opening_hours": null,
        "shop": "convenience",
        "rooms": null
      }
    },
    {
      "type": "Feature",
      "geometry": {
        "type": "Point",
        "coordinates": [
          121.0759449,
          14.5199839
        ]
      },
      "properties": {
        "osm_id": 11954628226,
        "osm_type": "nodes",
        "amenity": null,
        "tourism": null,
        "beds": null,
        "name": "Pateros-Fort Bonifacio Transport Service and Multipurpose Cooperative",
        "opening_hours": null,
        "shop": null,
        "rooms": null
      }
    },
    {
      "type": "Feature",
      "geometry": {
        "type": "Point",
        "coordinates": [
          121.0623609,
          14.4959308
        ]
      },
      "properties": {
        "osm_id": 11933578667,
        "osm_type": "nodes",
        "amenity": null,
        "tourism": null,
        "beds": null,
        "name": "REBMIG General Merchandise",
        "opening_hours": null,
        "shop": "trade",
        "rooms": null
      }
    },
    {
      "type": "Feature",
      "geometry": {
        "type": "Point",
        "coordinates": [
          121.0622489,
          14.4947993
        ]
      },
      "properties": {
        "osm_id": 11933485765,
        "osm_type": "nodes",
        "amenity": null,
        "tourism": null,
        "beds": null,
        "name": "Danjay Trading",
        "opening_hours": null,
        "shop": "trade",
        "rooms": null
      }
    },
    {
      "type": "Feature",
      "geometry": {
        "type": "Point",
        "coordinates": [
          121.0600943,
          14.4762263
        ]
      },
      "properties": {
        "osm_id": 5612878922,
        "osm_type": "nodes",
        "amenity": null,
        "tourism": null,
        "beds": null,
        "name": "Raine Store",
        "opening_hours": "24/7",
        "shop": "convenience",
        "rooms": null
      }
    },
    {
      "type": "Feature",
      "geometry": {
        "type": "Point",
        "coordinates": [
          121.060325,
          14.4765
        ]
      },
      "properties": {
        "osm_id": 4571535790,
        "osm_type": "nodes",
        "amenity": null,
        "tourism": null,
        "beds": null,
        "name": "Harina Store",
        "opening_hours": null,
        "shop": "convenience",
        "rooms": null
      }
    },
    {
      "type": "Feature",
      "geometry": {
        "type": "Point",
        "coordinates": [
          121.053246,
          14.4746027
        ]
      },
      "properties": {
        "osm_id": 5866931788,
        "osm_type": "nodes",
        "amenity": null,
        "tourism": null,
        "beds": null,
        "name": "CIRIMAR Laboratorie Incorporated",
        "opening_hours": null,
        "shop": null,
        "rooms": null
      }
    },
    {
      "type": "Feature",
      "geometry": {
        "type": "Point",
        "coordinates": [
          121.0534764,
          14.474342
        ]
      },
      "properties": {
        "osm_id": 6956193485,
        "osm_type": "nodes",
        "amenity": null,
        "tourism": null,
        "beds": null,
        "name": "Comark Intertational Corporation",
        "opening_hours": "Mo-Fr 00:00-24:00",
        "shop": null,
        "rooms": null
      }
    },
    {
      "type": "Feature",
      "geometry": {
        "type": "Point",
        "coordinates": [
          121.0591719,
          14.4734645
        ]
      },
      "properties": {
        "osm_id": 6337144479,
        "osm_type": "nodes",
        "amenity": null,
        "tourism": null,
        "beds": null,
        "name": "CBDRRM Office",
        "opening_hours": null,
        "shop": null,
        "rooms": null
      }
    },
    {
      "type": "Feature",
      "geometry": {
        "type": "Point",
        "coordinates": [
          121.0558639,
          14.4806006
        ]
      },
      "properties": {
        "osm_id": 6337145237,
        "osm_type": "nodes",
        "amenity": null,
        "tourism": null,
        "beds": null,
        "name": "Tanod Outpost",
        "opening_hours": null,
        "shop": null,
        "rooms": null
      }
    },
    {
      "type": "Feature",
      "geometry": {
        "type": "Point",
        "coordinates": [
          121.0499204,
          14.4753532
        ]
      },
      "properties": {
        "osm_id": 5530520821,
        "osm_type": "nodes",
        "amenity": null,
        "tourism": "apartment",
        "beds": null,
        "name": null,
        "opening_hours": null,
        "shop": null,
        "rooms": null
      }
    },
    {
      "type": "Feature",
      "geometry": {
        "type": "Point",
        "coordinates": [
          121.0481814,
          14.4746398
        ]
      },
      "properties": {
        "osm_id": 12455431453,
        "osm_type": "nodes",
        "amenity": null,
        "tourism": null,
        "beds": null,
        "name": "Dali Everyday Grocery",
        "opening_hours": null,
        "shop": "convenience",
        "rooms": null
      }
    },
    {
      "type": "Feature",
      "geometry": {
        "type": "Point",
        "coordinates": [
          121.046505,
          14.4819575
        ]
      },
      "properties": {
        "osm_id": 11922727133,
        "osm_type": "nodes",
        "amenity": null,
        "tourism": null,
        "beds": null,
        "name": "Twelvebikes Shop",
        "opening_hours": null,
        "shop": "bicycle",
        "rooms": null
      }
    },
    {
      "type": "Feature",
      "geometry": {
        "type": "Point",
        "coordinates": [
          121.0464896,
          14.4819387
        ]
      },
      "properties": {
        "osm_id": 11922727134,
        "osm_type": "nodes",
        "amenity": null,
        "tourism": null,
        "beds": null,
        "name": "Villarica",
        "opening_hours": null,
        "shop": "pawnbroker",
        "rooms": null
      }
    },
    {
      "type": "Feature",
      "geometry": {
        "type": "Point",
        "coordinates": [
          121.0465734,
          14.4818855
        ]
      },
      "properties": {
        "osm_id": 11922727136,
        "osm_type": "nodes",
        "amenity": null,
        "tourism": null,
        "beds": null,
        "name": "Cebuana Lhuillier",
        "opening_hours": null,
        "shop": "pawnbroker",
        "rooms": null
      }
    },
    {
      "type": "Feature",
      "geometry": {
        "type": "Point",
        "coordinates": [
          121.061237,
          14.4816972
        ]
      },
      "properties": {
        "osm_id": 10018660134,
        "osm_type": "nodes",
        "amenity": null,
        "tourism": null,
        "beds": null,
        "name": "Chari Sarisari Store",
        "opening_hours": null,
        "shop": "convenience",
        "rooms": null
      }
    },
    {
      "type": "Feature",
      "geometry": {
        "type": "Point",
        "coordinates": [
          121.0611458,
          14.4805006
        ]
      },
      "properties": {
        "osm_id": 10018590512,
        "osm_type": "nodes",
        "amenity": null,
        "tourism": null,
        "beds": null,
        "name": "Tambike",
        "opening_hours": null,
        "shop": "bicycle",
        "rooms": null
      }
    },
    {
      "type": "Feature",
      "geometry": {
        "type": "Point",
        "coordinates": [
          121.0473576,
          14.4795027
        ]
      },
      "properties": {
        "osm_id": 7010437870,
        "osm_type": "nodes",
        "amenity": null,
        "tourism": null,
        "beds": null,
        "name": null,
        "opening_hours": null,
        "shop": "convenience",
        "rooms": null
      }
    },
    {
      "type": "Feature",
      "geometry": {
        "type": "Point",
        "coordinates": [
          121.0472855,
          14.481974
        ]
      },
      "properties": {
        "osm_id": 6346733000,
        "osm_type": "nodes",
        "amenity": null,
        "tourism": null,
        "beds": null,
        "name": "Gas Retail outlet",
        "opening_hours": null,
        "shop": "gas",
        "rooms": null
      }
    },
    {
      "type": "Feature",
      "geometry": {
        "type": "Point",
        "coordinates": [
          121.0592651,
          14.4736067
        ]
      },
      "properties": {
        "osm_id": 6337144477,
        "osm_type": "nodes",
        "amenity": null,
        "tourism": null,
        "beds": null,
        "name": "Barangay Hall",
        "opening_hours": null,
        "shop": null,
        "rooms": null
      }
    },
    {
      "type": "Feature",
      "geometry": {
        "type": "Point",
        "coordinates": [
          121.0505218,
          14.4695326
        ]
      },
      "properties": {
        "osm_id": 6349150221,
        "osm_type": "nodes",
        "amenity": null,
        "tourism": null,
        "beds": null,
        "name": "Hardware Store",
        "opening_hours": null,
        "shop": "hardware",
        "rooms": null
      }
    },
    {
      "type": "Feature",
      "geometry": {
        "type": "Point",
        "coordinates": [
          121.0577332,
          14.4704374
        ]
      },
      "properties": {
        "osm_id": 6337145193,
        "osm_type": "nodes",
        "amenity": null,
        "tourism": null,
        "beds": null,
        "name": "Carry On Hardware",
        "opening_hours": null,
        "shop": "trade",
        "rooms": null
      }
    },
    {
      "type": "Feature",
      "geometry": {
        "type": "Point",
        "coordinates": [
          121.0486517,
          14.4714643
        ]
      },
      "properties": {
        "osm_id": 6349150244,
        "osm_type": "nodes",
        "amenity": null,
        "tourism": null,
        "beds": null,
        "name": "Barangay South Daang Hari",
        "opening_hours": null,
        "shop": null,
        "rooms": null
      }
    },
    {
      "type": "Feature",
      "geometry": {
        "type": "Point",
        "coordinates": [
          121.0523096,
          14.4704362
        ]
      },
      "properties": {
        "osm_id": 4529852791,
        "osm_type": "nodes",
        "amenity": null,
        "tourism": null,
        "beds": null,
        "name": "Esta Fine Color Corporation",
        "opening_hours": null,
        "shop": null,
        "rooms": null
      }
    },
    {
      "type": "Feature",
      "geometry": {
        "type": "Point",
        "coordinates": [
          121.0617506,
          14.4911474
        ]
      },
      "properties": {
        "osm_id": 10018954038,
        "osm_type": "nodes",
        "amenity": null,
        "tourism": null,
        "beds": null,
        "name": "EcoDrive",
        "opening_hours": null,
        "shop": "motorcycle",
        "rooms": null
      }
    },
    {
      "type": "Feature",
      "geometry": {
        "type": "Point",
        "coordinates": [
          121.0478502,
          14.5164594
        ]
      },
      "properties": {
        "osm_id": 6428701594,
        "osm_type": "nodes",
        "amenity": null,
        "tourism": null,
        "beds": null,
        "name": "Light Funeral Home",
        "opening_hours": null,
        "shop": "funeral_directors",
        "rooms": null
      }
    },
    {
      "type": "Feature",
      "geometry": {
        "type": "Point",
        "coordinates": [
          121.0511056,
          14.5349704
        ]
      },
      "properties": {
        "osm_id": 1518843334,
        "osm_type": "nodes",
        "amenity": null,
        "tourism": null,
        "beds": null,
        "name": "Intellectual Property Office of the Philippines",
        "opening_hours": null,
        "shop": null,
        "rooms": null
      }
    },
    {
      "type": "Feature",
      "geometry": {
        "type": "Point",
        "coordinates": [
          121.0953265,
          14.5313071
        ]
      },
      "properties": {
        "osm_id": 12491962060,
        "osm_type": "nodes",
        "amenity": null,
        "tourism": null,
        "beds": null,
        "name": "Dali",
        "opening_hours": null,
        "shop": "convenience",
        "rooms": null
      }
    },
    {
      "type": "Feature",
      "geometry": {
        "type": "Point",
        "coordinates": [
          121.097133,
          14.5390871
        ]
      },
      "properties": {
        "osm_id": 11961162024,
        "osm_type": "nodes",
        "amenity": null,
        "tourism": null,
        "beds": null,
        "name": "Dali",
        "opening_hours": null,
        "shop": "convenience",
        "rooms": null
      }
    },
    {
      "type": "Feature",
      "geometry": {
        "type": "Point",
        "coordinates": [
          121.092288,
          14.5398849
        ]
      },
      "properties": {
        "osm_id": 5679089022,
        "osm_type": "nodes",
        "amenity": null,
        "tourism": null,
        "beds": null,
        "name": "EDS Hardware",
        "opening_hours": "Mo-Sa 07:45-17:30; Su 07:45-12:30",
        "shop": "hardware",
        "rooms": null
      }
    },
    {
      "type": "Feature",
      "geometry": {
        "type": "Point",
        "coordinates": [
          121.0463655,
          14.5416853
        ]
      },
      "properties": {
        "osm_id": 9854490234,
        "osm_type": "nodes",
        "amenity": null,
        "tourism": null,
        "beds": null,
        "name": "Sangguniang Pambarangay ng Post Proper Southside",
        "opening_hours": "Mo-Fr 08:00-17:00",
        "shop": null,
        "rooms": null
      }
    },
    {
      "type": "Feature",
      "geometry": {
        "type": "Point",
        "coordinates": [
          121.0762145,
          14.5243175
        ]
      },
      "properties": {
        "osm_id": 9795953837,
        "osm_type": "nodes",
        "amenity": null,
        "tourism": null,
        "beds": null,
        "name": "MHY Bigasan",
        "opening_hours": null,
        "shop": "rice",
        "rooms": null
      }
    },
    {
      "type": "Feature",
      "geometry": {
        "type": "Point",
        "coordinates": [
          121.0703003,
          14.5295771
        ]
      },
      "properties": {
        "osm_id": 2080614729,
        "osm_type": "nodes",
        "amenity": null,
        "tourism": null,
        "beds": null,
        "name": "Red Ribbon",
        "opening_hours": null,
        "shop": "bakery",
        "rooms": null
      }
    },
    {
      "type": "Feature",
      "geometry": {
        "type": "Point",
        "coordinates": [
          121.0609855,
          14.4887485
        ]
      },
      "properties": {
        "osm_id": 10272772633,
        "osm_type": "nodes",
        "amenity": null,
        "tourism": null,
        "beds": null,
        "name": "Goldilocks",
        "opening_hours": null,
        "shop": "bakery",
        "rooms": null
      }
    },
    {
      "type": "Feature",
      "geometry": {
        "type": "Point",
        "coordinates": [
          121.0608018,
          14.4856056
        ]
      },
      "properties": {
        "osm_id": 10018779773,
        "osm_type": "nodes",
        "amenity": null,
        "tourism": null,
        "beds": null,
        "name": "Kat & Steven Poultry Supply",
        "opening_hours": null,
        "shop": "trade",
        "rooms": null
      }
    },
    {
      "type": "Feature",
      "geometry": {
        "type": "Point",
        "coordinates": [
          121.0607439,
          14.4849239
        ]
      },
      "properties": {
        "osm_id": 6337144422,
        "osm_type": "nodes",
        "amenity": null,
        "tourism": null,
        "beds": null,
        "name": "Barangay Tanod Outpost",
        "opening_hours": null,
        "shop": null,
        "rooms": null
      }
    },
    {
      "type": "Feature",
      "geometry": {
        "type": "Point",
        "coordinates": [
          121.0530297,
          14.4880155
        ]
      },
      "properties": {
        "osm_id": 11428508784,
        "osm_type": "nodes",
        "amenity": null,
        "tourism": null,
        "beds": null,
        "name": null,
        "opening_hours": null,
        "shop": "water",
        "rooms": null
      }
    },
    {
      "type": "Feature",
      "geometry": {
        "type": "Point",
        "coordinates": [
          121.0602529,
          14.4887257
        ]
      },
      "properties": {
        "osm_id": 12464165107,
        "osm_type": "nodes",
        "amenity": null,
        "tourism": null,
        "beds": null,
        "name": "Motortrade",
        "opening_hours": null,
        "shop": "motorcycle",
        "rooms": null
      }
    },
    {
      "type": "Feature",
      "geometry": {
        "type": "Point",
        "coordinates": [
          121.0576464,
          14.4889151
        ]
      },
      "properties": {
        "osm_id": 12458497469,
        "osm_type": "nodes",
        "amenity": null,
        "tourism": null,
        "beds": null,
        "name": "Orno Trading",
        "opening_hours": null,
        "shop": "motorcycle_repair",
        "rooms": null
      }
    },
    {
      "type": "Feature",
      "geometry": {
        "type": "Point",
        "coordinates": [
          121.0528664,
          14.4892297
        ]
      },
      "properties": {
        "osm_id": 11405014353,
        "osm_type": "nodes",
        "amenity": null,
        "tourism": null,
        "beds": null,
        "name": "Ebarlyn Convenience Store",
        "opening_hours": null,
        "shop": "convenience",
        "rooms": null
      }
    },
    {
      "type": "Feature",
      "geometry": {
        "type": "Point",
        "coordinates": [
          121.0470482,
          14.4893224
        ]
      },
      "properties": {
        "osm_id": 5670349221,
        "osm_type": "nodes",
        "amenity": null,
        "tourism": null,
        "beds": null,
        "name": "7-Eleven",
        "opening_hours": null,
        "shop": "convenience",
        "rooms": null
      }
    },
    {
      "type": "Feature",
      "geometry": {
        "type": "Point",
        "coordinates": [
          121.0555699,
          14.4890524
        ]
      },
      "properties": {
        "osm_id": 11405054665,
        "osm_type": "nodes",
        "amenity": null,
        "tourism": null,
        "beds": null,
        "name": "Mitch sa Harap ng Kampo",
        "opening_hours": null,
        "shop": null,
        "rooms": null
      }
    },
    {
      "type": "Feature",
      "geometry": {
        "type": "Point",
        "coordinates": [
          121.055623,
          14.4891688
        ]
      },
      "properties": {
        "osm_id": 11405028465,
        "osm_type": "nodes",
        "amenity": null,
        "tourism": null,
        "beds": null,
        "name": "Westpoint",
        "opening_hours": null,
        "shop": "military_surplus",
        "rooms": null
      }
    },
    {
      "type": "Feature",
      "geometry": {
        "type": "Point",
        "coordinates": [
          121.0555538,
          14.4892707
        ]
      },
      "properties": {
        "osm_id": 11405060677,
        "osm_type": "nodes",
        "amenity": null,
        "tourism": null,
        "beds": null,
        "name": "Dep's Tailoring",
        "opening_hours": null,
        "shop": "tailor",
        "rooms": null
      }
    },
    {
      "type": "Feature",
      "geometry": {
        "type": "Point",
        "coordinates": [
          121.0595821,
          14.4888115
        ]
      },
      "properties": {
        "osm_id": 10272772445,
        "osm_type": "nodes",
        "amenity": null,
        "tourism": null,
        "beds": null,
        "name": "M. B. Aguirre Pawnshop",
        "opening_hours": null,
        "shop": "pawnbroker",
        "rooms": null
      }
    },
    {
      "type": "Feature",
      "geometry": {
        "type": "Point",
        "coordinates": [
          121.0329916,
          14.525447
        ]
      },
      "properties": {
        "osm_id": 4308165090,
        "osm_type": "nodes",
        "amenity": null,
        "tourism": "guest_house",
        "beds": null,
        "name": "barracks",
        "opening_hours": null,
        "shop": null,
        "rooms": null
      }
    },
    {
      "type": "Feature",
      "geometry": {
        "type": "Point",
        "coordinates": [
          121.0569015,
          14.5260767
        ]
      },
      "properties": {
        "osm_id": 9044584090,
        "osm_type": "nodes",
        "amenity": null,
        "tourism": null,
        "beds": null,
        "name": "Fulo Japan Surplus",
        "opening_hours": null,
        "shop": "second_hand",
        "rooms": null
      }
    },
    {
      "type": "Feature",
      "geometry": {
        "type": "Point",
        "coordinates": [
          121.0651638,
          14.5087841
        ]
      },
      "properties": {
        "osm_id": 9850957493,
        "osm_type": "nodes",
        "amenity": null,
        "tourism": null,
        "beds": null,
        "name": "K-Mart",
        "opening_hours": null,
        "shop": "grocery",
        "rooms": null
      }
    },
    {
      "type": "Feature",
      "geometry": {
        "type": "Point",
        "coordinates": [
          121.0782587,
          14.5464883
        ]
      },
      "properties": {
        "osm_id": 5917576385,
        "osm_type": "nodes",
        "amenity": null,
        "tourism": null,
        "beds": null,
        "name": "MJL Advertising",
        "opening_hours": null,
        "shop": null,
        "rooms": null
      }
    },
    {
      "type": "Feature",
      "geometry": {
        "type": "Point",
        "coordinates": [
          121.0246624,
          14.5317206
        ]
      },
      "properties": {
        "osm_id": 6927868986,
        "osm_type": "nodes",
        "amenity": null,
        "tourism": null,
        "beds": null,
        "name": "Office Busters",
        "opening_hours": null,
        "shop": "furniture",
        "rooms": null
      }
    },
    {
      "type": "Feature",
      "geometry": {
        "type": "Point",
        "coordinates": [
          121.0372767,
          14.5074958
        ]
      },
      "properties": {
        "osm_id": 10861544305,
        "osm_type": "nodes",
        "amenity": null,
        "tourism": null,
        "beds": null,
        "name": "Western Bicutan Multi-Purpose Building 2",
        "opening_hours": null,
        "shop": null,
        "rooms": null
      }
    },
    {
      "type": "Feature",
      "geometry": {
        "type": "Point",
        "coordinates": [
          121.0274126,
          14.5229371
        ]
      },
      "properties": {
        "osm_id": 5646623922,
        "osm_type": "nodes",
        "amenity": null,
        "tourism": null,
        "beds": null,
        "name": "Black Brick",
        "opening_hours": null,
        "shop": null,
        "rooms": null
      }
    },
    {
      "type": "Feature",
      "geometry": {
        "type": "Point",
        "coordinates": [
          121.0517405,
          14.5060797
        ]
      },
      "properties": {
        "osm_id": 6904882704,
        "osm_type": "nodes",
        "amenity": null,
        "tourism": null,
        "beds": null,
        "name": "Goldilocks",
        "opening_hours": null,
        "shop": "bakery",
        "rooms": null
      }
    },
    {
      "type": "Feature",
      "geometry": {
        "type": "Point",
        "coordinates": [
          121.0517459,
          14.5061472
        ]
      },
      "properties": {
        "osm_id": 6904882702,
        "osm_type": "nodes",
        "amenity": null,
        "tourism": null,
        "beds": null,
        "name": "Trinity Optical Shop",
        "opening_hours": null,
        "shop": "optician",
        "rooms": null
      }
    },
    {
      "type": "Feature",
      "geometry": {
        "type": "Point",
        "coordinates": [
          121.051625,
          14.5063482
        ]
      },
      "properties": {
        "osm_id": 4185523596,
        "osm_type": "nodes",
        "amenity": null,
        "tourism": null,
        "beds": null,
        "name": "CDR King",
        "opening_hours": "Mo-Su 10:00-19:00",
        "shop": "electronics",
        "rooms": null
      }
    },
    {
      "type": "Feature",
      "geometry": {
        "type": "Point",
        "coordinates": [
          121.0617101,
          14.5050279
        ]
      },
      "properties": {
        "osm_id": 10284656554,
        "osm_type": "nodes",
        "amenity": null,
        "tourism": null,
        "beds": null,
        "name": "Principe Store",
        "opening_hours": null,
        "shop": "convenience",
        "rooms": null
      }
    },
    {
      "type": "Feature",
      "geometry": {
        "type": "Point",
        "coordinates": [
          121.061757,
          14.5050276
        ]
      },
      "properties": {
        "osm_id": 10284656555,
        "osm_type": "nodes",
        "amenity": null,
        "tourism": null,
        "beds": null,
        "name": "Triple J Store",
        "opening_hours": null,
        "shop": "convenience",
        "rooms": null
      }
    },
    {
      "type": "Feature",
      "geometry": {
        "type": "Point",
        "coordinates": [
          121.06048,
          14.5050955
        ]
      },
      "properties": {
        "osm_id": 10021933953,
        "osm_type": "nodes",
        "amenity": null,
        "tourism": null,
        "beds": null,
        "name": "N.J. Cipres General Merchandise",
        "opening_hours": null,
        "shop": "trade",
        "rooms": null
      }
    },
    {
      "type": "Feature",
      "geometry": {
        "type": "Point",
        "coordinates": [
          121.0605061,
          14.5051689
        ]
      },
      "properties": {
        "osm_id": 4972396623,
        "osm_type": "nodes",
        "amenity": null,
        "tourism": null,
        "beds": null,
        "name": "Selfie Wash",
        "opening_hours": null,
        "shop": "laundry",
        "rooms": null
      }
    },
    {
      "type": "Feature",
      "geometry": {
        "type": "Point",
        "coordinates": [
          121.0572217,
          14.5051701
        ]
      },
      "properties": {
        "osm_id": 10021895880,
        "osm_type": "nodes",
        "amenity": null,
        "tourism": null,
        "beds": null,
        "name": "Corner Store",
        "opening_hours": null,
        "shop": "convenience",
        "rooms": null
      }
    },
    {
      "type": "Feature",
      "geometry": {
        "type": "Point",
        "coordinates": [
          121.0550204,
          14.5056912
        ]
      },
      "properties": {
        "osm_id": 11115581022,
        "osm_type": "nodes",
        "amenity": null,
        "tourism": null,
        "beds": null,
        "name": "Satoshi Barbershop",
        "opening_hours": null,
        "shop": "hairdresser",
        "rooms": null
      }
    },
    {
      "type": "Feature",
      "geometry": {
        "type": "Point",
        "coordinates": [
          121.0561144,
          14.5047254
        ]
      },
      "properties": {
        "osm_id": 10936377905,
        "osm_type": "nodes",
        "amenity": null,
        "tourism": "apartment",
        "beds": null,
        "name": "Boss Samarista Res",
        "opening_hours": null,
        "shop": null,
        "rooms": null
      }
    },
    {
      "type": "Feature",
      "geometry": {
        "type": "Point",
        "coordinates": [
          121.0539917,
          14.5038295
        ]
      },
      "properties": {
        "osm_id": 6382645716,
        "osm_type": "nodes",
        "amenity": null,
        "tourism": null,
        "beds": null,
        "name": "Hardware Shop",
        "opening_hours": null,
        "shop": "hardware",
        "rooms": null
      }
    },
    {
      "type": "Feature",
      "geometry": {
        "type": "Point",
        "coordinates": [
          121.0517018,
          14.500172
        ]
      },
      "properties": {
        "osm_id": 10597911897,
        "osm_type": "nodes",
        "amenity": null,
        "tourism": null,
        "beds": null,
        "name": "M Lhuillier",
        "opening_hours": null,
        "shop": "pawnbroker",
        "rooms": null
      }
    },
    {
      "type": "Feature",
      "geometry": {
        "type": "Point",
        "coordinates": [
          121.0510587,
          14.5005278
        ]
      },
      "properties": {
        "osm_id": 8613759425,
        "osm_type": "nodes",
        "amenity": null,
        "tourism": null,
        "beds": null,
        "name": "Prochina General Merchandise",
        "opening_hours": null,
        "shop": "hardware",
        "rooms": null
      }
    },
    {
      "type": "Feature",
      "geometry": {
        "type": "Point",
        "coordinates": [
          121.050997,
          14.5006832
        ]
      },
      "properties": {
        "osm_id": 6364087438,
        "osm_type": "nodes",
        "amenity": null,
        "tourism": null,
        "beds": null,
        "name": null,
        "opening_hours": null,
        "shop": "hardware",
        "rooms": null
      }
    },
    {
      "type": "Feature",
      "geometry": {
        "type": "Point",
        "coordinates": [
          121.0565522,
          14.5080907
        ]
      },
      "properties": {
        "osm_id": 6970654285,
        "osm_type": "nodes",
        "amenity": null,
        "tourism": null,
        "beds": null,
        "name": "arnold xerox",
        "opening_hours": "Mo-Fr 10:00-15:00",
        "shop": "copyshop",
        "rooms": null
      }
    },
    {
      "type": "Feature",
      "geometry": {
        "type": "Point",
        "coordinates": [
          121.0542452,
          14.5080534
        ]
      },
      "properties": {
        "osm_id": 10266840923,
        "osm_type": "nodes",
        "amenity": null,
        "tourism": "artwork",
        "beds": null,
        "name": null,
        "opening_hours": null,
        "shop": null,
        "rooms": null
      }
    },
    {
      "type": "Feature",
      "geometry": {
        "type": "Point",
        "coordinates": [
          121.0528739,
          14.5048624
        ]
      },
      "properties": {
        "osm_id": 10580879940,
        "osm_type": "nodes",
        "amenity": null,
        "tourism": null,
        "beds": null,
        "name": "Graphitext Digital Studio",
        "opening_hours": "Mo 07:00-19:00;Tu 09:00-19:00;We-Sa 08:00-19:00;Su 10:00-18:00",
        "shop": null,
        "rooms": null
      }
    },
    {
      "type": "Feature",
      "geometry": {
        "type": "Point",
        "coordinates": [
          121.0507043,
          14.495555
        ]
      },
      "properties": {
        "osm_id": 10908471841,
        "osm_type": "nodes",
        "amenity": null,
        "tourism": null,
        "beds": null,
        "name": "Alexa Mini Store",
        "opening_hours": "24/7",
        "shop": "convenience",
        "rooms": null
      }
    },
    {
      "type": "Feature",
      "geometry": {
        "type": "Point",
        "coordinates": [
          121.0553663,
          14.4972351
        ]
      },
      "properties": {
        "osm_id": 10597390685,
        "osm_type": "nodes",
        "amenity": null,
        "tourism": null,
        "beds": null,
        "name": "Sangguniang Pambarangay ng Maharlika",
        "opening_hours": "Mo-Fr 08:00-17:00",
        "shop": null,
        "rooms": null
      }
    },
    {
      "type": "Feature",
      "geometry": {
        "type": "Point",
        "coordinates": [
          121.0607267,
          14.5050604
        ]
      },
      "properties": {
        "osm_id": 10021933955,
        "osm_type": "nodes",
        "amenity": null,
        "tourism": null,
        "beds": null,
        "name": "J Shine General Merchandise",
        "opening_hours": null,
        "shop": "trade",
        "rooms": null
      }
    },
    {
      "type": "Feature",
      "geometry": {
        "type": "Point",
        "coordinates": [
          121.0492661,
          14.4866562
        ]
      },
      "properties": {
        "osm_id": 9963725237,
        "osm_type": "nodes",
        "amenity": null,
        "tourism": null,
        "beds": null,
        "name": "AMCEN Building",
        "opening_hours": null,
        "shop": null,
        "rooms": null
      }
    },
    {
      "type": "Feature",
      "geometry": {
        "type": "Point",
        "coordinates": [
          121.0497628,
          14.4869807
        ]
      },
      "properties": {
        "osm_id": 4241278589,
        "osm_type": "nodes",
        "amenity": null,
        "tourism": null,
        "beds": null,
        "name": "Metals Industry Research and Development Center Main Building",
        "opening_hours": null,
        "shop": null,
        "rooms": null
      }
    },
    {
      "type": "Feature",
      "geometry": {
        "type": "Point",
        "coordinates": [
          121.0477487,
          14.4847721
        ]
      },
      "properties": {
        "osm_id": 6346732556,
        "osm_type": "nodes",
        "amenity": null,
        "tourism": null,
        "beds": null,
        "name": "Grocery Outlet",
        "opening_hours": null,
        "shop": "supermarket",
        "rooms": null
      }
    },
    {
      "type": "Feature",
      "geometry": {
        "type": "Point",
        "coordinates": [
          121.0486091,
          14.4860759
        ]
      },
      "properties": {
        "osm_id": 6346732546,
        "osm_type": "nodes",
        "amenity": null,
        "tourism": null,
        "beds": null,
        "name": "Water Refilling Station",
        "opening_hours": null,
        "shop": "water",
        "rooms": null
      }
    },
    {
      "type": "Feature",
      "geometry": {
        "type": "Point",
        "coordinates": [
          121.0474211,
          14.4861125
        ]
      },
      "properties": {
        "osm_id": 6346732568,
        "osm_type": "nodes",
        "amenity": null,
        "tourism": null,
        "beds": null,
        "name": "Hardware Store",
        "opening_hours": null,
        "shop": "hardware",
        "rooms": null
      }
    },
    {
      "type": "Feature",
      "geometry": {
        "type": "Point",
        "coordinates": [
          121.049347,
          14.486016
        ]
      },
      "properties": {
        "osm_id": 6346732549,
        "osm_type": "nodes",
        "amenity": null,
        "tourism": "guest_house",
        "beds": null,
        "name": "Houses with Light Materials",
        "opening_hours": null,
        "shop": null,
        "rooms": null
      }
    },
    {
      "type": "Feature",
      "geometry": {
        "type": "Point",
        "coordinates": [
          121.0500096,
          14.4983717
        ]
      },
      "properties": {
        "osm_id": 6364087425,
        "osm_type": "nodes",
        "amenity": null,
        "tourism": null,
        "beds": null,
        "name": "Optical Clinic",
        "opening_hours": null,
        "shop": "optician",
        "rooms": null
      }
    },
    {
      "type": "Feature",
      "geometry": {
        "type": "Point",
        "coordinates": [
          121.0500368,
          14.4987987
        ]
      },
      "properties": {
        "osm_id": 7354266685,
        "osm_type": "nodes",
        "amenity": null,
        "tourism": null,
        "beds": null,
        "name": "7-Eleven",
        "opening_hours": null,
        "shop": "convenience",
        "rooms": null
      }
    },
    {
      "type": "Feature",
      "geometry": {
        "type": "Point",
        "coordinates": [
          121.0526218,
          14.4994975
        ]
      },
      "properties": {
        "osm_id": 8613759448,
        "osm_type": "nodes",
        "amenity": null,
        "tourism": null,
        "beds": null,
        "name": "Al Ikwha Islamic Foundation of the Philippines",
        "opening_hours": null,
        "shop": null,
        "rooms": null
      }
    },
    {
      "type": "Feature",
      "geometry": {
        "type": "Point",
        "coordinates": [
          121.0513672,
          14.4962311
        ]
      },
      "properties": {
        "osm_id": 4367733690,
        "osm_type": "nodes",
        "amenity": null,
        "tourism": "guest_house",
        "beds": null,
        "name": "Jucar's",
        "opening_hours": null,
        "shop": null,
        "rooms": null
      }
    },
    {
      "type": "Feature",
      "geometry": {
        "type": "Point",
        "coordinates": [
          121.0503694,
          14.4970773
        ]
      },
      "properties": {
        "osm_id": 8613746811,
        "osm_type": "nodes",
        "amenity": null,
        "tourism": "information",
        "beds": null,
        "name": "Upper Bicutan Spot Map",
        "opening_hours": null,
        "shop": null,
        "rooms": null
      }
    },
    {
      "type": "Feature",
      "geometry": {
        "type": "Point",
        "coordinates": [
          121.0498724,
          14.4978699
        ]
      },
      "properties": {
        "osm_id": 6871464886,
        "osm_type": "nodes",
        "amenity": null,
        "tourism": null,
        "beds": null,
        "name": "Marga Laundry",
        "opening_hours": null,
        "shop": "laundry",
        "rooms": null
      }
    },
    {
      "type": "Feature",
      "geometry": {
        "type": "Point",
        "coordinates": [
          121.0503202,
          14.4954568
        ]
      },
      "properties": {
        "osm_id": 4358516989,
        "osm_type": "nodes",
        "amenity": null,
        "tourism": "guest_house",
        "beds": null,
        "name": "Gerald's Guest House",
        "opening_hours": null,
        "shop": null,
        "rooms": null
      }
    },
    {
      "type": "Feature",
      "geometry": {
        "type": "Point",
        "coordinates": [
          121.0510268,
          14.4943404
        ]
      },
      "properties": {
        "osm_id": 10908436609,
        "osm_type": "nodes",
        "amenity": null,
        "tourism": null,
        "beds": null,
        "name": "Alfamart",
        "opening_hours": "24/7",
        "shop": "convenience",
        "rooms": null
      }
    },
    {
      "type": "Feature",
      "geometry": {
        "type": "Point",
        "coordinates": [
          121.0481223,
          14.4932489
        ]
      },
      "properties": {
        "osm_id": 8613867541,
        "osm_type": "nodes",
        "amenity": null,
        "tourism": null,
        "beds": null,
        "name": "Kuya Tom Motorcycle Parts",
        "opening_hours": null,
        "shop": "motorcycle_parts",
        "rooms": null
      }
    },
    {
      "type": "Feature",
      "geometry": {
        "type": "Point",
        "coordinates": [
          121.0529341,
          14.4892294
        ]
      },
      "properties": {
        "osm_id": 12727150527,
        "osm_type": "nodes",
        "amenity": null,
        "tourism": null,
        "beds": null,
        "name": null,
        "opening_hours": null,
        "shop": "laundry",
        "rooms": null
      }
    },
    {
      "type": "Feature",
      "geometry": {
        "type": "Point",
        "coordinates": [
          121.0506857,
          14.4951646
        ]
      },
      "properties": {
        "osm_id": 12564244121,
        "osm_type": "nodes",
        "amenity": null,
        "tourism": null,
        "beds": null,
        "name": null,
        "opening_hours": null,
        "shop": "pet",
        "rooms": null
      }
    },
    {
      "type": "Feature",
      "geometry": {
        "type": "Point",
        "coordinates": [
          121.0513436,
          14.4939358
        ]
      },
      "properties": {
        "osm_id": 11945438794,
        "osm_type": "nodes",
        "amenity": null,
        "tourism": null,
        "beds": null,
        "name": "Instawash Mini",
        "opening_hours": null,
        "shop": "laundry",
        "rooms": null
      }
    },
    {
      "type": "Feature",
      "geometry": {
        "type": "Point",
        "coordinates": [
          121.0524809,
          14.4953341
        ]
      },
      "properties": {
        "osm_id": 6366495450,
        "osm_type": "nodes",
        "amenity": null,
        "tourism": null,
        "beds": null,
        "name": "Grace Sari Store",
        "opening_hours": null,
        "shop": "convenience",
        "rooms": null
      }
    },
    {
      "type": "Feature",
      "geometry": {
        "type": "Point",
        "coordinates": [
          121.0478082,
          14.477118
        ]
      },
      "properties": {
        "osm_id": 6335055887,
        "osm_type": "nodes",
        "amenity": null,
        "tourism": null,
        "beds": null,
        "name": "Alfamart",
        "opening_hours": null,
        "shop": "convenience",
        "rooms": null
      }
    },
    {
      "type": "Feature",
      "geometry": {
        "type": "Point",
        "coordinates": [
          121.0502181,
          14.4772279
        ]
      },
      "properties": {
        "osm_id": 7010437872,
        "osm_type": "nodes",
        "amenity": null,
        "tourism": null,
        "beds": null,
        "name": null,
        "opening_hours": null,
        "shop": "convenience",
        "rooms": null
      }
    },
    {
      "type": "Feature",
      "geometry": {
        "type": "Point",
        "coordinates": [
          121.0495436,
          14.4780111
        ]
      },
      "properties": {
        "osm_id": 6335055357,
        "osm_type": "nodes",
        "amenity": null,
        "tourism": null,
        "beds": null,
        "name": null,
        "opening_hours": null,
        "shop": "chemist",
        "rooms": null
      }
    },
    {
      "type": "Feature",
      "geometry": {
        "type": "Point",
        "coordinates": [
          121.0500589,
          14.4776779
        ]
      },
      "properties": {
        "osm_id": 7010437871,
        "osm_type": "nodes",
        "amenity": null,
        "tourism": null,
        "beds": null,
        "name": null,
        "opening_hours": null,
        "shop": "bakery",
        "rooms": null
      }
    },
    {
      "type": "Feature",
      "geometry": {
        "type": "Point",
        "coordinates": [
          121.048349,
          14.4789606
        ]
      },
      "properties": {
        "osm_id": 7010437874,
        "osm_type": "nodes",
        "amenity": null,
        "tourism": null,
        "beds": null,
        "name": null,
        "opening_hours": null,
        "shop": "bakery",
        "rooms": null
      }
    },
    {
      "type": "Feature",
      "geometry": {
        "type": "Point",
        "coordinates": [
          121.0478541,
          14.4792894
        ]
      },
      "properties": {
        "osm_id": 7010437873,
        "osm_type": "nodes",
        "amenity": null,
        "tourism": null,
        "beds": null,
        "name": null,
        "opening_hours": null,
        "shop": "hairdresser",
        "rooms": null
      }
    },
    {
      "type": "Feature",
      "geometry": {
        "type": "Point",
        "coordinates": [
          121.0472168,
          14.4900022
        ]
      },
      "properties": {
        "osm_id": 8613867537,
        "osm_type": "nodes",
        "amenity": null,
        "tourism": null,
        "beds": null,
        "name": "Mark J",
        "opening_hours": null,
        "shop": "pawnbroker",
        "rooms": null
      }
    },
    {
      "type": "Feature",
      "geometry": {
        "type": "Point",
        "coordinates": [
          121.0479858,
          14.4847362
        ]
      },
      "properties": {
        "osm_id": 6346732554,
        "osm_type": "nodes",
        "amenity": null,
        "tourism": "guest_house",
        "beds": null,
        "name": "Houses with light materials",
        "opening_hours": null,
        "shop": null,
        "rooms": null
      }
    },
    {
      "type": "Feature",
      "geometry": {
        "type": "Point",
        "coordinates": [
          121.0607999,
          14.4855404
        ]
      },
      "properties": {
        "osm_id": 6381001885,
        "osm_type": "nodes",
        "amenity": null,
        "tourism": null,
        "beds": null,
        "name": "OneBigWash",
        "opening_hours": null,
        "shop": "laundry",
        "rooms": null
      }
    },
    {
      "type": "Feature",
      "geometry": {
        "type": "Point",
        "coordinates": [
          121.0553952,
          14.5260532
        ]
      },
      "properties": {
        "osm_id": 9854568462,
        "osm_type": "nodes",
        "amenity": null,
        "tourism": null,
        "beds": null,
        "name": null,
        "opening_hours": null,
        "shop": "trade",
        "rooms": null
      }
    },
    {
      "type": "Feature",
      "geometry": {
        "type": "Point",
        "coordinates": [
          121.0577595,
          14.5235398
        ]
      },
      "properties": {
        "osm_id": 12080281738,
        "osm_type": "nodes",
        "amenity": null,
        "tourism": null,
        "beds": null,
        "name": "Tambunting",
        "opening_hours": null,
        "shop": "pawnbroker",
        "rooms": null
      }
    },
    {
      "type": "Feature",
      "geometry": {
        "type": "Point",
        "coordinates": [
          121.0953142,
          14.533103
        ]
      },
      "properties": {
        "osm_id": 6447272042,
        "osm_type": "nodes",
        "amenity": null,
        "tourism": null,
        "beds": null,
        "name": "SMO Hardware",
        "opening_hours": null,
        "shop": "trade",
        "rooms": null
      }
    },
    {
      "type": "Feature",
      "geometry": {
        "type": "Point",
        "coordinates": [
          121.0739332,
          14.5205996
        ]
      },
      "properties": {
        "osm_id": 11956306925,
        "osm_type": "nodes",
        "amenity": null,
        "tourism": null,
        "beds": null,
        "name": "Alfamart",
        "opening_hours": null,
        "shop": "convenience",
        "rooms": null
      }
    },
    {
      "type": "Feature",
      "geometry": {
        "type": "Point",
        "coordinates": [
          121.073258,
          14.5178898
        ]
      },
      "properties": {
        "osm_id": 11954675682,
        "osm_type": "nodes",
        "amenity": null,
        "tourism": null,
        "beds": null,
        "name": "Dennise & Dennelyn Hardware",
        "opening_hours": null,
        "shop": "hardware",
        "rooms": null
      }
    },
    {
      "type": "Feature",
      "geometry": {
        "type": "Point",
        "coordinates": [
          121.073542,
          14.5186333
        ]
      },
      "properties": {
        "osm_id": 11954673644,
        "osm_type": "nodes",
        "amenity": null,
        "tourism": null,
        "beds": null,
        "name": "Metawoods Trading",
        "opening_hours": null,
        "shop": "trade",
        "rooms": null
      }
    },
    {
      "type": "Feature",
      "geometry": {
        "type": "Point",
        "coordinates": [
          121.0929291,
          14.5352381
        ]
      },
      "properties": {
        "osm_id": 11367345369,
        "osm_type": "nodes",
        "amenity": null,
        "tourism": "apartment",
        "beds": null,
        "name": null,
        "opening_hours": null,
        "shop": null,
        "rooms": null
      }
    },
    {
      "type": "Feature",
      "geometry": {
        "type": "Point",
        "coordinates": [
          121.0661535,
          14.530941
        ]
      },
      "properties": {
        "osm_id": 6549760997,
        "osm_type": "nodes",
        "amenity": null,
        "tourism": null,
        "beds": null,
        "name": "Uncle John's",
        "opening_hours": "24/7",
        "shop": "convenience",
        "rooms": null
      }
    },
    {
      "type": "Feature",
      "geometry": {
        "type": "Point",
        "coordinates": [
          121.0694476,
          14.5304547
        ]
      },
      "properties": {
        "osm_id": 1515491808,
        "osm_type": "nodes",
        "amenity": null,
        "tourism": null,
        "beds": null,
        "name": "Globe Telecom",
        "opening_hours": null,
        "shop": null,
        "rooms": null
      }
    },
    {
      "type": "Feature",
      "geometry": {
        "type": "Point",
        "coordinates": [
          121.0594231,
          14.521144
        ]
      },
      "properties": {
        "osm_id": 6448950039,
        "osm_type": "nodes",
        "amenity": null,
        "tourism": null,
        "beds": null,
        "name": null,
        "opening_hours": null,
        "shop": "hardware",
        "rooms": null
      }
    },
    {
      "type": "Feature",
      "geometry": {
        "type": "Point",
        "coordinates": [
          121.0561695,
          14.4942547
        ]
      },
      "properties": {
        "osm_id": 10971819623,
        "osm_type": "nodes",
        "amenity": null,
        "tourism": null,
        "beds": null,
        "name": "McClean Laundry Services",
        "opening_hours": null,
        "shop": "laundry",
        "rooms": null
      }
    },
    {
      "type": "Feature",
      "geometry": {
        "type": "Point",
        "coordinates": [
          121.05083,
          14.5008712
        ]
      },
      "properties": {
        "osm_id": 12264638132,
        "osm_type": "nodes",
        "amenity": null,
        "tourism": null,
        "beds": null,
        "name": "RD",
        "opening_hours": null,
        "shop": "pawnbroker",
        "rooms": null
      }
    },
    {
      "type": "Feature",
      "geometry": {
        "type": "Point",
        "coordinates": [
          121.0551383,
          14.522026
        ]
      },
      "properties": {
        "osm_id": 13071754254,
        "osm_type": "nodes",
        "amenity": null,
        "tourism": null,
        "beds": null,
        "name": "Taguig Cooperative Development Office",
        "opening_hours": null,
        "shop": null,
        "rooms": null
      }
    },
    {
      "type": "Feature",
      "geometry": {
        "type": "Point",
        "coordinates": [
          121.0432462,
          14.5255597
        ]
      },
      "properties": {
        "osm_id": 11230769439,
        "osm_type": "nodes",
        "amenity": null,
        "tourism": null,
        "beds": null,
        "name": "7 Eleven",
        "opening_hours": null,
        "shop": "convenience",
        "rooms": null
      }
    },
    {
      "type": "Feature",
      "geometry": {
        "type": "Point",
        "coordinates": [
          121.081749,
          14.5247061
        ]
      },
      "properties": {
        "osm_id": 12749573230,
        "osm_type": "nodes",
        "amenity": null,
        "tourism": null,
        "beds": null,
        "name": "O!Save",
        "opening_hours": "24/7",
        "shop": "convenience",
        "rooms": null
      }
    },
    {
      "type": "Feature",
      "geometry": {
        "type": "Point",
        "coordinates": [
          121.0823628,
          14.5467493
        ]
      },
      "properties": {
        "osm_id": 12603768001,
        "osm_type": "nodes",
        "amenity": null,
        "tourism": null,
        "beds": null,
        "name": "Dali",
        "opening_hours": null,
        "shop": "convenience",
        "rooms": null
      }
    },
    {
      "type": "Feature",
      "geometry": {
        "type": "Point",
        "coordinates": [
          121.0893774,
          14.5378798
        ]
      },
      "properties": {
        "osm_id": 12603759800,
        "osm_type": "nodes",
        "amenity": null,
        "tourism": null,
        "beds": null,
        "name": "Dali",
        "opening_hours": null,
        "shop": "convenience",
        "rooms": null
      }
    },
    {
      "type": "Feature",
      "geometry": {
        "type": "Point",
        "coordinates": [
          121.078501,
          14.5334738
        ]
      },
      "properties": {
        "osm_id": 12491832994,
        "osm_type": "nodes",
        "amenity": null,
        "tourism": null,
        "beds": null,
        "name": "O!Save",
        "opening_hours": null,
        "shop": "convenience",
        "rooms": null
      }
    },
    {
      "type": "Feature",
      "geometry": {
        "type": "Point",
        "coordinates": [
          121.0741942,
          14.530095
        ]
      },
      "properties": {
        "osm_id": 12825136101,
        "osm_type": "nodes",
        "amenity": null,
        "tourism": null,
        "beds": null,
        "name": "TJ Salon Professionals",
        "opening_hours": null,
        "shop": "hairdresser",
        "rooms": null
      }
    },
    {
      "type": "Feature",
      "geometry": {
        "type": "Point",
        "coordinates": [
          121.0765384,
          14.5289461
        ]
      },
      "properties": {
        "osm_id": 5241443622,
        "osm_type": "nodes",
        "amenity": null,
        "tourism": null,
        "beds": null,
        "name": "Pet Grooming",
        "opening_hours": "24/7",
        "shop": "pet",
        "rooms": null
      }
    },
    {
      "type": "Feature",
      "geometry": {
        "type": "Point",
        "coordinates": [
          121.0575342,
          14.5289373
        ]
      },
      "properties": {
        "osm_id": 598409047,
        "osm_type": "nodes",
        "amenity": null,
        "tourism": null,
        "beds": null,
        "name": "MR.DIY",
        "opening_hours": null,
        "shop": "doityourself",
        "rooms": null
      }
    },
    {
      "type": "Feature",
      "geometry": {
        "type": "Point",
        "coordinates": [
          121.0516025,
          14.5165168
        ]
      },
      "properties": {
        "osm_id": 8451566039,
        "osm_type": "nodes",
        "amenity": null,
        "tourism": null,
        "beds": null,
        "name": "Red Ribbon",
        "opening_hours": null,
        "shop": "bakery",
        "rooms": null
      }
    },
    {
      "type": "Feature",
      "geometry": {
        "type": "Point",
        "coordinates": [
          121.056085,
          14.5279629
        ]
      },
      "properties": {
        "osm_id": 7738463589,
        "osm_type": "nodes",
        "amenity": null,
        "tourism": null,
        "beds": null,
        "name": null,
        "opening_hours": null,
        "shop": "lottery",
        "rooms": null
      }
    },
    {
      "type": "Feature",
      "geometry": {
        "type": "Point",
        "coordinates": [
          121.0427231,
          14.5030895
        ]
      },
      "properties": {
        "osm_id": 11950533032,
        "osm_type": "nodes",
        "amenity": null,
        "tourism": null,
        "beds": null,
        "name": "7-Eleven",
        "opening_hours": null,
        "shop": "convenience",
        "rooms": null
      }
    },
    {
      "type": "Feature",
      "geometry": {
        "type": "Point",
        "coordinates": [
          121.0903336,
          14.5366569
        ]
      },
      "properties": {
        "osm_id": 12491962059,
        "osm_type": "nodes",
        "amenity": null,
        "tourism": null,
        "beds": null,
        "name": "Dali",
        "opening_hours": null,
        "shop": "convenience",
        "rooms": null
      }
    },
    {
      "type": "Feature",
      "geometry": {
        "type": "Point",
        "coordinates": [
          121.0601657,
          14.4886982
        ]
      },
      "properties": {
        "osm_id": 12458497445,
        "osm_type": "nodes",
        "amenity": null,
        "tourism": null,
        "beds": null,
        "name": "Rhessie Beauty Salon",
        "opening_hours": null,
        "shop": "hairdresser",
        "rooms": null
      }
    },
    {
      "type": "Feature",
      "geometry": {
        "type": "Point",
        "coordinates": [
          121.0709921,
          14.5287379
        ]
      },
      "properties": {
        "osm_id": 12729876301,
        "osm_type": "nodes",
        "amenity": null,
        "tourism": null,
        "beds": null,
        "name": "Home Along",
        "opening_hours": null,
        "shop": "appliance",
        "rooms": null
      }
    },
    {
      "type": "Feature",
      "geometry": {
        "type": "Point",
        "coordinates": [
          121.0743863,
          14.529929
        ]
      },
      "properties": {
        "osm_id": 12825136902,
        "osm_type": "nodes",
        "amenity": null,
        "tourism": null,
        "beds": null,
        "name": "Rulls",
        "opening_hours": null,
        "shop": "mobile_phone",
        "rooms": null
      }
    },
    {
      "type": "Feature",
      "geometry": {
        "type": "Point",
        "coordinates": [
          121.0727775,
          14.5316653
        ]
      },
      "properties": {
        "osm_id": 12828423303,
        "osm_type": "nodes",
        "amenity": null,
        "tourism": null,
        "beds": null,
        "name": "Nuat Thai",
        "opening_hours": null,
        "shop": "massage",
        "rooms": null
      }
    },
    {
      "type": "Feature",
      "geometry": {
        "type": "Point",
        "coordinates": [
          121.0743253,
          14.529962
        ]
      },
      "properties": {
        "osm_id": 12825136901,
        "osm_type": "nodes",
        "amenity": null,
        "tourism": null,
        "beds": null,
        "name": "mx memoxpress",
        "opening_hours": null,
        "shop": "mobile_phone",
        "rooms": null
      }
    },
    {
      "type": "Feature",
      "geometry": {
        "type": "Point",
        "coordinates": [
          121.0742896,
          14.530111
        ]
      },
      "properties": {
        "osm_id": 12825136904,
        "osm_type": "nodes",
        "amenity": null,
        "tourism": null,
        "beds": null,
        "name": "Studio M by Micah",
        "opening_hours": null,
        "shop": "beauty",
        "rooms": null
      }
    },
    {
      "type": "Feature",
      "geometry": {
        "type": "Point",
        "coordinates": [
          121.0742764,
          14.5301572
        ]
      },
      "properties": {
        "osm_id": 12825137602,
        "osm_type": "nodes",
        "amenity": null,
        "tourism": null,
        "beds": null,
        "name": "Andy Passion Eyebrow Embroidery",
        "opening_hours": null,
        "shop": "beauty",
        "rooms": null
      }
    },
    {
      "type": "Feature",
      "geometry": {
        "type": "Point",
        "coordinates": [
          121.0743571,
          14.5304016
        ]
      },
      "properties": {
        "osm_id": 12825140201,
        "osm_type": "nodes",
        "amenity": null,
        "tourism": null,
        "beds": null,
        "name": "Brusko Barbers",
        "opening_hours": null,
        "shop": "hairdresser",
        "rooms": null
      }
    },
    {
      "type": "Feature",
      "geometry": {
        "type": "Point",
        "coordinates": [
          121.0745277,
          14.5301954
        ]
      },
      "properties": {
        "osm_id": 12825140001,
        "osm_type": "nodes",
        "amenity": null,
        "tourism": null,
        "beds": null,
        "name": "Paper&co.",
        "opening_hours": null,
        "shop": "stationery",
        "rooms": null
      }
    },
    {
      "type": "Feature",
      "geometry": {
        "type": "Point",
        "coordinates": [
          121.03047,
          14.5192448
        ]
      },
      "properties": {
        "osm_id": 5586319638,
        "osm_type": "nodes",
        "amenity": null,
        "tourism": null,
        "beds": null,
        "name": "Bykewurks",
        "opening_hours": null,
        "shop": null,
        "rooms": null
      }
    },
    {
      "type": "Feature",
      "geometry": {
        "type": "Point",
        "coordinates": [
          121.0583214,
          14.5126927
        ]
      },
      "properties": {
        "osm_id": 12491983946,
        "osm_type": "nodes",
        "amenity": null,
        "tourism": null,
        "beds": null,
        "name": "Alfamart",
        "opening_hours": "24/7",
        "shop": "convenience",
        "rooms": null
      }
    },
    {
      "type": "Feature",
      "geometry": {
        "type": "Point",
        "coordinates": [
          121.074011,
          14.5206836
        ]
      },
      "properties": {
        "osm_id": 12491983948,
        "osm_type": "nodes",
        "amenity": null,
        "tourism": null,
        "beds": null,
        "name": "Alfamart",
        "opening_hours": null,
        "shop": "convenience",
        "rooms": null
      }
    },
    {
      "type": "Feature",
      "geometry": {
        "type": "Point",
        "coordinates": [
          121.0577595,
          14.5188531
        ]
      },
      "properties": {
        "osm_id": 12491968638,
        "osm_type": "nodes",
        "amenity": null,
        "tourism": null,
        "beds": null,
        "name": "Dali",
        "opening_hours": null,
        "shop": "convenience",
        "rooms": null
      }
    },
    {
      "type": "Feature",
      "geometry": {
        "type": "Point",
        "coordinates": [
          121.0477598,
          14.4773408
        ]
      },
      "properties": {
        "osm_id": 11664849400,
        "osm_type": "nodes",
        "amenity": null,
        "tourism": null,
        "beds": null,
        "name": "Robinsons Easymart",
        "opening_hours": null,
        "shop": "convenience",
        "rooms": null
      }
    },
    {
      "type": "Feature",
      "geometry": {
        "type": "Point",
        "coordinates": [
          121.072792,
          14.5296519
        ]
      },
      "properties": {
        "osm_id": 12491962657,
        "osm_type": "nodes",
        "amenity": null,
        "tourism": null,
        "beds": null,
        "name": "Dali",
        "opening_hours": null,
        "shop": "convenience",
        "rooms": null
      }
    },
    {
      "type": "Feature",
      "geometry": {
        "type": "Point",
        "coordinates": [
          121.0481617,
          14.4930282
        ]
      },
      "properties": {
        "osm_id": 12550416225,
        "osm_type": "nodes",
        "amenity": null,
        "tourism": null,
        "beds": null,
        "name": "A&A Store",
        "opening_hours": null,
        "shop": "general",
        "rooms": null
      }
    },
    {
      "type": "Feature",
      "geometry": {
        "type": "Point",
        "coordinates": [
          121.0528269,
          14.4892335
        ]
      },
      "properties": {
        "osm_id": 12455431451,
        "osm_type": "nodes",
        "amenity": null,
        "tourism": null,
        "beds": null,
        "name": "Furbnb",
        "opening_hours": "Mo-Su 08:00-20:00",
        "shop": "pet_grooming",
        "rooms": null
      }
    },
    {
      "type": "Feature",
      "geometry": {
        "type": "Point",
        "coordinates": [
          121.0497451,
          14.4935898
        ]
      },
      "properties": {
        "osm_id": 12465285624,
        "osm_type": "nodes",
        "amenity": null,
        "tourism": null,
        "beds": null,
        "name": "3N Bakery",
        "opening_hours": null,
        "shop": "bakery",
        "rooms": null
      }
    },
    {
      "type": "Feature",
      "geometry": {
        "type": "Point",
        "coordinates": [
          121.0509577,
          14.4947266
        ]
      },
      "properties": {
        "osm_id": 12564234452,
        "osm_type": "nodes",
        "amenity": null,
        "tourism": null,
        "beds": null,
        "name": null,
        "opening_hours": null,
        "shop": "general",
        "rooms": null
      }
    },
    {
      "type": "Feature",
      "geometry": {
        "type": "Point",
        "coordinates": [
          121.0507548,
          14.4948475
        ]
      },
      "properties": {
        "osm_id": 12564222891,
        "osm_type": "nodes",
        "amenity": null,
        "tourism": null,
        "beds": null,
        "name": null,
        "opening_hours": null,
        "shop": "motorcycle_repair",
        "rooms": null
      }
    },
    {
      "type": "Feature",
      "geometry": {
        "type": "Point",
        "coordinates": [
          121.0504717,
          14.4961634
        ]
      },
      "properties": {
        "osm_id": 12564211353,
        "osm_type": "nodes",
        "amenity": null,
        "tourism": null,
        "beds": null,
        "name": null,
        "opening_hours": null,
        "shop": "funeral_directors",
        "rooms": null
      }
    },
    {
      "type": "Feature",
      "geometry": {
        "type": "Point",
        "coordinates": [
          121.0510716,
          14.4940884
        ]
      },
      "properties": {
        "osm_id": 12564192764,
        "osm_type": "nodes",
        "amenity": null,
        "tourism": null,
        "beds": null,
        "name": null,
        "opening_hours": null,
        "shop": "bakery",
        "rooms": null
      }
    },
    {
      "type": "Feature",
      "geometry": {
        "type": "Point",
        "coordinates": [
          121.0491224,
          14.4934579
        ]
      },
      "properties": {
        "osm_id": 12550251872,
        "osm_type": "nodes",
        "amenity": null,
        "tourism": null,
        "beds": null,
        "name": "Motortrade",
        "opening_hours": null,
        "shop": "motorcycle",
        "rooms": null
      }
    },
    {
      "type": "Feature",
      "geometry": {
        "type": "Point",
        "coordinates": [
          121.0492231,
          14.4933232
        ]
      },
      "properties": {
        "osm_id": 12550445594,
        "osm_type": "nodes",
        "amenity": null,
        "tourism": null,
        "beds": null,
        "name": null,
        "opening_hours": null,
        "shop": "butcher",
        "rooms": null
      }
    },
    {
      "type": "Feature",
      "geometry": {
        "type": "Point",
        "coordinates": [
          121.0492002,
          14.4933195
        ]
      },
      "properties": {
        "osm_id": 12550440215,
        "osm_type": "nodes",
        "amenity": null,
        "tourism": null,
        "beds": null,
        "name": null,
        "opening_hours": null,
        "shop": "hairdresser",
        "rooms": null
      }
    },
    {
      "type": "Feature",
      "geometry": {
        "type": "Point",
        "coordinates": [
          121.0494688,
          14.4935456
        ]
      },
      "properties": {
        "osm_id": 12465285630,
        "osm_type": "nodes",
        "amenity": null,
        "tourism": null,
        "beds": null,
        "name": null,
        "opening_hours": null,
        "shop": "general",
        "rooms": null
      }
    },
    {
      "type": "Feature",
      "geometry": {
        "type": "Point",
        "coordinates": [
          121.049381,
          14.4933898
        ]
      },
      "properties": {
        "osm_id": 12465285632,
        "osm_type": "nodes",
        "amenity": null,
        "tourism": null,
        "beds": null,
        "name": null,
        "opening_hours": null,
        "shop": "general",
        "rooms": null
      }
    },
    {
      "type": "Feature",
      "geometry": {
        "type": "Point",
        "coordinates": [
          121.0486506,
          14.493207
        ]
      },
      "properties": {
        "osm_id": 12465285645,
        "osm_type": "nodes",
        "amenity": null,
        "tourism": null,
        "beds": null,
        "name": "Act's Motorcycle Parts and Accessories",
        "opening_hours": null,
        "shop": "motorcycle_repair",
        "rooms": null
      }
    },
    {
      "type": "Feature",
      "geometry": {
        "type": "Point",
        "coordinates": [
          121.0486886,
          14.4932077
        ]
      },
      "properties": {
        "osm_id": 12465285646,
        "osm_type": "nodes",
        "amenity": null,
        "tourism": null,
        "beds": null,
        "name": "JCIEA Trading",
        "opening_hours": null,
        "shop": "paint",
        "rooms": null
      }
    },
    {
      "type": "Feature",
      "geometry": {
        "type": "Point",
        "coordinates": [
          121.0496475,
          14.5013591
        ]
      },
      "properties": {
        "osm_id": 10598353831,
        "osm_type": "nodes",
        "amenity": null,
        "tourism": null,
        "beds": null,
        "name": "Cebuana Lhuillier",
        "opening_hours": null,
        "shop": "pawnbroker",
        "rooms": null
      }
    },
    {
      "type": "Feature",
      "geometry": {
        "type": "Point",
        "coordinates": [
          121.0496823,
          14.5012133
        ]
      },
      "properties": {
        "osm_id": 12462520893,
        "osm_type": "nodes",
        "amenity": null,
        "tourism": null,
        "beds": null,
        "name": "Johnlyd Bakery",
        "opening_hours": null,
        "shop": "bakery",
        "rooms": null
      }
    },
    {
      "type": "Feature",
      "geometry": {
        "type": "Point",
        "coordinates": [
          121.0497047,
          14.501355
        ]
      },
      "properties": {
        "osm_id": 12462520895,
        "osm_type": "nodes",
        "amenity": null,
        "tourism": null,
        "beds": null,
        "name": "Touch 'N Beauty Salon",
        "opening_hours": null,
        "shop": "beauty",
        "rooms": null
      }
    },
    {
      "type": "Feature",
      "geometry": {
        "type": "Point",
        "coordinates": [
          121.0595741,
          14.4931292
        ]
      },
      "properties": {
        "osm_id": 12460457556,
        "osm_type": "nodes",
        "amenity": null,
        "tourism": null,
        "beds": null,
        "name": "JBG Construction Supply",
        "opening_hours": null,
        "shop": "hardware",
        "rooms": null
      }
    },
    {
      "type": "Feature",
      "geometry": {
        "type": "Point",
        "coordinates": [
          121.0598745,
          14.4917849
        ]
      },
      "properties": {
        "osm_id": 12460457560,
        "osm_type": "nodes",
        "amenity": null,
        "tourism": null,
        "beds": null,
        "name": "Dela Cruz Water Refilling Station",
        "opening_hours": null,
        "shop": "water",
        "rooms": null
      }
    },
    {
      "type": "Feature",
      "geometry": {
        "type": "Point",
        "coordinates": [
          121.0600048,
          14.4910405
        ]
      },
      "properties": {
        "osm_id": 12460457561,
        "osm_type": "nodes",
        "amenity": null,
        "tourism": null,
        "beds": null,
        "name": null,
        "opening_hours": null,
        "shop": "hairdresser",
        "rooms": null
      }
    },
    {
      "type": "Feature",
      "geometry": {
        "type": "Point",
        "coordinates": [
          121.0473313,
          14.4861578
        ]
      },
      "properties": {
        "osm_id": 6346732569,
        "osm_type": "nodes",
        "amenity": null,
        "tourism": null,
        "beds": null,
        "name": "Water refilling Station",
        "opening_hours": null,
        "shop": "water",
        "rooms": null
      }
    },
    {
      "type": "Feature",
      "geometry": {
        "type": "Point",
        "coordinates": [
          121.0609791,
          14.4895083
        ]
      },
      "properties": {
        "osm_id": 6380993931,
        "osm_type": "nodes",
        "amenity": null,
        "tourism": null,
        "beds": null,
        "name": null,
        "opening_hours": null,
        "shop": "hardware",
        "rooms": null
      }
    },
    {
      "type": "Feature",
      "geometry": {
        "type": "Point",
        "coordinates": [
          121.0530548,
          14.4870215
        ]
      },
      "properties": {
        "osm_id": 12458497475,
        "osm_type": "nodes",
        "amenity": null,
        "tourism": null,
        "beds": null,
        "name": null,
        "opening_hours": null,
        "shop": "laundry",
        "rooms": null
      }
    },
    {
      "type": "Feature",
      "geometry": {
        "type": "Point",
        "coordinates": [
          121.0600074,
          14.48871
        ]
      },
      "properties": {
        "osm_id": 12458497460,
        "osm_type": "nodes",
        "amenity": null,
        "tourism": null,
        "beds": null,
        "name": "Vapewoods",
        "opening_hours": "24/7",
        "shop": "e-cigarette",
        "rooms": null
      }
    },
    {
      "type": "Feature",
      "geometry": {
        "type": "Point",
        "coordinates": [
          121.05858,
          14.4888447
        ]
      },
      "properties": {
        "osm_id": 12458497467,
        "osm_type": "nodes",
        "amenity": null,
        "tourism": null,
        "beds": null,
        "name": "Honda",
        "opening_hours": null,
        "shop": "motorcycle",
        "rooms": null
      }
    },
    {
      "type": "Feature",
      "geometry": {
        "type": "Point",
        "coordinates": [
          121.0609351,
          14.4881301
        ]
      },
      "properties": {
        "osm_id": 12456045249,
        "osm_type": "nodes",
        "amenity": null,
        "tourism": null,
        "beds": null,
        "name": "Lemon Square Bakery Treats",
        "opening_hours": null,
        "shop": "bakery",
        "rooms": null
      }
    },
    {
      "type": "Feature",
      "geometry": {
        "type": "Point",
        "coordinates": [
          121.052695,
          14.4892223
        ]
      },
      "properties": {
        "osm_id": 11404980943,
        "osm_type": "nodes",
        "amenity": null,
        "tourism": null,
        "beds": null,
        "name": "A&A Vulcanizing Shop",
        "opening_hours": null,
        "shop": "motorcycle_repair",
        "rooms": null
      }
    },
    {
      "type": "Feature",
      "geometry": {
        "type": "Point",
        "coordinates": [
          121.0525753,
          14.4891999
        ]
      },
      "properties": {
        "osm_id": 11405012004,
        "osm_type": "nodes",
        "amenity": null,
        "tourism": null,
        "beds": null,
        "name": "Toto K-9 Laundry",
        "opening_hours": null,
        "shop": "laundry",
        "rooms": null
      }
    },
    {
      "type": "Feature",
      "geometry": {
        "type": "Point",
        "coordinates": [
          121.0529419,
          14.4892282
        ]
      },
      "properties": {
        "osm_id": 11405207172,
        "osm_type": "nodes",
        "amenity": null,
        "tourism": null,
        "beds": null,
        "name": "Palawan Pawnshop",
        "opening_hours": "Mo-Su 08:00-17:30",
        "shop": "pawnbroker",
        "rooms": null
      }
    },
    {
      "type": "Feature",
      "geometry": {
        "type": "Point",
        "coordinates": [
          121.0338145,
          14.5123172
        ]
      },
      "properties": {
        "osm_id": 5790021857,
        "osm_type": "nodes",
        "amenity": null,
        "tourism": null,
        "beds": null,
        "name": "M.I.B. . Security Services, Inc.",
        "opening_hours": null,
        "shop": null,
        "rooms": null
      }
    },
    {
      "type": "Feature",
      "geometry": {
        "type": "Point",
        "coordinates": [
          121.0779912,
          14.5450792
        ]
      },
      "properties": {
        "osm_id": 1323171761,
        "osm_type": "nodes",
        "amenity": null,
        "tourism": null,
        "beds": null,
        "name": "Bagong Sikat Concrete Products",
        "opening_hours": null,
        "shop": "hardware",
        "rooms": null
      }
    },
    {
      "type": "Feature",
      "geometry": {
        "type": "Point",
        "coordinates": [
          121.0837944,
          14.5417068
        ]
      },
      "properties": {
        "osm_id": 12603768002,
        "osm_type": "nodes",
        "amenity": null,
        "tourism": null,
        "beds": null,
        "name": "Dali",
        "opening_hours": null,
        "shop": "convenience",
        "rooms": null
      }
    },
    {
      "type": "Feature",
      "geometry": {
        "type": "Point",
        "coordinates": [
          121.080409,
          14.5421415
        ]
      },
      "properties": {
        "osm_id": 9845726862,
        "osm_type": "nodes",
        "amenity": null,
        "tourism": null,
        "beds": null,
        "name": null,
        "opening_hours": null,
        "shop": "rice",
        "rooms": null
      }
    },
    {
      "type": "Feature",
      "geometry": {
        "type": "Point",
        "coordinates": [
          121.0810485,
          14.541157
        ]
      },
      "properties": {
        "osm_id": 9630561022,
        "osm_type": "nodes",
        "amenity": null,
        "tourism": null,
        "beds": null,
        "name": "Rcap School & Office Supply Trading",
        "opening_hours": null,
        "shop": "stationery",
        "rooms": null
      }
    },
    {
      "type": "Feature",
      "geometry": {
        "type": "Point",
        "coordinates": [
          121.0684948,
          14.5342573
        ]
      },
      "properties": {
        "osm_id": 5055078923,
        "osm_type": "nodes",
        "amenity": null,
        "tourism": null,
        "beds": null,
        "name": "Bining's",
        "opening_hours": null,
        "shop": "confectionery",
        "rooms": null
      }
    },
    {
      "type": "Feature",
      "geometry": {
        "type": "Point",
        "coordinates": [
          121.074579,
          14.5358974
        ]
      },
      "properties": {
        "osm_id": 10580516672,
        "osm_type": "nodes",
        "amenity": null,
        "tourism": null,
        "beds": null,
        "name": "Lentex CCTV",
        "opening_hours": null,
        "shop": "electronics",
        "rooms": null
      }
    },
    {
      "type": "Feature",
      "geometry": {
        "type": "Point",
        "coordinates": [
          121.0676043,
          14.5352063
        ]
      },
      "properties": {
        "osm_id": 4927836523,
        "osm_type": "nodes",
        "amenity": null,
        "tourism": null,
        "beds": null,
        "name": "7-Eleven",
        "opening_hours": null,
        "shop": "convenience",
        "rooms": null
      }
    },
    {
      "type": "Feature",
      "geometry": {
        "type": "Point",
        "coordinates": [
          121.088967,
          14.5268094
        ]
      },
      "properties": {
        "osm_id": 11992366982,
        "osm_type": "nodes",
        "amenity": null,
        "tourism": null,
        "beds": null,
        "name": "Dali",
        "opening_hours": null,
        "shop": "convenience",
        "rooms": null
      }
    },
    {
      "type": "Feature",
      "geometry": {
        "type": "Point",
        "coordinates": [
          121.0836127,
          14.5298641
        ]
      },
      "properties": {
        "osm_id": 11978949290,
        "osm_type": "nodes",
        "amenity": null,
        "tourism": null,
        "beds": null,
        "name": "Lorico Construction Supplies and Services",
        "opening_hours": null,
        "shop": "trade",
        "rooms": null
      }
    },
    {
      "type": "Feature",
      "geometry": {
        "type": "Point",
        "coordinates": [
          121.0952608,
          14.5313123
        ]
      },
      "properties": {
        "osm_id": 11964566254,
        "osm_type": "nodes",
        "amenity": null,
        "tourism": null,
        "beds": null,
        "name": "Dali",
        "opening_hours": null,
        "shop": "convenience",
        "rooms": null
      }
    },
    {
      "type": "Feature",
      "geometry": {
        "type": "Point",
        "coordinates": [
          121.0795122,
          14.5372937
        ]
      },
      "properties": {
        "osm_id": 9630548712,
        "osm_type": "nodes",
        "amenity": null,
        "tourism": null,
        "beds": null,
        "name": "Vats Marketing",
        "opening_hours": null,
        "shop": "motorcycle",
        "rooms": null
      }
    },
    {
      "type": "Feature",
      "geometry": {
        "type": "Point",
        "coordinates": [
          121.07953,
          14.5373738
        ]
      },
      "properties": {
        "osm_id": 9630548713,
        "osm_type": "nodes",
        "amenity": null,
        "tourism": null,
        "beds": null,
        "name": "Erica's Bakeshop",
        "opening_hours": null,
        "shop": "bakery",
        "rooms": null
      }
    },
    {
      "type": "Feature",
      "geometry": {
        "type": "Point",
        "coordinates": [
          121.0429624,
          14.5260032
        ]
      },
      "properties": {
        "osm_id": 6948839590,
        "osm_type": "nodes",
        "amenity": null,
        "tourism": null,
        "beds": null,
        "name": "Red Ribbon",
        "opening_hours": null,
        "shop": "bakery",
        "rooms": null
      }
    },
    {
      "type": "Feature",
      "geometry": {
        "type": "Point",
        "coordinates": [
          121.0422604,
          14.5284627
        ]
      },
      "properties": {
        "osm_id": 6948734325,
        "osm_type": "nodes",
        "amenity": null,
        "tourism": null,
        "beds": null,
        "name": "ACDI Multipurpose Cooperative",
        "opening_hours": null,
        "shop": null,
        "rooms": null
      }
    },
    {
      "type": "Feature",
      "geometry": {
        "type": "Point",
        "coordinates": [
          121.0527933,
          14.5242102
        ]
      },