{
  "type": "FeatureCollection",
  "features": [
    {
      "type": "Feature",
      "geometry": {
        "type": "Point",
        "coordinates": [
          121.0439638,
          14.6623789
        ]
      },
      "properties": {
        "osm_id": 967510694,
        "osm_type": "nodes",
        "amenity": "restaurant",
        "tourism": null,
        "beds": null,
        "name": "Ninang's Pancit Canton",
        "opening_hours": null,
        "shop": null,
        "rooms": null
      }
    },
    {
      "type": "Feature",
      "geometry": {
        "type": "Point",
        "coordinates": [
          121.0182765,
          14.6559616
        ]
      },
      "properties": {
        "osm_id": 11416587547,
        "osm_type": "nodes",
        "amenity": "restaurant",
        "tourism": null,
        "beds": null,
        "name": "Jarred's Tapsihan",
        "opening_hours": null,
        "shop": null,
        "rooms": null
      }
    },
    {
      "type": "Feature",
      "geometry": {
        "type": "Point",
        "coordinates": [
          121.0407242,
          14.6768506
        ]
      },
      "properties": {
        "osm_id": 12794908947,
        "osm_type": "nodes",
        "amenity": "cafe",
        "tourism": null,
        "beds": null,
        "name": "Saccharo",
        "opening_hours": "24/7",
        "shop": null,
        "rooms": null
      }
    },
    {
      "type": "Feature",
      "geometry": {
        "type": "Point",
        "coordinates": [
          121.0019525,
          14.6165861
        ]
      },
      "properties": {
        "osm_id": 11997165762,
        "osm_type": "nodes",
        "amenity": "restaurant",
        "tourism": null,
        "beds": null,
        "name": "Babot's Farm",
        "opening_hours": null,
        "shop": null,
        "rooms": null
      }
    },
    {
      "type": "Feature",
      "geometry": {
        "type": "Point",
        "coordinates": [
          121.0164932,
          14.6247035
        ]
      },
      "properties": {
        "osm_id": 11997202572,
        "osm_type": "nodes",
        "amenity": "cafe",
        "tourism": null,
        "beds": null,
        "name": "29th Street Cafe",
        "opening_hours": null,
        "shop": null,
        "rooms": null
      }
    },
    {
      "type": "Feature",
      "geometry": {
        "type": "Point",
        "coordinates": [
          121.016719,
          14.6248592
        ]
      },
      "properties": {
        "osm_id": 11997196368,
        "osm_type": "nodes",
        "amenity": "restaurant",
        "tourism": null,
        "beds": null,
        "name": "Doon Sa Masarap",
        "opening_hours": null,
        "shop": null,
        "rooms": null
      }
    },
    {
      "type": "Feature",
      "geometry": {
        "type": "Point",
        "coordinates": [
          121.0175261,
          14.625385
        ]
      },
      "properties": {
        "osm_id": 11997582925,
        "osm_type": "nodes",
        "amenity": "marketplace",
        "tourism": null,
        "beds": null,
        "name": "Leegiee Fish Store",
        "opening_hours": null,
        "shop": null,
        "rooms": null
      }
    },
    {
      "type": "Feature",
      "geometry": {
        "type": "Point",
        "coordinates": [
          121.0186957,
          14.6043618
        ]
      },
      "properties": {
        "osm_id": 6193831705,
        "osm_type": "nodes",
        "amenity": "restaurant",
        "tourism": null,
        "beds": null,
        "name": "Max's Restaurant",
        "opening_hours": null,
        "shop": null,
        "rooms": null
      }
    },
    {
      "type": "Feature",
      "geometry": {
        "type": "Point",
        "coordinates": [
          121.0179243,
          14.6300266
        ]
      },
      "properties": {
        "osm_id": 4734330121,
        "osm_type": "nodes",
        "amenity": "restaurant",
        "tourism": null,
        "beds": null,
        "name": "Dayuhin mo ako Kambingan at iba pa",
        "opening_hours": null,
        "shop": null,
        "rooms": null
      }
    },
    {
      "type": "Feature",
      "geometry": {
        "type": "Point",
        "coordinates": [
          121.0349227,
          14.6613758
        ]
      },
      "properties": {
        "osm_id": 11982108099,
        "osm_type": "nodes",
        "amenity": "fast_food",
        "tourism": null,
        "beds": null,
        "name": "Baby-Q",
        "opening_hours": null,
        "shop": null,
        "rooms": null
      }
    },
    {
      "type": "Feature",
      "geometry": {
        "type": "Point",
        "coordinates": [
          121.0338356,
          14.6617961
        ]
      },
      "properties": {
        "osm_id": 11982181420,
        "osm_type": "nodes",
        "amenity": "fast_food",
        "tourism": null,
        "beds": null,
        "name": "Minute Burger",
        "opening_hours": null,
        "shop": null,
        "rooms": null
      }
    },
    {
      "type": "Feature",
      "geometry": {
        "type": "Point",
        "coordinates": [
          121.0319444,
          14.6617565
        ]
      },
      "properties": {
        "osm_id": 11982442128,
        "osm_type": "nodes",
        "amenity": "restaurant",
        "tourism": null,
        "beds": null,
        "name": "Pik's Kitchen",
        "opening_hours": null,
        "shop": null,
        "rooms": null
      }
    },
    {
      "type": "Feature",
      "geometry": {
        "type": "Point",
        "coordinates": [
          121.0362475,
          14.7217471
        ]
      },
      "properties": {
        "osm_id": 12653929573,
        "osm_type": "nodes",
        "amenity": "fast_food",
        "tourism": null,
        "beds": null,
        "name": "Fatboys",
        "opening_hours": null,
        "shop": null,
        "rooms": null
      }
    },
    {
      "type": "Feature",
      "geometry": {
        "type": "Point",
        "coordinates": [
          121.0842017,
          14.6633551
        ]
      },
      "properties": {
        "osm_id": 5076557321,
        "osm_type": "nodes",
        "amenity": "restaurant",
        "tourism": null,
        "beds": null,
        "name": "Dencio's",
        "opening_hours": null,
        "shop": null,
        "rooms": null
      }
    },
    {
      "type": "Feature",
      "geometry": {
        "type": "Point",
        "coordinates": [
          121.0859884,
          14.6864543
        ]
      },
      "properties": {
        "osm_id": 10096541960,
        "osm_type": "nodes",
        "amenity": "fast_food",
        "tourism": null,
        "beds": null,
        "name": "Don. C",
        "opening_hours": null,
        "shop": null,
        "rooms": null
      }
    },
    {
      "type": "Feature",
      "geometry": {
        "type": "Point",
        "coordinates": [
          121.0666999,
          14.6508463
        ]
      },
      "properties": {
        "osm_id": 12799061357,
        "osm_type": "nodes",
        "amenity": "fast_food",
        "tourism": null,
        "beds": null,
        "name": null,
        "opening_hours": null,
        "shop": null,
        "rooms": null
      }
    },
    {
      "type": "Feature",
      "geometry": {
        "type": "Point",
        "coordinates": [
          121.0689917,
          14.6595758
        ]
      },
      "properties": {
        "osm_id": 12615578546,
        "osm_type": "nodes",
        "amenity": "restaurant",
        "tourism": null,
        "beds": null,
        "name": "Shakey's",
        "opening_hours": "Mo-Su 10:00-21:00",
        "shop": null,
        "rooms": null
      }
    },
    {
      "type": "Feature",
      "geometry": {
        "type": "Point",
        "coordinates": [
          121.0728597,
          14.6340702
        ]
      },
      "properties": {
        "osm_id": 11937489602,
        "osm_type": "nodes",
        "amenity": "fast_food",
        "tourism": null,
        "beds": null,
        "name": "Chicken Chingu",
        "opening_hours": null,
        "shop": null,
        "rooms": null
      }
    },
    {
      "type": "Feature",
      "geometry": {
        "type": "Point",
        "coordinates": [
          121.0636918,
          14.647291
        ]
      },
      "properties": {
        "osm_id": 10839628225,
        "osm_type": "nodes",
        "amenity": "fast_food",
        "tourism": null,
        "beds": null,
        "name": "Kulture Shack",
        "opening_hours": null,
        "shop": null,
        "rooms": null
      }
    },
    {
      "type": "Feature",
      "geometry": {
        "type": "Point",
        "coordinates": [
          121.0601642,
          14.6461963
        ]
      },
      "properties": {
        "osm_id": 10996791492,
        "osm_type": "nodes",
        "amenity": "restaurant",
        "tourism": null,
        "beds": null,
        "name": "Yummy Tokyo",
        "opening_hours": null,
        "shop": null,
        "rooms": null
      }
    },
    {
      "type": "Feature",
      "geometry": {
        "type": "Point",
        "coordinates": [
          121.0750282,
          14.6494921
        ]
      },
      "properties": {
        "osm_id": 10982105551,
        "osm_type": "nodes",
        "amenity": "restaurant",
        "tourism": null,
        "beds": null,
        "name": "Shrimp Bucket",
        "opening_hours": null,
        "shop": null,
        "rooms": null
      }
    },
    {
      "type": "Feature",
      "geometry": {
        "type": "Point",
        "coordinates": [
          121.0684842,
          14.6598595
        ]
      },
      "properties": {
        "osm_id": 10855548419,
        "osm_type": "nodes",
        "amenity": "cafe",
        "tourism": null,
        "beds": null,
        "name": "Laya Coffee",
        "opening_hours": null,
        "shop": null,
        "rooms": null
      }
    },
    {
      "type": "Feature",
      "geometry": {
        "type": "Point",
        "coordinates": [
          121.0658781,
          14.6279386
        ]
      },
      "properties": {
        "osm_id": 10575637454,
        "osm_type": "nodes",
        "amenity": "fast_food",
        "tourism": null,
        "beds": null,
        "name": "Dunkin'",
        "opening_hours": null,
        "shop": null,
        "rooms": null
      }
    },
    {
      "type": "Feature",
      "geometry": {
        "type": "Point",
        "coordinates": [
          121.0721434,
          14.6342771
        ]
      },
      "properties": {
        "osm_id": 2653712388,
        "osm_type": "nodes",
        "amenity": "cafe",
        "tourism": null,
        "beds": null,
        "name": "I love milk tea",
        "opening_hours": null,
        "shop": null,
        "rooms": null
      }
    },
    {
      "type": "Feature",
      "geometry": {
        "type": "Point",
        "coordinates": [
          121.0010107,
          14.6175997
        ]
      },
      "properties": {
        "osm_id": 7866779222,
        "osm_type": "nodes",
        "amenity": "cafe",
        "tourism": null,
        "beds": null,
        "name": "Starbucks",
        "opening_hours": null,
        "shop": null,
        "rooms": null
      }
    },
    {
      "type": "Feature",
      "geometry": {
        "type": "Point",
        "coordinates": [
          121.0464816,
          14.6747481
        ]
      },
      "properties": {
        "osm_id": 11997910350,
        "osm_type": "nodes",
        "amenity": "cafe",
        "tourism": null,
        "beds": null,
        "name": "Sugar Baby Milk Tea & Coffee",
        "opening_hours": null,
        "shop": null,
        "rooms": null
      }
    },
    {
      "type": "Feature",
      "geometry": {
        "type": "Point",
        "coordinates": [
          121.0583124,
          14.7033203
        ]
      },
      "properties": {
        "osm_id": 9356170139,
        "osm_type": "nodes",
        "amenity": "cafe",
        "tourism": null,
        "beds": null,
        "name": "Espresso",
        "opening_hours": null,
        "shop": null,
        "rooms": null
      }
    },
    {
      "type": "Feature",
      "geometry": {
        "type": "Point",
        "coordinates": [
          121.0585828,
          14.7071963
        ]
      },
      "properties": {
        "osm_id": 9679514862,
        "osm_type": "nodes",
        "amenity": "fast_food",
        "tourism": null,
        "beds": null,
        "name": "Ala eh! Batangas Best Lomi",
        "opening_hours": null,
        "shop": null,
        "rooms": null
      }
    },
    {
      "type": "Feature",
      "geometry": {
        "type": "Point",
        "coordinates": [
          121.0569722,
          14.7093118
        ]
      },
      "properties": {
        "osm_id": 4222791291,
        "osm_type": "nodes",
        "amenity": "fast_food",
        "tourism": null,
        "beds": null,
        "name": "Lugaw ni Bro",
        "opening_hours": "24/7",
        "shop": null,
        "rooms": null
      }
    },
    {
      "type": "Feature",
      "geometry": {
        "type": "Point",
        "coordinates": [
          121.0617347,
          14.7093751
        ]
      },
      "properties": {
        "osm_id": 4431633391,
        "osm_type": "nodes",
        "amenity": "fast_food",
        "tourism": null,
        "beds": null,
        "name": "Pares & Pares",
        "opening_hours": null,
        "shop": null,
        "rooms": null
      }
    },
    {
      "type": "Feature",
      "geometry": {
        "type": "Point",
        "coordinates": [
          121.0609518,
          14.7102489
        ]
      },
      "properties": {
        "osm_id": 4413968090,
        "osm_type": "nodes",
        "amenity": "pub",
        "tourism": null,
        "beds": null,
        "name": "Blueyes",
        "opening_hours": null,
        "shop": null,
        "rooms": null
      }
    },
    {
      "type": "Feature",
      "geometry": {
        "type": "Point",
        "coordinates": [
          121.0564413,
          14.6678471
        ]
      },
      "properties": {
        "osm_id": 12086530723,
        "osm_type": "nodes",
        "amenity": "fast_food",
        "tourism": null,
        "beds": null,
        "name": "Angel's Burger",
        "opening_hours": null,
        "shop": null,
        "rooms": null
      }
    },
    {
      "type": "Feature",
      "geometry": {
        "type": "Point",
        "coordinates": [
          121.0589845,
          14.7134694
        ]
      },
      "properties": {
        "osm_id": 7124316885,
        "osm_type": "nodes",
        "amenity": "fast_food",
        "tourism": null,
        "beds": null,
        "name": "Tapsi ni Vivian at Bulaluhan",
        "opening_hours": null,
        "shop": null,
        "rooms": null
      }
    },
    {
      "type": "Feature",
      "geometry": {
        "type": "Point",
        "coordinates": [
          121.0528994,
          14.6207611
        ]
      },
      "properties": {
        "osm_id": 12284675190,
        "osm_type": "nodes",
        "amenity": "restaurant",
        "tourism": null,
        "beds": null,
        "name": "Panda Express",
        "opening_hours": null,
        "shop": null,
        "rooms": null
      }
    },
    {
      "type": "Feature",
      "geometry": {
        "type": "Point",
        "coordinates": [
          121.0525265,
          14.6209623
        ]
      },
      "properties": {
        "osm_id": 12284675192,
        "osm_type": "nodes",
        "amenity": "cafe",
        "tourism": null,
        "beds": null,
        "name": "BLK 513",
        "opening_hours": null,
        "shop": null,
        "rooms": null
      }
    },
    {
      "type": "Feature",
      "geometry": {
        "type": "Point",
        "coordinates": [
          121.0589104,
          14.6159222
        ]
      },
      "properties": {
        "osm_id": 11977591550,
        "osm_type": "nodes",
        "amenity": "cafe",
        "tourism": null,
        "beds": null,
        "name": "Ourblend Coffee & Milk Tea",
        "opening_hours": null,
        "shop": null,
        "rooms": null
      }
    },
    {
      "type": "Feature",
      "geometry": {
        "type": "Point",
        "coordinates": [
          121.0607944,
          14.6175446
        ]
      },
      "properties": {
        "osm_id": 11976794394,
        "osm_type": "nodes",
        "amenity": "fast_food",
        "tourism": null,
        "beds": null,
        "name": "Dolora's Bunso Pansit Malabon House",
        "opening_hours": null,
        "shop": null,
        "rooms": null
      }
    },
    {
      "type": "Feature",
      "geometry": {
        "type": "Point",
        "coordinates": [
          121.0594824,
          14.6198736
        ]
      },
      "properties": {
        "osm_id": 11976784732,
        "osm_type": "nodes",
        "amenity": "restaurant",
        "tourism": null,
        "beds": null,
        "name": "Lugaw Pilipinas",
        "opening_hours": null,
        "shop": null,
        "rooms": null
      }
    },
    {
      "type": "Feature",
      "geometry": {
        "type": "Point",
        "coordinates": [
          121.0614453,
          14.6147148
        ]
      },
      "properties": {
        "osm_id": 11971587771,
        "osm_type": "nodes",
        "amenity": "fast_food",
        "tourism": null,
        "beds": null,
        "name": "The Egg City",
        "opening_hours": null,
        "shop": null,
        "rooms": null
      }
    },
    {
      "type": "Feature",
      "geometry": {
        "type": "Point",
        "coordinates": [
          121.0616716,
          14.6149658
        ]
      },
      "properties": {
        "osm_id": 11971111025,
        "osm_type": "nodes",
        "amenity": "fast_food",
        "tourism": null,
        "beds": null,
        "name": "happy haus Donuts",
        "opening_hours": null,
        "shop": null,
        "rooms": null
      }
    },
    {
      "type": "Feature",
      "geometry": {
        "type": "Point",
        "coordinates": [
          121.0580005,
          14.6466948
        ]
      },
      "properties": {
        "osm_id": 11370978969,
        "osm_type": "nodes",
        "amenity": "restaurant",
        "tourism": null,
        "beds": null,
        "name": "Ramyeon Bar",
        "opening_hours": null,
        "shop": null,
        "rooms": null
      }
    },
    {
      "type": "Feature",
      "geometry": {
        "type": "Point",
        "coordinates": [
          121.0591298,
          14.6359541
        ]
      },
      "properties": {
        "osm_id": 8366196209,
        "osm_type": "nodes",
        "amenity": "post_office",
        "tourism": null,
        "beds": null,
        "name": "LBC",
        "opening_hours": null,
        "shop": null,
        "rooms": null
      }
    },
    {
      "type": "Feature",
      "geometry": {
        "type": "Point",
        "coordinates": [
          121.0607563,
          14.6451088
        ]
      },
      "properties": {
        "osm_id": 10996741789,
        "osm_type": "nodes",
        "amenity": "fast_food",
        "tourism": null,
        "beds": null,
        "name": "Fat Cousins'",
        "opening_hours": null,
        "shop": null,
        "rooms": null
      }
    },
    {
      "type": "Feature",
      "geometry": {
        "type": "Point",
        "coordinates": [
          121.0592391,
          14.6466162
        ]
      },
      "properties": {
        "osm_id": 10839628228,
        "osm_type": "nodes",
        "amenity": "cafe",
        "tourism": null,
        "beds": null,
        "name": "Cha Tuk Chak",
        "opening_hours": null,
        "shop": null,
        "rooms": null
      }
    },
    {
      "type": "Feature",
      "geometry": {
        "type": "Point",
        "coordinates": [
          121.0369519,
          14.6346639
        ]
      },
      "properties": {
        "osm_id": 1297008015,
        "osm_type": "nodes",
        "amenity": "cafe",
        "tourism": null,
        "beds": null,
        "name": "Anabel Lee Cafe",
        "opening_hours": null,
        "shop": null,
        "rooms": null
      }
    },
    {
      "type": "Feature",
      "geometry": {
        "type": "Point",
        "coordinates": [
          121.0610238,
          14.7176749
        ]
      },
      "properties": {
        "osm_id": 4439757689,
        "osm_type": "nodes",
        "amenity": "bar",
        "tourism": null,
        "beds": null,
        "name": "D'Coy Bar & Restro",
        "opening_hours": null,
        "shop": null,
        "rooms": null
      }
    },
    {
      "type": "Feature",
      "geometry": {
        "type": "Point",
        "coordinates": [
          121.0862319,
          14.6905676
        ]
      },
      "properties": {
        "osm_id": 10647854894,
        "osm_type": "nodes",
        "amenity": "fast_food",
        "tourism": null,
        "beds": null,
        "name": "Ang Lechon ni San Pedro",
        "opening_hours": null,
        "shop": null,
        "rooms": null
      }
    },
    {
      "type": "Feature",
      "geometry": {
        "type": "Point",
        "coordinates": [
          121.0234644,
          14.6866733
        ]
      },
      "properties": {
        "osm_id": 8226829498,
        "osm_type": "nodes",
        "amenity": "fast_food",
        "tourism": null,
        "beds": null,
        "name": "3P's Pizza Neopolitina",
        "opening_hours": "Fr-Su 15:00-19:00",
        "shop": null,
        "rooms": null
      }
    },
    {
      "type": "Feature",
      "geometry": {
        "type": "Point",
        "coordinates": [
          121.0200461,
          14.659347
        ]
      },
      "properties": {
        "osm_id": 11991106427,
        "osm_type": "nodes",
        "amenity": "restaurant",
        "tourism": null,
        "beds": null,
        "name": "Samgyup Mukbang",
        "opening_hours": null,
        "shop": null,
        "rooms": null
      }
    },
    {
      "type": "Feature",
      "geometry": {
        "type": "Point",
        "coordinates": [
          121.0279021,
          14.645338
        ]
      },
      "properties": {
        "osm_id": 678369927,
        "osm_type": "nodes",
        "amenity": "restaurant",
        "tourism": null,
        "beds": null,
        "name": "Hap Chan",
        "opening_hours": null,
        "shop": null,
        "rooms": null
      }
    },
    {
      "type": "Feature",
      "geometry": {
        "type": "Point",
        "coordinates": [
          121.0267597,
          14.6349016
        ]
      },
      "properties": {
        "osm_id": 1152261667,
        "osm_type": "nodes",
        "amenity": "cafe",
        "tourism": null,
        "beds": null,
        "name": "Energy Lounge",
        "opening_hours": null,
        "shop": null,
        "rooms": null
      }
    },
    {
      "type": "Feature",
      "geometry": {
        "type": "Point",
        "coordinates": [
          121.0306797,
          14.6382183
        ]
      },
      "properties": {
        "osm_id": 1205415719,
        "osm_type": "nodes",
        "amenity": "bar",
        "tourism": null,
        "beds": null,
        "name": "Gulp Club",
        "opening_hours": null,
        "shop": null,
        "rooms": null
      }
    },
    {
      "type": "Feature",
      "geometry": {
        "type": "Point",
        "coordinates": [
          121.0310938,
          14.6775859
        ]
      },
      "properties": {
        "osm_id": 12866362550,
        "osm_type": "nodes",
        "amenity": "fast_food",
        "tourism": null,
        "beds": null,
        "name": "Angel's Burger",
        "opening_hours": null,
        "shop": null,
        "rooms": null
      }
    },
    {
      "type": "Feature",
      "geometry": {
        "type": "Point",
        "coordinates": [
          121.0332633,
          14.6619154
        ]
      },
      "properties": {
        "osm_id": 11982432473,
        "osm_type": "nodes",
        "amenity": "fast_food",
        "tourism": null,
        "beds": null,
        "name": "Road Otso Paresan",
        "opening_hours": null,
        "shop": null,
        "rooms": null
      }
    },
    {
      "type": "Feature",
      "geometry": {
        "type": "Point",
        "coordinates": [
          121.0218036,
          14.6561988
        ]
      },
      "properties": {
        "osm_id": 11993556650,
        "osm_type": "nodes",
        "amenity": "restaurant",
        "tourism": null,
        "beds": null,
        "name": "Beth Canteen",
        "opening_hours": null,
        "shop": null,
        "rooms": null
      }
    },
    {
      "type": "Feature",
      "geometry": {
        "type": "Point",
        "coordinates": [
          121.033524,
          14.6258575
        ]
      },
      "properties": {
        "osm_id": 1671838059,
        "osm_type": "nodes",
        "amenity": "restaurant",
        "tourism": null,
        "beds": null,
        "name": "Shang Tsu",
        "opening_hours": null,
        "shop": null,
        "rooms": null
      }
    },
    {
      "type": "Feature",
      "geometry": {
        "type": "Point",
        "coordinates": [
          121.0321311,
          14.62436
        ]
      },
      "properties": {
        "osm_id": 10048663047,
        "osm_type": "nodes",
        "amenity": "bar",
        "tourism": null,
        "beds": null,
        "name": "Fahrenheit Cafe and Fitness Center",
        "opening_hours": "Mo 00:00-01:00, 16:00-00:00; Tu-Fr 16:00-00:00; Sa-Su 00:00-01:00, 16:00-00:00",
        "shop": null,
        "rooms": null
      }
    },
    {
      "type": "Feature",
      "geometry": {
        "type": "Point",
        "coordinates": [
          121.0497673,
          14.664272
        ]
      },
      "properties": {
        "osm_id": 12345111286,
        "osm_type": "nodes",
        "amenity": "pharmacy",
        "tourism": null,
        "beds": null,
        "name": "TGP",
        "opening_hours": null,
        "shop": "chemist",
        "rooms": null
      }
    },
    {
      "type": "Feature",
      "geometry": {
        "type": "Point",
        "coordinates": [
          121.0484468,
          14.6316627
        ]
      },
      "properties": {
        "osm_id": 11951315967,
        "osm_type": "nodes",
        "amenity": "fast_food",
        "tourism": null,
        "beds": null,
        "name": "Pares Rapsa",
        "opening_hours": null,
        "shop": null,
        "rooms": null
      }
    },
    {
      "type": "Feature",
      "geometry": {
        "type": "Point",
        "coordinates": [
          121.0505057,
          14.619651
        ]
      },
      "properties": {
        "osm_id": 11979334295,
        "osm_type": "nodes",
        "amenity": "fast_food",
        "tourism": null,
        "beds": null,
        "name": "Hong Kong Fried Noodle Express",
        "opening_hours": null,
        "shop": null,
        "rooms": null
      }
    },
    {
      "type": "Feature",
      "geometry": {
        "type": "Point",
        "coordinates": [
          121.049952,
          14.6318381
        ]
      },
      "properties": {
        "osm_id": 11951247389,
        "osm_type": "nodes",
        "amenity": "cafe",
        "tourism": null,
        "beds": null,
        "name": "CoffeeSpot",
        "opening_hours": null,
        "shop": null,
        "rooms": null
      }
    },
    {
      "type": "Feature",
      "geometry": {
        "type": "Point",
        "coordinates": [
          121.047722,
          14.6311253
        ]
      },
      "properties": {
        "osm_id": 11951104765,
        "osm_type": "nodes",
        "amenity": "fast_food",
        "tourism": null,
        "beds": null,
        "name": "Papa John's",
        "opening_hours": null,
        "shop": null,
        "rooms": null
      }
    },
    {
      "type": "Feature",
      "geometry": {
        "type": "Point",
        "coordinates": [
          121.0411679,
          14.6325266
        ]
      },
      "properties": {
        "osm_id": 4214681090,
        "osm_type": "nodes",
        "amenity": "restaurant",
        "tourism": null,
        "beds": null,
        "name": "Victorino's Restuarant",
        "opening_hours": null,
        "shop": null,
        "rooms": null
      }
    },
    {
      "type": "Feature",
      "geometry": {
        "type": "Point",
        "coordinates": [
          121.0590675,
          14.5916839
        ]
      },
      "properties": {
        "osm_id": 4242562885,
        "osm_type": "nodes",
        "amenity": "fast_food",
        "tourism": null,
        "beds": null,
        "name": "Jollibee",
        "opening_hours": null,
        "shop": null,
        "rooms": null
      }
    },
    {
      "type": "Feature",
      "geometry": {
        "type": "Point",
        "coordinates": [
          120.9956023,
          14.6295932
        ]
      },
      "properties": {
        "osm_id": 2454826135,
        "osm_type": "nodes",
        "amenity": "restaurant",
        "tourism": null,
        "beds": null,
        "name": "Ponciana's",
        "opening_hours": null,
        "shop": null,
        "rooms": null
      }
    },
    {
      "type": "Feature",
      "geometry": {
        "type": "Point",
        "coordinates": [
          121.0098217,
          14.6201364
        ]
      },
      "properties": {
        "osm_id": 3632316625,
        "osm_type": "nodes",
        "amenity": "restaurant",
        "tourism": null,
        "beds": null,
        "name": "Kay Inday",
        "opening_hours": null,
        "shop": null,
        "rooms": null
      }
    },
    {
      "type": "Feature",
      "geometry": {
        "type": "Point",
        "coordinates": [
          121.0011373,
          14.637392
        ]
      },
      "properties": {
        "osm_id": 3636942640,
        "osm_type": "nodes",
        "amenity": "restaurant",
        "tourism": null,
        "beds": null,
        "name": "Causeway 2 Seafood Restaurant",
        "opening_hours": null,
        "shop": null,
        "rooms": null
      }
    },
    {
      "type": "Feature",
      "geometry": {
        "type": "Point",
        "coordinates": [
          121.0197473,
          14.6809994
        ]
      },
      "properties": {
        "osm_id": 8739818285,
        "osm_type": "nodes",
        "amenity": "fast_food",
        "tourism": null,
        "beds": null,
        "name": "Pixie's Sinugba",
        "opening_hours": null,
        "shop": null,
        "rooms": null
      }
    },
    {
      "type": "Feature",
      "geometry": {
        "type": "Point",
        "coordinates": [
          121.0201182,
          14.6799456
        ]
      },
      "properties": {
        "osm_id": 9514345387,
        "osm_type": "nodes",
        "amenity": "fast_food",
        "tourism": null,
        "beds": null,
        "name": "Shawarma Shack",
        "opening_hours": null,
        "shop": null,
        "rooms": null
      }
    },
    {
      "type": "Feature",
      "geometry": {
        "type": "Point",
        "coordinates": [
          121.0325841,
          14.6706602
        ]
      },
      "properties": {
        "osm_id": 12762684489,
        "osm_type": "nodes",
        "amenity": "restaurant",
        "tourism": null,
        "beds": null,
        "name": "Yalla Chicken",
        "opening_hours": null,
        "shop": null,
        "rooms": null
      }
    },
    {
      "type": "Feature",
      "geometry": {
        "type": "Point",
        "coordinates": [
          121.0282845,
          14.6489328
        ]
      },
      "properties": {
        "osm_id": 1247154916,
        "osm_type": "nodes",
        "amenity": "fast_food",
        "tourism": null,
        "beds": null,
        "name": "Ersao",
        "opening_hours": null,
        "shop": null,
        "rooms": null
      }
    },
    {
      "type": "Feature",
      "geometry": {
        "type": "Point",
        "coordinates": [
          121.0354679,
          14.6522496
        ]
      },
      "properties": {
        "osm_id": 12820955048,
        "osm_type": "nodes",
        "amenity": "restaurant",
        "tourism": null,
        "beds": null,
        "name": "Lawson",
        "opening_hours": null,
        "shop": null,
        "rooms": null
      }
    },
    {
      "type": "Feature",
      "geometry": {
        "type": "Point",
        "coordinates": [
          121.0199898,
          14.6687046
        ]
      },
      "properties": {
        "osm_id": 11993035679,
        "osm_type": "nodes",
        "amenity": "fast_food",
        "tourism": null,
        "beds": null,
        "name": "A's Shawarma",
        "opening_hours": null,
        "shop": null,
        "rooms": null
      }
    },
    {
      "type": "Feature",
      "geometry": {
        "type": "Point",
        "coordinates": [
          121.035455,
          14.6362525
        ]
      },
      "properties": {
        "osm_id": 10247982711,
        "osm_type": "nodes",
        "amenity": "restaurant",
        "tourism": null,
        "beds": null,
        "name": "Wangfu Chinese Cafe",
        "opening_hours": null,
        "shop": null,
        "rooms": null
      }
    },
    {
      "type": "Feature",
      "geometry": {
        "type": "Point",
        "coordinates": [
          121.0470025,
          14.7386298
        ]
      },
      "properties": {
        "osm_id": 9160639228,
        "osm_type": "nodes",
        "amenity": "fast_food",
        "tourism": null,
        "beds": null,
        "name": "Anjanette Canteen",
        "opening_hours": null,
        "shop": null,
        "rooms": null
      }
    },
    {
      "type": "Feature",
      "geometry": {
        "type": "Point",
        "coordinates": [
          121.0477354,
          14.7365028
        ]
      },
      "properties": {
        "osm_id": 9160806909,
        "osm_type": "nodes",
        "amenity": "fast_food",
        "tourism": null,
        "beds": null,
        "name": "MK Lafangan",
        "opening_hours": null,
        "shop": null,
        "rooms": null
      }
    },
    {
      "type": "Feature",
      "geometry": {
        "type": "Point",
        "coordinates": [
          121.0474411,
          14.736639
        ]
      },
      "properties": {
        "osm_id": 9160806903,
        "osm_type": "nodes",
        "amenity": "restaurant",
        "tourism": null,
        "beds": null,
        "name": "Go Dimsum Bar",
        "opening_hours": null,
        "shop": null,
        "rooms": null
      }
    },
    {
      "type": "Feature",
      "geometry": {
        "type": "Point",
        "coordinates": [
          121.0473157,
          14.7376337
        ]
      },
      "properties": {
        "osm_id": 9160601910,
        "osm_type": "nodes",
        "amenity": "fast_food",
        "tourism": null,
        "beds": null,
        "name": "Em's Tapsilogan",
        "opening_hours": null,
        "shop": null,
        "rooms": null
      }
    },
    {
      "type": "Feature",
      "geometry": {
        "type": "Point",
        "coordinates": [
          121.047195,
          14.7378795
        ]
      },
      "properties": {
        "osm_id": 9160601905,
        "osm_type": "nodes",
        "amenity": "fast_food",
        "tourism": null,
        "beds": null,
        "name": "I Love Milktea",
        "opening_hours": null,
        "shop": null,
        "rooms": null
      }
    },
    {
      "type": "Feature",
      "geometry": {
        "type": "Point",
        "coordinates": [
          121.0471474,
          14.7378776
        ]
      },
      "properties": {
        "osm_id": 9160601904,
        "osm_type": "nodes",
        "amenity": "fast_food",
        "tourism": null,
        "beds": null,
        "name": "Wing Bites",
        "opening_hours": null,
        "shop": null,
        "rooms": null
      }
    },
    {
      "type": "Feature",
      "geometry": {
        "type": "Point",
        "coordinates": [
          121.0471705,
          14.7378902
        ]
      },
      "properties": {
        "osm_id": 11021064517,
        "osm_type": "nodes",
        "amenity": "restaurant",
        "tourism": null,
        "beds": null,
        "name": "Jia's",
        "opening_hours": null,
        "shop": null,
        "rooms": null
      }
    },
    {
      "type": "Feature",
      "geometry": {
        "type": "Point",
        "coordinates": [
          121.003391,
          14.6294073
        ]
      },
      "properties": {
        "osm_id": 4204199156,
        "osm_type": "nodes",
        "amenity": "restaurant",
        "tourism": null,
        "beds": null,
        "name": "Yellow Cab Pizza Co.",
        "opening_hours": null,
        "shop": null,
        "rooms": null
      }
    },
    {
      "type": "Feature",
      "geometry": {
        "type": "Point",
        "coordinates": [
          121.0587522,
          14.6430108
        ]
      },
      "properties": {
        "osm_id": 3622868225,
        "osm_type": "nodes",
        "amenity": "fast_food",
        "tourism": null,
        "beds": null,
        "name": "Burger Hub",
        "opening_hours": null,
        "shop": "food",
        "rooms": null
      }
    },
    {
      "type": "Feature",
      "geometry": {
        "type": "Point",
        "coordinates": [
          121.0748506,
          14.6500886
        ]
      },
      "properties": {
        "osm_id": 7130246330,
        "osm_type": "nodes",
        "amenity": "fast_food",
        "tourism": null,
        "beds": null,
        "name": "Kyu kyu Ramen 99",
        "opening_hours": "10:00-21:00",
        "shop": null,
        "rooms": null
      }
    },
    {
      "type": "Feature",
      "geometry": {
        "type": "Point",
        "coordinates": [
          121.0533974,
          14.6534052
        ]
      },
      "properties": {
        "osm_id": 1261813630,
        "osm_type": "nodes",
        "amenity": "fast_food",
        "tourism": null,
        "beds": null,
        "name": "Chowking",
        "opening_hours": null,
        "shop": null,
        "rooms": null
      }
    },
    {
      "type": "Feature",
      "geometry": {
        "type": "Point",
        "coordinates": [
          121.0344213,
          14.6766433
        ]
      },
      "properties": {
        "osm_id": 12999002203,
        "osm_type": "nodes",
        "amenity": "fast_food",
        "tourism": null,
        "beds": null,
        "name": "Rohan's Eatery",
        "opening_hours": null,
        "shop": null,
        "rooms": null
      }
    },
    {
      "type": "Feature",
      "geometry": {
        "type": "Point",
        "coordinates": [
          121.0323457,
          14.6774171
        ]
      },
      "properties": {
        "osm_id": 4592543790,
        "osm_type": "nodes",
        "amenity": "fast_food",
        "tourism": null,
        "beds": null,
        "name": "Minute Burger",
        "opening_hours": null,
        "shop": null,
        "rooms": null
      }
    },
    {
      "type": "Feature",
      "geometry": {
        "type": "Point",
        "coordinates": [
          121.0320391,
          14.662202
        ]
      },
      "properties": {
        "osm_id": 11982434411,
        "osm_type": "nodes",
        "amenity": "fast_food",
        "tourism": null,
        "beds": null,
        "name": "Fari\u00f1as Ilocos Empanada",
        "opening_hours": null,
        "shop": null,
        "rooms": null
      }
    },
    {
      "type": "Feature",
      "geometry": {
        "type": "Point",
        "coordinates": [
          121.0286142,
          14.6617456
        ]
      },
      "properties": {
        "osm_id": 11990113971,
        "osm_type": "nodes",
        "amenity": "restaurant",
        "tourism": null,
        "beds": null,
        "name": "AGB Food Hub",
        "opening_hours": null,
        "shop": null,
        "rooms": null
      }
    },
    {
      "type": "Feature",
      "geometry": {
        "type": "Point",
        "coordinates": [
          121.0740112,
          14.6352927
        ]
      },
      "properties": {
        "osm_id": 408774965,
        "osm_type": "nodes",
        "amenity": "restaurant",
        "tourism": null,
        "beds": null,
        "name": "Craving's",
        "opening_hours": null,
        "shop": null,
        "rooms": null
      }
    },
    {
      "type": "Feature",
      "geometry": {
        "type": "Point",
        "coordinates": [
          121.0742614,
          14.6393574
        ]
      },
      "properties": {
        "osm_id": 408774917,
        "osm_type": "nodes",
        "amenity": "restaurant",
        "tourism": null,
        "beds": null,
        "name": "Sizzlin' Pepper Steak",
        "opening_hours": null,
        "shop": null,
        "rooms": null
      }
    },
    {
      "type": "Feature",
      "geometry": {
        "type": "Point",
        "coordinates": [
          121.0742724,
          14.639456
        ]
      },
      "properties": {
        "osm_id": 408775000,
        "osm_type": "nodes",
        "amenity": "restaurant",
        "tourism": null,
        "beds": null,
        "name": "Flaming Wings",
        "opening_hours": null,
        "shop": null,
        "rooms": null
      }
    },
    {
      "type": "Feature",
      "geometry": {
        "type": "Point",
        "coordinates": [
          121.069987,
          14.6639666
        ]
      },
      "properties": {
        "osm_id": 12067827872,
        "osm_type": "nodes",
        "amenity": "fast_food",
        "tourism": null,
        "beds": null,
        "name": "Baliwag",
        "opening_hours": null,
        "shop": null,
        "rooms": null
      }
    },
    {
      "type": "Feature",
      "geometry": {
        "type": "Point",
        "coordinates": [
          121.0750614,
          14.6493584
        ]
      },
      "properties": {
        "osm_id": 10982105552,
        "osm_type": "nodes",
        "amenity": "cafe",
        "tourism": null,
        "beds": null,
        "name": "Chapter",
        "opening_hours": null,
        "shop": null,
        "rooms": null
      }
    },
    {
      "type": "Feature",
      "geometry": {
        "type": "Point",
        "coordinates": [
          121.0752232,
          14.650317
        ]
      },
      "properties": {
        "osm_id": 10981979794,
        "osm_type": "nodes",
        "amenity": "restaurant",
        "tourism": null,
        "beds": null,
        "name": "Mad Mark's",
        "opening_hours": null,
        "shop": null,
        "rooms": null
      }
    },
    {
      "type": "Feature",
      "geometry": {
        "type": "Point",
        "coordinates": [
          121.0752178,
          14.6498583
        ]
      },
      "properties": {
        "osm_id": 10982016192,
        "osm_type": "nodes",
        "amenity": "fast_food",
        "tourism": null,
        "beds": null,
        "name": "Kuya Korea",
        "opening_hours": null,
        "shop": null,
        "rooms": null
      }
    },
    {
      "type": "Feature",
      "geometry": {
        "type": "Point",
        "coordinates": [
          121.075242,
          14.651205
        ]
      },
      "properties": {
        "osm_id": 10982002259,
        "osm_type": "nodes",
        "amenity": "restaurant",
        "tourism": null,
        "beds": null,
        "name": "Hanamaruken Ramen",
        "opening_hours": null,
        "shop": null,
        "rooms": null
      }
    },
    {
      "type": "Feature",
      "geometry": {
        "type": "Point",
        "coordinates": [
          121.0752412,
          14.6507422
        ]
      },
      "properties": {
        "osm_id": 10981954540,
        "osm_type": "nodes",
        "amenity": "fast_food",
        "tourism": null,
        "beds": null,
        "name": "Bonchon",
        "opening_hours": null,
        "shop": null,
        "rooms": null
      }
    },
    {
      "type": "Feature",
      "geometry": {
        "type": "Point",
        "coordinates": [
          121.0803033,
          14.6097683
        ]
      },
      "properties": {
        "osm_id": 1266288907,
        "osm_type": "nodes",
        "amenity": "restaurant",
        "tourism": null,
        "beds": null,
        "name": "Denny's",
        "opening_hours": "24/7",
        "shop": null,
        "rooms": null
      }
    },
    {
      "type": "Feature",
      "geometry": {
        "type": "Point",
        "coordinates": [
          121.0808042,
          14.608518
        ]
      },
      "properties": {
        "osm_id": 11959581475,
        "osm_type": "nodes",
        "amenity": "restaurant",
        "tourism": null,
        "beds": null,
        "name": "Kuya J",
        "opening_hours": null,
        "shop": null,
        "rooms": null
      }
    },
    {
      "type": "Feature",
      "geometry": {
        "type": "Point",
        "coordinates": [
          121.0814452,
          14.5911837
        ]
      },
      "properties": {
        "osm_id": 10809384849,
        "osm_type": "nodes",
        "amenity": "cafe",
        "tourism": null,
        "beds": null,
        "name": "Starbucks",
        "opening_hours": null,
        "shop": null,
        "rooms": null
      }
    },
    {
      "type": "Feature",
      "geometry": {
        "type": "Point",
        "coordinates": [
          121.0796258,
          14.6112079
        ]
      },
      "properties": {
        "osm_id": 2649921504,
        "osm_type": "nodes",
        "amenity": "cafe",
        "tourism": null,
        "beds": null,
        "name": "Book & Borders Cafe",
        "opening_hours": null,
        "shop": null,
        "rooms": null
      }
    },
    {
      "type": "Feature",
      "geometry": {
        "type": "Point",
        "coordinates": [
          121.0173445,
          14.6252652
        ]
      },
      "properties": {
        "osm_id": 11997585295,
        "osm_type": "nodes",
        "amenity": "fast_food",
        "tourism": null,
        "beds": null,
        "name": "Tentako",
        "opening_hours": null,
        "shop": null,
        "rooms": null
      }
    },
    {
      "type": "Feature",
      "geometry": {
        "type": "Point",
        "coordinates": [
          121.0694788,
          14.680561
        ]
      },
      "properties": {
        "osm_id": 9919576942,
        "osm_type": "nodes",
        "amenity": "fast_food",
        "tourism": null,
        "beds": null,
        "name": "Chooks to Go",
        "opening_hours": null,
        "shop": null,
        "rooms": null
      }
    },
    {
      "type": "Feature",
      "geometry": {
        "type": "Point",
        "coordinates": [
          121.0643724,
          14.6724368
        ]
      },
      "properties": {
        "osm_id": 6812418186,
        "osm_type": "nodes",
        "amenity": "restaurant",
        "tourism": null,
        "beds": null,
        "name": "UKB199",
        "opening_hours": null,
        "shop": null,
        "rooms": null
      }
    },
    {
      "type": "Feature",
      "geometry": {
        "type": "Point",
        "coordinates": [
          121.06537,
          14.6724978
        ]
      },
      "properties": {
        "osm_id": 10246562509,
        "osm_type": "nodes",
        "amenity": "pub",
        "tourism": null,
        "beds": null,
        "name": "Aria Gastropub",
        "opening_hours": null,
        "shop": null,
        "rooms": null
      }
    },
    {
      "type": "Feature",
      "geometry": {
        "type": "Point",
        "coordinates": [
          121.0700334,
          14.6865459
        ]
      },
      "properties": {
        "osm_id": 11997979809,
        "osm_type": "nodes",
        "amenity": "fast_food",
        "tourism": null,
        "beds": null,
        "name": "Boss Pares Lugaw",
        "opening_hours": null,
        "shop": null,
        "rooms": null
      }
    },
    {
      "type": "Feature",
      "geometry": {
        "type": "Point",
        "coordinates": [
          121.0788588,
          14.7053178
        ]
      },
      "properties": {
        "osm_id": 9895359598,
        "osm_type": "nodes",
        "amenity": "fast_food",
        "tourism": null,
        "beds": null,
        "name": "Andok's",
        "opening_hours": "24/7",
        "shop": null,
        "rooms": null
      }
    },
    {
      "type": "Feature",
      "geometry": {
        "type": "Point",
        "coordinates": [
          121.0691275,
          14.6735476
        ]
      },
      "properties": {
        "osm_id": 11987803046,
        "osm_type": "nodes",
        "amenity": "restaurant",
        "tourism": null,
        "beds": null,
        "name": "MJM's Eatery & Tapsilogan",
        "opening_hours": null,
        "shop": null,
        "rooms": null
      }
    },
    {
      "type": "Feature",
      "geometry": {
        "type": "Point",
        "coordinates": [
          121.0731313,
          14.7062137
        ]
      },
      "properties": {
        "osm_id": 5314643822,
        "osm_type": "nodes",
        "amenity": "fast_food",
        "tourism": null,
        "beds": null,
        "name": "Dunkin' Donuts",
        "opening_hours": "24/7",
        "shop": null,
        "rooms": null
      }
    },
    {
      "type": "Feature",
      "geometry": {
        "type": "Point",
        "coordinates": [
          121.030761,
          14.6347
        ]
      },
      "properties": {
        "osm_id": 255063509,
        "osm_type": "nodes",
        "amenity": "restaurant",
        "tourism": null,
        "beds": null,
        "name": "My Steak N Grill",
        "opening_hours": null,
        "shop": null,
        "rooms": null
      }
    },
    {
      "type": "Feature",
      "geometry": {
        "type": "Point",
        "coordinates": [
          121.033064,
          14.6563689
        ]
      },
      "properties": {
        "osm_id": 6639869086,
        "osm_type": "nodes",
        "amenity": "cafe",
        "tourism": null,
        "beds": null,
        "name": "Starbucks",
        "opening_hours": null,
        "shop": null,
        "rooms": null
      }
    },
    {
      "type": "Feature",
      "geometry": {
        "type": "Point",
        "coordinates": [
          121.0341104,
          14.6536522
        ]
      },
      "properties": {
        "osm_id": 12494693328,
        "osm_type": "nodes",
        "amenity": "restaurant",
        "tourism": null,
        "beds": null,
        "name": "Astons Specialities",
        "opening_hours": null,
        "shop": null,
        "rooms": null
      }
    },
    {
      "type": "Feature",
      "geometry": {
        "type": "Point",
        "coordinates": [
          121.0703682,
          14.6591242
        ]
      },
      "properties": {
        "osm_id": 5317951156,
        "osm_type": "nodes",
        "amenity": "cafe",
        "tourism": null,
        "beds": null,
        "name": "Kalye Cafe",
        "opening_hours": null,
        "shop": null,
        "rooms": null
      }
    },
    {
      "type": "Feature",
      "geometry": {
        "type": "Point",
        "coordinates": [
          121.0849745,
          14.6771667
        ]
      },
      "properties": {
        "osm_id": 2452669353,
        "osm_type": "nodes",
        "amenity": "cafe",
        "tourism": null,
        "beds": null,
        "name": "Figaro",
        "opening_hours": null,
        "shop": null,
        "rooms": null
      }
    },
    {
      "type": "Feature",
      "geometry": {
        "type": "Point",
        "coordinates": [
          121.0462127,
          14.6372411
        ]
      },
      "properties": {
        "osm_id": 760167651,
        "osm_type": "nodes",
        "amenity": "fast_food",
        "tourism": null,
        "beds": null,
        "name": "Chowking",
        "opening_hours": null,
        "shop": null,
        "rooms": null
      }
    },
    {
      "type": "Feature",
      "geometry": {
        "type": "Point",
        "coordinates": [
          121.0339253,
          14.6309274
        ]
      },
      "properties": {
        "osm_id": 3539062393,
        "osm_type": "nodes",
        "amenity": "restaurant",
        "tourism": null,
        "beds": null,
        "name": "North Park",
        "opening_hours": null,
        "shop": null,
        "rooms": null
      }
    },
    {
      "type": "Feature",
      "geometry": {
        "type": "Point",
        "coordinates": [
          121.0338234,
          14.6319429
        ]
      },
      "properties": {
        "osm_id": 5323226094,
        "osm_type": "nodes",
        "amenity": "cafe",
        "tourism": null,
        "beds": null,
        "name": "Cafe Nenzo",
        "opening_hours": null,
        "shop": null,
        "rooms": null
      }
    },
    {
      "type": "Feature",
      "geometry": {
        "type": "Point",
        "coordinates": [
          121.0347973,
          14.6330937
        ]
      },
      "properties": {
        "osm_id": 6272553542,
        "osm_type": "nodes",
        "amenity": "fast_food",
        "tourism": null,
        "beds": null,
        "name": "J.Co",
        "opening_hours": null,
        "shop": null,
        "rooms": null
      }
    },
    {
      "type": "Feature",
      "geometry": {
        "type": "Point",
        "coordinates": [
          121.034606,
          14.6323841
        ]
      },
      "properties": {
        "osm_id": 12079566169,
        "osm_type": "nodes",
        "amenity": "fast_food",
        "tourism": null,
        "beds": null,
        "name": "Krispy Kreme",
        "opening_hours": null,
        "shop": null,
        "rooms": null
      }
    },
    {
      "type": "Feature",
      "geometry": {
        "type": "Point",
        "coordinates": [
          121.0468203,
          14.6377305
        ]
      },
      "properties": {
        "osm_id": 11942117809,
        "osm_type": "nodes",
        "amenity": "restaurant",
        "tourism": null,
        "beds": null,
        "name": "Dimsum Treats",
        "opening_hours": null,
        "shop": null,
        "rooms": null
      }
    },
    {
      "type": "Feature",
      "geometry": {
        "type": "Point",
        "coordinates": [
          121.0357283,
          14.6371448
        ]
      },
      "properties": {
        "osm_id": 12047902474,
        "osm_type": "nodes",
        "amenity": "restaurant",
        "tourism": null,
        "beds": null,
        "name": "Black Scoop Cafe",
        "opening_hours": null,
        "shop": null,
        "rooms": null
      }
    },
    {
      "type": "Feature",
      "geometry": {
        "type": "Point",
        "coordinates": [
          121.0373146,
          14.6323576
        ]
      },
      "properties": {
        "osm_id": 11712460844,
        "osm_type": "nodes",
        "amenity": "restaurant",
        "tourism": null,
        "beds": null,
        "name": "Azadore Restaurant",
        "opening_hours": null,
        "shop": null,
        "rooms": null
      }
    },
    {
      "type": "Feature",
      "geometry": {
        "type": "Point",
        "coordinates": [
          121.0348156,
          14.633444
        ]
      },
      "properties": {
        "osm_id": 1627792460,
        "osm_type": "nodes",
        "amenity": "restaurant",
        "tourism": null,
        "beds": null,
        "name": "Congo Grill",
        "opening_hours": null,
        "shop": null,
        "rooms": null
      }
    },
    {
      "type": "Feature",
      "geometry": {
        "type": "Point",
        "coordinates": [
          121.0481695,
          14.6446796
        ]
      },
      "properties": {
        "osm_id": 1489298025,
        "osm_type": "nodes",
        "amenity": "fast_food",
        "tourism": null,
        "beds": null,
        "name": "Chowking",
        "opening_hours": null,
        "shop": null,
        "rooms": null
      }
    },
    {
      "type": "Feature",
      "geometry": {
        "type": "Point",
        "coordinates": [
          121.0387277,
          14.6339647
        ]
      },
      "properties": {
        "osm_id": 995634588,
        "osm_type": "nodes",
        "amenity": "bar",
        "tourism": null,
        "beds": null,
        "name": "Quattro",
        "opening_hours": null,
        "shop": null,
        "rooms": null
      }
    },
    {
      "type": "Feature",
      "geometry": {
        "type": "Point",
        "coordinates": [
          121.0368693,
          14.6382203
        ]
      },
      "properties": {
        "osm_id": 351992911,
        "osm_type": "nodes",
        "amenity": "restaurant",
        "tourism": null,
        "beds": null,
        "name": "Hot Shot Grill",
        "opening_hours": null,
        "shop": null,
        "rooms": null
      }
    },
    {
      "type": "Feature",
      "geometry": {
        "type": "Point",
        "coordinates": [
          121.0398348,
          14.6414966
        ]
      },
      "properties": {
        "osm_id": 8346994519,
        "osm_type": "nodes",
        "amenity": "cafe",
        "tourism": null,
        "beds": null,
        "name": "Starbucks",
        "opening_hours": null,
        "shop": null,
        "rooms": null
      }
    },
    {
      "type": "Feature",
      "geometry": {
        "type": "Point",
        "coordinates": [
          121.0401324,
          14.6424132
        ]
      },
      "properties": {
        "osm_id": 1615242753,
        "osm_type": "nodes",
        "amenity": "restaurant",
        "tourism": null,
        "beds": null,
        "name": "North Park",
        "opening_hours": null,
        "shop": null,
        "rooms": null
      }
    },
    {
      "type": "Feature",
      "geometry": {
        "type": "Point",
        "coordinates": [
          121.035263,
          14.6354658
        ]
      },
      "properties": {
        "osm_id": 6520305901,
        "osm_type": "nodes",
        "amenity": "restaurant",
        "tourism": null,
        "beds": null,
        "name": "Ogane",
        "opening_hours": null,
        "shop": null,
        "rooms": null
      }
    },
    {
      "type": "Feature",
      "geometry": {
        "type": "Point",
        "coordinates": [
          121.0287661,
          14.6391571
        ]
      },
      "properties": {
        "osm_id": 776030345,
        "osm_type": "nodes",
        "amenity": "restaurant",
        "tourism": null,
        "beds": null,
        "name": "Dave's Tropical Breeze",
        "opening_hours": null,
        "shop": null,
        "rooms": null
      }
    },
    {
      "type": "Feature",
      "geometry": {
        "type": "Point",
        "coordinates": [
          121.0286077,
          14.6503905
        ]
      },
      "properties": {
        "osm_id": 1157722464,
        "osm_type": "nodes",
        "amenity": "cafe",
        "tourism": null,
        "beds": null,
        "name": "House of Runes Cafe",
        "opening_hours": null,
        "shop": null,
        "rooms": null
      }
    },
    {
      "type": "Feature",
      "geometry": {
        "type": "Point",
        "coordinates": [
          121.0313343,
          14.638491
        ]
      },
      "properties": {
        "osm_id": 255061540,
        "osm_type": "nodes",
        "amenity": "fast_food",
        "tourism": null,
        "beds": null,
        "name": "Pancit Malabon",
        "opening_hours": null,
        "shop": null,
        "rooms": null
      }
    },
    {
      "type": "Feature",
      "geometry": {
        "type": "Point",
        "coordinates": [
          121.0347478,
          14.6310558
        ]
      },
      "properties": {
        "osm_id": 3539064593,
        "osm_type": "nodes",
        "amenity": "fast_food",
        "tourism": null,
        "beds": null,
        "name": "Octoboy",
        "opening_hours": null,
        "shop": null,
        "rooms": null
      }
    },
    {
      "type": "Feature",
      "geometry": {
        "type": "Point",
        "coordinates": [
          121.0338086,
          14.6402134
        ]
      },
      "properties": {
        "osm_id": 2780855073,
        "osm_type": "nodes",
        "amenity": "bar",
        "tourism": null,
        "beds": null,
        "name": "Tides",
        "opening_hours": null,
        "shop": null,
        "rooms": null
      }
    },
    {
      "type": "Feature",
      "geometry": {
        "type": "Point",
        "coordinates": [
          121.031545,
          14.6378033
        ]
      },
      "properties": {
        "osm_id": 1478847752,
        "osm_type": "nodes",
        "amenity": "restaurant",
        "tourism": null,
        "beds": null,
        "name": "Pepeton's",
        "opening_hours": null,
        "shop": null,
        "rooms": null
      }
    },
    {
      "type": "Feature",
      "geometry": {
        "type": "Point",
        "coordinates": [
          121.0397165,
          14.6340546
        ]
      },
      "properties": {
        "osm_id": 1486781322,
        "osm_type": "nodes",
        "amenity": "pub",
        "tourism": null,
        "beds": null,
        "name": "Grand Amihan",
        "opening_hours": null,
        "shop": null,
        "rooms": null
      }
    },
    {
      "type": "Feature",
      "geometry": {
        "type": "Point",
        "coordinates": [
          121.0394032,
          14.6421463
        ]
      },
      "properties": {
        "osm_id": 1615242770,
        "osm_type": "nodes",
        "amenity": "restaurant",
        "tourism": null,
        "beds": null,
        "name": "Kenny Rogers Roasters",
        "opening_hours": null,
        "shop": null,
        "rooms": null
      }
    },
    {
      "type": "Feature",
      "geometry": {
        "type": "Point",
        "coordinates": [
          121.0371163,
          14.610307
        ]
      },
      "properties": {
        "osm_id": 1884931952,
        "osm_type": "nodes",
        "amenity": "restaurant",
        "tourism": null,
        "beds": null,
        "name": "Grillery",
        "opening_hours": null,
        "shop": null,
        "rooms": null
      }
    },
    {
      "type": "Feature",
      "geometry": {
        "type": "Point",
        "coordinates": [
          121.0565042,
          14.7293749
        ]
      },
      "properties": {
        "osm_id": 12069348091,
        "osm_type": "nodes",
        "amenity": "cafe",
        "tourism": null,
        "beds": null,
        "name": "Serenitea",
        "opening_hours": null,
        "shop": null,
        "rooms": null
      }
    },
    {
      "type": "Feature",
      "geometry": {
        "type": "Point",
        "coordinates": [
          121.0470315,
          14.7399335
        ]
      },
      "properties": {
        "osm_id": 5197290286,
        "osm_type": "nodes",
        "amenity": "fast_food",
        "tourism": null,
        "beds": null,
        "name": "Jollibee",
        "opening_hours": null,
        "shop": null,
        "rooms": null
      }
    },
    {
      "type": "Feature",
      "geometry": {
        "type": "Point",
        "coordinates": [
          121.0579417,
          14.7340702
        ]
      },
      "properties": {
        "osm_id": 11552955093,
        "osm_type": "nodes",
        "amenity": "fast_food",
        "tourism": null,
        "beds": null,
        "name": "Cinnabon",
        "opening_hours": null,
        "shop": null,
        "rooms": null
      }
    },
    {
      "type": "Feature",
      "geometry": {
        "type": "Point",
        "coordinates": [
          121.0604527,
          14.7367354
        ]
      },
      "properties": {
        "osm_id": 11552958714,
        "osm_type": "nodes",
        "amenity": "restaurant",
        "tourism": null,
        "beds": null,
        "name": "Shakey's",
        "opening_hours": null,
        "shop": null,
        "rooms": null
      }
    },
    {
      "type": "Feature",
      "geometry": {
        "type": "Point",
        "coordinates": [
          121.059343,
          14.7347268
        ]
      },
      "properties": {
        "osm_id": 1431618895,
        "osm_type": "nodes",
        "amenity": "restaurant",
        "tourism": null,
        "beds": null,
        "name": "Pizza Hut",
        "opening_hours": null,
        "shop": null,
        "rooms": null
      }
    },
    {
      "type": "Feature",
      "geometry": {
        "type": "Point",
        "coordinates": [
          121.0182922,
          14.6791929
        ]
      },
      "properties": {
        "osm_id": 8740005983,
        "osm_type": "nodes",
        "amenity": "fast_food",
        "tourism": null,
        "beds": null,
        "name": "Tom's Crispy Pata",
        "opening_hours": null,
        "shop": null,
        "rooms": null
      }
    },
    {
      "type": "Feature",
      "geometry": {
        "type": "Point",
        "coordinates": [
          121.0181422,
          14.6789811
        ]
      },
      "properties": {
        "osm_id": 995924969,
        "osm_type": "nodes",
        "amenity": "restaurant",
        "tourism": null,
        "beds": null,
        "name": "Original Partners Pares & Mami House",
        "opening_hours": null,
        "shop": null,
        "rooms": null
      }
    },
    {
      "type": "Feature",
      "geometry": {
        "type": "Point",
        "coordinates": [
          121.0179076,
          14.6256359
        ]
      },
      "properties": {
        "osm_id": 11997216665,
        "osm_type": "nodes",
        "amenity": "fast_food",
        "tourism": null,
        "beds": null,
        "name": "Bia Crispy Sisig",
        "opening_hours": null,
        "shop": null,
        "rooms": null
      }
    },
    {
      "type": "Feature",
      "geometry": {
        "type": "Point",
        "coordinates": [
          121.0015193,
          14.6354601
        ]
      },
      "properties": {
        "osm_id": 3084087241,
        "osm_type": "nodes",
        "amenity": "bar",
        "tourism": null,
        "beds": null,
        "name": "Geluk",
        "opening_hours": null,
        "shop": null,
        "rooms": null
      }
    },
    {
      "type": "Feature",
      "geometry": {
        "type": "Point",
        "coordinates": [
          121.0133918,
          14.6737266
        ]
      },
      "properties": {
        "osm_id": 8740204964,
        "osm_type": "nodes",
        "amenity": "restaurant",
        "tourism": null,
        "beds": null,
        "name": "AK Chinese Cuisine",
        "opening_hours": null,
        "shop": null,
        "rooms": null
      }
    },
    {
      "type": "Feature",
      "geometry": {
        "type": "Point",
        "coordinates": [
          121.0627681,
          14.7201175
        ]
      },
      "properties": {
        "osm_id": 2855596099,
        "osm_type": "nodes",
        "amenity": "bar",
        "tourism": null,
        "beds": null,
        "name": "Vicentes Bar and Grill",
        "opening_hours": null,
        "shop": null,
        "rooms": null
      }
    },
    {
      "type": "Feature",
      "geometry": {
        "type": "Point",
        "coordinates": [
          121.066177,
          14.7200813
        ]
      },
      "properties": {
        "osm_id": 2855596095,
        "osm_type": "nodes",
        "amenity": "fast_food",
        "tourism": null,
        "beds": null,
        "name": "Greenjoy Pizza",
        "opening_hours": null,
        "shop": null,
        "rooms": null
      }
    },
    {
      "type": "Feature",
      "geometry": {
        "type": "Point",
        "coordinates": [
          121.0655221,
          14.7238851
        ]
      },
      "properties": {
        "osm_id": 9531531742,
        "osm_type": "nodes",
        "amenity": "restaurant",
        "tourism": null,
        "beds": null,
        "name": "Huntahan at Kape",
        "opening_hours": "Mo-Sa 11:00-20:00",
        "shop": null,
        "rooms": null
      }
    },
    {
      "type": "Feature",
      "geometry": {
        "type": "Point",
        "coordinates": [
          121.0672092,
          14.7239211
        ]
      },
      "properties": {
        "osm_id": 3661058051,
        "osm_type": "nodes",
        "amenity": "cafe",
        "tourism": null,
        "beds": null,
        "name": "Vanilla Bakery and Cafe",
        "opening_hours": "10:00-22:00",
        "shop": null,
        "rooms": null
      }
    },
    {
      "type": "Feature",
      "geometry": {
        "type": "Point",
        "coordinates": [
          121.0668565,
          14.7257557
        ]
      },
      "properties": {
        "osm_id": 4419558890,
        "osm_type": "nodes",
        "amenity": "fast_food",
        "tourism": null,
        "beds": null,
        "name": "Angel's Burger",
        "opening_hours": null,
        "shop": null,
        "rooms": null
      }
    },
    {
      "type": "Feature",
      "geometry": {
        "type": "Point",
        "coordinates": [
          121.0380502,
          14.6145498
        ]
      },
      "properties": {
        "osm_id": 5045655975,
        "osm_type": "nodes",
        "amenity": "cafe",
        "tourism": null,
        "beds": null,
        "name": "The Coffee Bean & Tea Leaf",
        "opening_hours": null,
        "shop": null,
        "rooms": null
      }
    },
    {
      "type": "Feature",
      "geometry": {
        "type": "Point",
        "coordinates": [
          121.0293251,
          14.6228718
        ]
      },
      "properties": {
        "osm_id": 1615118983,
        "osm_type": "nodes",
        "amenity": "cafe",
        "tourism": null,
        "beds": null,
        "name": "Pao Pao Xiao Chi",
        "opening_hours": null,
        "shop": null,
        "rooms": null
      }
    },
    {
      "type": "Feature",
      "geometry": {
        "type": "Point",
        "coordinates": [
          121.0335973,
          14.6284597
        ]
      },
      "properties": {
        "osm_id": 1707923295,
        "osm_type": "nodes",
        "amenity": "cafe",
        "tourism": null,
        "beds": null,
        "name": "Dezaato Pan",
        "opening_hours": null,
        "shop": null,
        "rooms": null
      }
    },
    {
      "type": "Feature",
      "geometry": {
        "type": "Point",
        "coordinates": [
          121.0407107,
          14.6715302
        ]
      },
      "properties": {
        "osm_id": 8745914440,
        "osm_type": "nodes",
        "amenity": "restaurant",
        "tourism": null,
        "beds": null,
        "name": "The Old Spaghetti House",
        "opening_hours": "Mo-Su 11:00-21:00",
        "shop": null,
        "rooms": null
      }
    },
    {
      "type": "Feature",
      "geometry": {
        "type": "Point",
        "coordinates": [
          121.0317031,
          14.6799121
        ]
      },
      "properties": {
        "osm_id": 11660070669,
        "osm_type": "nodes",
        "amenity": "fast_food",
        "tourism": null,
        "beds": null,
        "name": "Peri-Peri",
        "opening_hours": "Mo-Su 10:00-22:00",
        "shop": null,
        "rooms": null
      }
    },
    {
      "type": "Feature",
      "geometry": {
        "type": "Point",
        "coordinates": [
          121.0440341,
          14.6618288
        ]
      },
      "properties": {
        "osm_id": 967510699,
        "osm_type": "nodes",
        "amenity": "fast_food",
        "tourism": null,
        "beds": null,
        "name": "Baliwag",
        "opening_hours": null,
        "shop": null,
        "rooms": null
      }
    },
    {
      "type": "Feature",
      "geometry": {
        "type": "Point",
        "coordinates": [
          121.0310987,
          14.6939366
        ]
      },
      "properties": {
        "osm_id": 12084572282,
        "osm_type": "nodes",
        "amenity": "fast_food",
        "tourism": null,
        "beds": null,
        "name": "Tokyo Tokyo",
        "opening_hours": null,
        "shop": null,
        "rooms": null
      }
    },
    {
      "type": "Feature",
      "geometry": {
        "type": "Point",
        "coordinates": [
          121.043979,
          14.6762097
        ]
      },
      "properties": {
        "osm_id": 10056743416,
        "osm_type": "nodes",
        "amenity": "fast_food",
        "tourism": null,
        "beds": null,
        "name": "Andok's",
        "opening_hours": null,
        "shop": null,
        "rooms": null
      }
    },
    {
      "type": "Feature",
      "geometry": {
        "type": "Point",
        "coordinates": [
          121.048742,
          14.6734724
        ]
      },
      "properties": {
        "osm_id": 11997876160,
        "osm_type": "nodes",
        "amenity": "fast_food",
        "tourism": null,
        "beds": null,
        "name": "Minute Burger",
        "opening_hours": null,
        "shop": null,
        "rooms": null
      }
    },
    {
      "type": "Feature",
      "geometry": {
        "type": "Point",
        "coordinates": [
          121.0262224,
          14.6597048
        ]
      },
      "properties": {
        "osm_id": 11990444023,
        "osm_type": "nodes",
        "amenity": "restaurant",
        "tourism": null,
        "beds": null,
        "name": "11 Twenty Eight Unlimited Chicken",
        "opening_hours": null,
        "shop": null,
        "rooms": null
      }
    },
    {
      "type": "Feature",
      "geometry": {
        "type": "Point",
        "coordinates": [
          121.0263959,
          14.6598397
        ]
      },
      "properties": {
        "osm_id": 11990344438,
        "osm_type": "nodes",
        "amenity": "cafe",
        "tourism": null,
        "beds": null,
        "name": "BigBrew",
        "opening_hours": null,
        "shop": null,
        "rooms": null
      }
    },
    {
      "type": "Feature",
      "geometry": {
        "type": "Point",
        "coordinates": [
          121.0264519,
          14.6602452
        ]
      },
      "properties": {
        "osm_id": 11990130021,
        "osm_type": "nodes",
        "amenity": "fast_food",
        "tourism": null,
        "beds": null,
        "name": "Noodle House",
        "opening_hours": null,
        "shop": null,
        "rooms": null
      }
    },
    {
      "type": "Feature",
      "geometry": {
        "type": "Point",
        "coordinates": [
          121.0272888,
          14.6613582
        ]
      },
      "properties": {
        "osm_id": 11990110548,
        "osm_type": "nodes",
        "amenity": "fast_food",
        "tourism": null,
        "beds": null,
        "name": "OMG Milk Shake",
        "opening_hours": null,
        "shop": null,
        "rooms": null
      }
    },
    {
      "type": "Feature",
      "geometry": {
        "type": "Point",
        "coordinates": [
          121.0331135,
          14.6617646
        ]
      },
      "properties": {
        "osm_id": 11982436421,
        "osm_type": "nodes",
        "amenity": "cafe",
        "tourism": null,
        "beds": null,
        "name": "Kkopi",
        "opening_hours": null,
        "shop": null,
        "rooms": null
      }
    },
    {
      "type": "Feature",
      "geometry": {
        "type": "Point",
        "coordinates": [
          121.0318557,
          14.6622167
        ]
      },
      "properties": {
        "osm_id": 11982437999,
        "osm_type": "nodes",
        "amenity": "restaurant",
        "tourism": null,
        "beds": null,
        "name": "Kingmori Samgyupsal and Resto Bar",
        "opening_hours": null,
        "shop": null,
        "rooms": null
      }
    },
    {
      "type": "Feature",
      "geometry": {
        "type": "Point",
        "coordinates": [
          121.0339201,
          14.6617501
        ]
      },
      "properties": {
        "osm_id": 11982190559,
        "osm_type": "nodes",
        "amenity": "restaurant",
        "tourism": null,
        "beds": null,
        "name": "Charn Store",
        "opening_hours": null,
        "shop": null,
        "rooms": null
      }
    },
    {
      "type": "Feature",
      "geometry": {
        "type": "Point",
        "coordinates": [
          121.0432971,
          14.673829
        ]
      },
      "properties": {
        "osm_id": 9514381778,
        "osm_type": "nodes",
        "amenity": "fast_food",
        "tourism": null,
        "beds": null,
        "name": "Tumbungan sa Tandang Sora",
        "opening_hours": null,
        "shop": null,
        "rooms": null
      }
    },
    {
      "type": "Feature",
      "geometry": {
        "type": "Point",
        "coordinates": [
          121.0299438,
          14.6930612
        ]
      },
      "properties": {
        "osm_id": 597001628,
        "osm_type": "nodes",
        "amenity": "fast_food",
        "tourism": null,
        "beds": null,
        "name": "Baliwag Lechon",
        "opening_hours": null,
        "shop": null,
        "rooms": null
      }
    },
    {
      "type": "Feature",
      "geometry": {
        "type": "Point",
        "coordinates": [
          121.0432216,
          14.6763781
        ]
      },
      "properties": {
        "osm_id": 12976795567,
        "osm_type": "nodes",
        "amenity": "fast_food",
        "tourism": null,
        "beds": null,
        "name": "La Lolo Eatery",
        "opening_hours": null,
        "shop": null,
        "rooms": null
      }
    },
    {
      "type": "Feature",
      "geometry": {
        "type": "Point",
        "coordinates": [
          121.0231804,
          14.6658832
        ]
      },
      "properties": {
        "osm_id": 6017211085,
        "osm_type": "nodes",
        "amenity": "social_facility",
        "tourism": null,
        "beds": null,
        "name": "Children's Joy Foundation",
        "opening_hours": null,
        "shop": null,
        "rooms": null
      }
    },
    {
      "type": "Feature",
      "geometry": {
        "type": "Point",
        "coordinates": [
          121.0140639,
          14.6183318
        ]
      },
      "properties": {
        "osm_id": 11049327941,
        "osm_type": "nodes",
        "amenity": "restaurant",
        "tourism": null,
        "beds": null,
        "name": "Luk Foo",
        "opening_hours": null,
        "shop": null,
        "rooms": null
      }
    },
    {
      "type": "Feature",
      "geometry": {
        "type": "Point",
        "coordinates": [
          121.0143337,
          14.6176528
        ]
      },
      "properties": {
        "osm_id": 11049327945,
        "osm_type": "nodes",
        "amenity": "fast_food",
        "tourism": null,
        "beds": null,
        "name": "S&R New York Style Pizza",
        "opening_hours": null,
        "shop": null,
        "rooms": null
      }
    },
    {
      "type": "Feature",
      "geometry": {
        "type": "Point",
        "coordinates": [
          121.0386434,
          14.7261188
        ]
      },
      "properties": {
        "osm_id": 8720820467,
        "osm_type": "nodes",
        "amenity": "fast_food",
        "tourism": null,
        "beds": null,
        "name": "Don Benito's",
        "opening_hours": null,
        "shop": null,
        "rooms": null
      }
    },
    {
      "type": "Feature",
      "geometry": {
        "type": "Point",
        "coordinates": [
          121.0393133,
          14.7236486
        ]
      },
      "properties": {
        "osm_id": 9501026404,
        "osm_type": "nodes",
        "amenity": "fast_food",
        "tourism": null,
        "beds": null,
        "name": "Don C Lechon manok",
        "opening_hours": null,
        "shop": null,
        "rooms": null
      }
    },
    {
      "type": "Feature",
      "geometry": {
        "type": "Point",
        "coordinates": [
          121.0226849,
          14.6843283
        ]
      },
      "properties": {
        "osm_id": 8739940231,
        "osm_type": "nodes",
        "amenity": "fast_food",
        "tourism": null,
        "beds": null,
        "name": "Madasam's",
        "opening_hours": null,
        "shop": null,
        "rooms": null
      }
    },
    {
      "type": "Feature",
      "geometry": {
        "type": "Point",
        "coordinates": [
          121.0500061,
          14.7044313
        ]
      },
      "properties": {
        "osm_id": 9510450617,
        "osm_type": "nodes",
        "amenity": "fast_food",
        "tourism": null,
        "beds": null,
        "name": "Mr. Liempo",
        "opening_hours": null,
        "shop": null,
        "rooms": null
      }
    },
    {
      "type": "Feature",
      "geometry": {
        "type": "Point",
        "coordinates": [
          121.0628432,
          14.7088399
        ]
      },
      "properties": {
        "osm_id": 1003886200,
        "osm_type": "nodes",
        "amenity": "fast_food",
        "tourism": null,
        "beds": null,
        "name": "Ice Cream House",
        "opening_hours": "Mo-Sa 08:00-18:00",
        "shop": null,
        "rooms": null
      }
    },
    {
      "type": "Feature",
      "geometry": {
        "type": "Point",
        "coordinates": [
          121.0800709,
          14.7044758
        ]
      },
      "properties": {
        "osm_id": 1059290454,
        "osm_type": "nodes",
        "amenity": "fast_food",
        "tourism": null,
        "beds": null,
        "name": "Mang Inasal",
        "opening_hours": null,
        "shop": null,
        "rooms": null
      }
    },
    {
      "type": "Feature",
      "geometry": {
        "type": "Point",
        "coordinates": [
          121.0677995,
          14.6993943
        ]
      },
      "properties": {
        "osm_id": 1064184471,
        "osm_type": "nodes",
        "amenity": "restaurant",
        "tourism": null,
        "beds": null,
        "name": "Nitz",
        "opening_hours": null,
        "shop": null,
        "rooms": null
      }
    },
    {
      "type": "Feature",
      "geometry": {
        "type": "Point",
        "coordinates": [
          121.0731801,
          14.7062129
        ]
      },
      "properties": {
        "osm_id": 3529729130,
        "osm_type": "nodes",
        "amenity": "cafe",
        "tourism": null,
        "beds": null,
        "name": "Cake2go",
        "opening_hours": null,
        "shop": null,
        "rooms": null
      }
    },
    {
      "type": "Feature",
      "geometry": {
        "type": "Point",
        "coordinates": [
          121.068456,
          14.7073389
        ]
      },
      "properties": {
        "osm_id": 11552942635,
        "osm_type": "nodes",
        "amenity": "cafe",
        "tourism": null,
        "beds": null,
        "name": null,
        "opening_hours": null,
        "shop": null,
        "rooms": null
      }
    },
    {
      "type": "Feature",
      "geometry": {
        "type": "Point",
        "coordinates": [
          121.0824982,
          14.7052515
        ]
      },
      "properties": {
        "osm_id": 11552942649,
        "osm_type": "nodes",
        "amenity": "cafe",
        "tourism": null,
        "beds": null,
        "name": "Starbucks",
        "opening_hours": null,
        "shop": null,
        "rooms": null
      }
    },
    {
      "type": "Feature",
      "geometry": {
        "type": "Point",
        "coordinates": [
          121.0437553,
          14.7148094
        ]
      },
      "properties": {
        "osm_id": 10911230446,
        "osm_type": "nodes",
        "amenity": "fast_food",
        "tourism": null,
        "beds": null,
        "name": "Brendahan's Umagahan",
        "opening_hours": null,
        "shop": null,
        "rooms": null
      }
    },
    {
      "type": "Feature",
      "geometry": {
        "type": "Point",
        "coordinates": [
          121.0606462,
          14.7068613
        ]
      },
      "properties": {
        "osm_id": 5509692734,
        "osm_type": "nodes",
        "amenity": "fast_food",
        "tourism": null,
        "beds": null,
        "name": "Monchel Carinderia",
        "opening_hours": null,
        "shop": null,
        "rooms": null
      }
    },
    {
      "type": "Feature",
      "geometry": {
        "type": "Point",
        "coordinates": [
          121.0799086,
          14.7054283
        ]
      },
      "properties": {
        "osm_id": 4270171590,
        "osm_type": "nodes",
        "amenity": "fast_food",
        "tourism": null,
        "beds": null,
        "name": "Sr. Pedro",
        "opening_hours": null,
        "shop": null,
        "rooms": null
      }
    },
    {
      "type": "Feature",
      "geometry": {
        "type": "Point",
        "coordinates": [
          121.0544929,
          14.6207557
        ]
      },
      "properties": {
        "osm_id": 8515824326,
        "osm_type": "nodes",
        "amenity": "cafe",
        "tourism": null,
        "beds": null,
        "name": "J.Co",
        "opening_hours": null,
        "shop": null,
        "rooms": null
      }
    },
    {
      "type": "Feature",
      "geometry": {
        "type": "Point",
        "coordinates": [
          121.0645443,
          14.6295202
        ]
      },
      "properties": {
        "osm_id": 9532738984,
        "osm_type": "nodes",
        "amenity": "fast_food",
        "tourism": null,
        "beds": null,
        "name": "Angel's Burger",
        "opening_hours": "24/7",
        "shop": "food",
        "rooms": null
      }
    },
    {
      "type": "Feature",
      "geometry": {
        "type": "Point",
        "coordinates": [
          121.0701543,
          14.6061168
        ]
      },
      "properties": {
        "osm_id": 11997759156,
        "osm_type": "nodes",
        "amenity": "fast_food",
        "tourism": null,
        "beds": null,
        "name": "Slap Stack",
        "opening_hours": null,
        "shop": null,
        "rooms": null
      }
    },
    {
      "type": "Feature",
      "geometry": {
        "type": "Point",
        "coordinates": [
          121.0702263,
          14.6068334
        ]
      },
      "properties": {
        "osm_id": 11997799824,
        "osm_type": "nodes",
        "amenity": "restaurant",
        "tourism": null,
        "beds": null,
        "name": "Kowloon House",
        "opening_hours": null,
        "shop": null,
        "rooms": null
      }
    },
    {
      "type": "Feature",
      "geometry": {
        "type": "Point",
        "coordinates": [
          121.0708978,
          14.6098058
        ]
      },
      "properties": {
        "osm_id": 11997822285,
        "osm_type": "nodes",
        "amenity": "restaurant",
        "tourism": null,
        "beds": null,
        "name": "Crepo Central",
        "opening_hours": null,
        "shop": null,
        "rooms": null
      }
    },
    {
      "type": "Feature",
      "geometry": {
        "type": "Point",
        "coordinates": [
          121.0502188,
          14.6193141
        ]
      },
      "properties": {
        "osm_id": 11979323621,
        "osm_type": "nodes",
        "amenity": "fast_food",
        "tourism": null,
        "beds": null,
        "name": "Dunkin'",
        "opening_hours": null,
        "shop": null,
        "rooms": null
      }
    },
    {
      "type": "Feature",
      "geometry": {
        "type": "Point",
        "coordinates": [
          121.061989,
          14.6147654
        ]
      },
      "properties": {
        "osm_id": 11971112182,
        "osm_type": "nodes",
        "amenity": "fast_food",
        "tourism": null,
        "beds": null,
        "name": "Murphy Fresh Okubs",
        "opening_hours": null,
        "shop": null,
        "rooms": null
      }
    },
    {
      "type": "Feature",
      "geometry": {
        "type": "Point",
        "coordinates": [
          121.070746,
          14.6256918
        ]
      },
      "properties": {
        "osm_id": 11969252006,
        "osm_type": "nodes",
        "amenity": "cafe",
        "tourism": null,
        "beds": null,
        "name": "CoffeeSpot",
        "opening_hours": null,
        "shop": null,
        "rooms": null
      }
    },
    {
      "type": "Feature",
      "geometry": {
        "type": "Point",
        "coordinates": [
          121.0723024,
          14.6199674
        ]
      },
      "properties": {
        "osm_id": 9267628689,
        "osm_type": "nodes",
        "amenity": "cafe",
        "tourism": null,
        "beds": null,
        "name": "GotBaked Cafe",
        "opening_hours": null,
        "shop": null,
        "rooms": null
      }
    },
    {
      "type": "Feature",
      "geometry": {
        "type": "Point",
        "coordinates": [
          121.0716471,
          14.6224451
        ]
      },
      "properties": {
        "osm_id": 11965921648,
        "osm_type": "nodes",
        "amenity": "restaurant",
        "tourism": null,
        "beds": null,
        "name": "Mapa Ramen",
        "opening_hours": null,
        "shop": null,
        "rooms": null
      }
    },
    {
      "type": "Feature",
      "geometry": {
        "type": "Point",
        "coordinates": [
          121.0640573,
          14.628881
        ]
      },
      "properties": {
        "osm_id": 11964280631,
        "osm_type": "nodes",
        "amenity": "fast_food",
        "tourism": null,
        "beds": null,
        "name": "Butchochoy's Hamburger",
        "opening_hours": null,
        "shop": null,
        "rooms": null
      }
    },
    {
      "type": "Feature",
      "geometry": {
        "type": "Point",
        "coordinates": [
          121.0567422,
          14.6206471
        ]
      },
      "properties": {
        "osm_id": 957182933,
        "osm_type": "nodes",
        "amenity": "fast_food",
        "tourism": null,
        "beds": null,
        "name": "KFC",
        "opening_hours": null,
        "shop": null,
        "rooms": null
      }
    },
    {
      "type": "Feature",
      "geometry": {
        "type": "Point",
        "coordinates": [
          121.0468814,
          14.6122774
        ]
      },
      "properties": {
        "osm_id": 11947292359,
        "osm_type": "nodes",
        "amenity": "restaurant",
        "tourism": null,
        "beds": null,
        "name": "Ramen Chan",
        "opening_hours": "Mo-Sa 11:00-21:00; Su off",
        "shop": null,
        "rooms": null
      }
    },
    {
      "type": "Feature",
      "geometry": {
        "type": "Point",
        "coordinates": [
          121.069909,
          14.6283638
        ]
      },
      "properties": {
        "osm_id": 11939197305,
        "osm_type": "nodes",
        "amenity": "restaurant",
        "tourism": null,
        "beds": null,
        "name": "Ferino's Bibingka",
        "opening_hours": null,
        "shop": null,
        "rooms": null
      }
    },
    {
      "type": "Feature",
      "geometry": {
        "type": "Point",
        "coordinates": [
          121.0699059,
          14.6283763
        ]
      },
      "properties": {
        "osm_id": 11939195914,
        "osm_type": "nodes",
        "amenity": "restaurant",
        "tourism": null,
        "beds": null,
        "name": "Pata Fiesta",
        "opening_hours": null,
        "shop": null,
        "rooms": null
      }
    },
    {
      "type": "Feature",
      "geometry": {
        "type": "Point",
        "coordinates": [
          121.0661633,
          14.6292085
        ]
      },
      "properties": {
        "osm_id": 11936874431,
        "osm_type": "nodes",
        "amenity": "restaurant",
        "tourism": null,
        "beds": null,
        "name": "Andry's Eatery",
        "opening_hours": null,
        "shop": null,
        "rooms": null
      }
    },
    {
      "type": "Feature",
      "geometry": {
        "type": "Point",
        "coordinates": [
          121.0658758,
          14.6148867
        ]
      },
      "properties": {
        "osm_id": 11930892340,
        "osm_type": "nodes",
        "amenity": "cafe",
        "tourism": null,
        "beds": null,
        "name": "Koppi Latea",
        "opening_hours": null,
        "shop": null,
        "rooms": null
      }
    },
    {
      "type": "Feature",
      "geometry": {
        "type": "Point",
        "coordinates": [
          121.0650205,
          14.6167896
        ]
      },
      "properties": {
        "osm_id": 11930961387,
        "osm_type": "nodes",
        "amenity": "restaurant",
        "tourism": null,
        "beds": null,
        "name": "Lutong Bicol",
        "opening_hours": null,
        "shop": null,
        "rooms": null
      }
    },
    {
      "type": "Feature",
      "geometry": {
        "type": "Point",
        "coordinates": [
          121.049858,
          14.6117448
        ]
      },
      "properties": {
        "osm_id": 10000733974,
        "osm_type": "nodes",
        "amenity": "cafe",
        "tourism": null,
        "beds": null,
        "name": "Bizu Le Petit Caf\u00e9 at MiraNila",
        "opening_hours": "Mo-Su 10:00-22:00",
        "shop": null,
        "rooms": null
      }
    },
    {
      "type": "Feature",
      "geometry": {
        "type": "Point",
        "coordinates": [
          121.0520984,
          14.6222276
        ]
      },
      "properties": {
        "osm_id": 957223940,
        "osm_type": "nodes",
        "amenity": "fast_food",
        "tourism": null,
        "beds": null,
        "name": "McDonald's",
        "opening_hours": null,
        "shop": null,
        "rooms": null
      }
    },
    {
      "type": "Feature",
      "geometry": {
        "type": "Point",
        "coordinates": [
          121.0560545,
          14.6200033
        ]
      },
      "properties": {
        "osm_id": 2207981826,
        "osm_type": "nodes",
        "amenity": "restaurant",
        "tourism": null,
        "beds": null,
        "name": "Gerry's Grill",
        "opening_hours": null,
        "shop": null,
        "rooms": null
      }
    },
    {
      "type": "Feature",
      "geometry": {
        "type": "Point",
        "coordinates": [
          121.0560332,
          14.6200943
        ]
      },
      "properties": {
        "osm_id": 2207981844,
        "osm_type": "nodes",
        "amenity": "restaurant",
        "tourism": null,
        "beds": null,
        "name": "Uncle Cheffy",
        "opening_hours": null,
        "shop": null,
        "rooms": null
      }
    },
    {
      "type": "Feature",
      "geometry": {
        "type": "Point",
        "coordinates": [
          121.051556,
          14.6210608
        ]
      },
      "properties": {
        "osm_id": 4721289992,
        "osm_type": "nodes",
        "amenity": "fast_food",
        "tourism": null,
        "beds": null,
        "name": "S&R New York Style Pizza",
        "opening_hours": null,
        "shop": null,
        "rooms": null
      }
    },
    {
      "type": "Feature",
      "geometry": {
        "type": "Point",
        "coordinates": [
          121.0515315,
          14.6205438
        ]
      },
      "properties": {
        "osm_id": 6845673317,
        "osm_type": "nodes",
        "amenity": "restaurant",
        "tourism": null,
        "beds": null,
        "name": "Tropical Hut",
        "opening_hours": null,
        "shop": null,
        "rooms": null
      }
    },
    {
      "type": "Feature",
      "geometry": {
        "type": "Point",
        "coordinates": [
          121.0703115,
          14.6129893
        ]
      },
      "properties": {
        "osm_id": 4395217392,
        "osm_type": "nodes",
        "amenity": "restaurant",
        "tourism": null,
        "beds": null,
        "name": "Primo's Burger",
        "opening_hours": "Mo-Su 12:00-21:00",
        "shop": null,
        "rooms": null
      }
    },
    {
      "type": "Feature",
      "geometry": {
        "type": "Point",
        "coordinates": [
          121.0016885,
          14.6334894
        ]
      },
      "properties": {
        "osm_id": 3638341019,
        "osm_type": "nodes",
        "amenity": "restaurant",
        "tourism": null,
        "beds": null,
        "name": "Ersao",
        "opening_hours": null,
        "shop": null,
        "rooms": null
      }
    },
    {
      "type": "Feature",
      "geometry": {
        "type": "Point",
        "coordinates": [
          121.0640905,
          14.647623
        ]
      },
      "properties": {
        "osm_id": 12074493470,
        "osm_type": "nodes",
        "amenity": "fast_food",
        "tourism": null,
        "beds": null,
        "name": "Minute Burger",
        "opening_hours": "24/7",
        "shop": null,
        "rooms": null
      }
    },
    {
      "type": "Feature",
      "geometry": {
        "type": "Point",
        "coordinates": [
          121.0305257,
          14.6778041
        ]
      },
      "properties": {
        "osm_id": 9514263778,
        "osm_type": "nodes",
        "amenity": "fast_food",
        "tourism": null,
        "beds": null,
        "name": "Babe's & Boy BBQ & Seafood Grill Stand",
        "opening_hours": null,
        "shop": null,
        "rooms": null
      }
    },
    {
      "type": "Feature",
      "geometry": {
        "type": "Point",
        "coordinates": [
          121.0198364,
          14.6795636
        ]
      },
      "properties": {
        "osm_id": 8594967348,
        "osm_type": "nodes",
        "amenity": "restaurant",
        "tourism": null,
        "beds": null,
        "name": "David's Tea House",
        "opening_hours": null,
        "shop": null,
        "rooms": null
      }
    },
    {
      "type": "Feature",
      "geometry": {
        "type": "Point",
        "coordinates": [
          121.0260594,
          14.6598953
        ]
      },
      "properties": {
        "osm_id": 11990469289,
        "osm_type": "nodes",
        "amenity": "fast_food",
        "tourism": null,
        "beds": null,
        "name": "Kuya Mike's Pansit Bato",
        "opening_hours": null,
        "shop": null,
        "rooms": null
      }
    },
    {
      "type": "Feature",
      "geometry": {
        "type": "Point",
        "coordinates": [
          121.0288618,
          14.6616974
        ]
      },
      "properties": {
        "osm_id": 11990106296,
        "osm_type": "nodes",
        "amenity": "fast_food",
        "tourism": null,
        "beds": null,
        "name": "Machoonok",
        "opening_hours": null,
        "shop": null,
        "rooms": null
      }
    },
    {
      "type": "Feature",
      "geometry": {
        "type": "Point",
        "coordinates": [
          121.0312258,
          14.6417085
        ]
      },
      "properties": {
        "osm_id": 7134466090,
        "osm_type": "nodes",
        "amenity": "cafe",
        "tourism": null,
        "beds": null,
        "name": "Stories by LilyPad",
        "opening_hours": "Tu-Su 7:00-22:00",
        "shop": null,
        "rooms": null
      }
    },
    {
      "type": "Feature",
      "geometry": {
        "type": "Point",
        "coordinates": [
          121.0188348,
          14.6049417
        ]
      },
      "properties": {
        "osm_id": 6192290578,
        "osm_type": "nodes",
        "amenity": "fast_food",
        "tourism": null,
        "beds": null,
        "name": "Greenwich",
        "opening_hours": null,
        "shop": null,
        "rooms": null
      }
    },
    {
      "type": "Feature",
      "geometry": {
        "type": "Point",
        "coordinates": [
          121.0996556,
          14.6901661
        ]
      },
      "properties": {
        "osm_id": 6293238664,
        "osm_type": "nodes",
        "amenity": "cafe",
        "tourism": null,
        "beds": null,
        "name": "corepointpc",
        "opening_hours": null,
        "shop": null,
        "rooms": null
      }
    },