{"type": "FeatureCollection","features": [{"type": "Feature", "geometry": {"type":"Point","coordinates":[121.0551693,14.5813751]}, "properties": {"osm_id": 4551155225, "osm_type": "nodes", "amenity": null, "tourism": null, "beds": null, "name": "Titania", "opening_hours": null, "shop": "wine", "rooms": null}},{"type": "Feature", "geometry": {"type":"Point","coordinates":[121.0529492,14.57785]}, "properties": {"osm_id": 4106727491, "osm_type": "nodes", "amenity": null, "tourism": null, "beds": null, "name": "Stage Craft International Incorporated", "opening_hours": "Mo-Fr 09:00-18:00", "shop": "electronics", "rooms": null}},{"type": "Feature", "geometry": {"type":"Point","coordinates":[121.0548995,14.5798175]}, "properties": {"osm_id": 2619880259, "osm_type": "nodes", "amenity": null, "tourism": null, "beds": null, "name": "Qick Serve", "opening_hours": null, "shop": "convenience", "rooms": null}},{"type": "Feature", "geometry": {"type":"Point","coordinates":[121.0280315,14.5734069]}, "properties": {"osm_id": 1913734223, "osm_type": "nodes", "amenity": null, "tourism": null, "beds": null, "name": "Eseng Store", "opening_hours": null, "shop": "convenience", "rooms": null}},{"type": "Feature", "geometry": {"type":"Point","coordinates":[121.0517942,14.5793525]}, "properties": {"osm_id": 1194861802, "osm_type": "nodes", "amenity": "restaurant", "tourism": null, "beds": null, "name": "Jepoy's Grill", "opening_hours": null, "shop": null, "rooms": null}},{"type": "Feature", "geometry": {"type":"Point","coordinates":[121.0531674,14.5800296]}, "properties": {"osm_id": 2052370908, "osm_type": "nodes", "amenity": "fast_food", "tourism": null, "beds": null, "name": "Dunkin'", "opening_hours": null, "shop": null, "rooms": null}},{"type": "Feature", "geometry": {"type":"Point","coordinates":[121.054357,14.5789647]}, "properties": {"osm_id": 12941777697, "osm_type": "nodes", "amenity": "marketplace", "tourism": null, "beds": null, "name": "Greenfield Weekend Market", "opening_hours": "Mo-Fr off; Sa-Su 16:00-24:00", "shop": null, "rooms": null}},{"type": "Feature", "geometry": {"type":"Point","coordinates":[121.0544251,14.5795319]}, "properties": {"osm_id": 2060854874, "osm_type": "nodes", "amenity": "restaurant", "tourism": null, "beds": null, "name": "North Park", "opening_hours": "07:00-02:00", "shop": null, "rooms": null}},{"type": "Feature", "geometry": {"type":"Point","coordinates":[121.0548143,14.5788234]}, "properties": {"osm_id": 12952912230, "osm_type": "nodes", "amenity": "restaurant", "tourism": null, "beds": null, "name": "Vintage", "opening_hours": null, "shop": null, "rooms": null}},{"type": "Feature", "geometry": {"type":"Point","coordinates":[121.0548614,14.5788695]}, "properties": {"osm_id": 12952912231, "osm_type": "nodes", "amenity": "restaurant", "tourism": null, "beds": null, "name": "Ryoma Ramen", "opening_hours": null, "shop": null, "rooms": null}},{"type": "Feature", "geometry": {"type":"Point","coordinates":[121.0328785,14.576957]}, "properties": {"osm_id": 1331939562, "osm_type": "nodes", "amenity": null, "tourism": null, "beds": null, "name": "Body Delight Touch", "opening_hours": null, "shop": "massage", "rooms": null}},{"type": "Feature", "geometry": {"type":"Point","coordinates":[121.0597587,14.5895096]}, "properties": {"osm_id": 1270321100, "osm_type": "nodes", "amenity": null, "tourism": null, "beds": null, "name": "Uncle John's", "opening_hours": "24/7", "shop": "convenience", "rooms": null}},{"type": "Feature", "geometry": {"type":"Point","coordinates":[121.0472858,14.5861317]}, "properties": {"osm_id": 3734680464, "osm_type": "nodes", "amenity": null, "tourism": null, "beds": null, "name": "Payless Nike Outlet", "opening_hours": null, "shop": "sports", "rooms": null}},{"type": "Feature", "geometry": {"type":"Point","coordinates":[121.0354127,14.5783451]}, "properties": {"osm_id": 5951716978, "osm_type": "nodes", "amenity": null, "tourism": null, "beds": null, "name": "Labandera Shoppe", "opening_hours": null, "shop": "laundry", "rooms": null}},{"type": "Feature", "geometry": {"type":"Point","coordinates":[121.0535075,14.5787972]}, "properties": {"osm_id": 2025925251, "osm_type": "nodes", "amenity": "fast_food", "tourism": null, "beds": null, "name": "Yellow Cab Pizza", "opening_hours": null, "shop": null, "rooms": null}},{"type": "Feature", "geometry": {"type":"Point","coordinates":[121.0543957,14.5774276]}, "properties": {"osm_id": 12225329901, "osm_type": "nodes", "amenity": "fast_food", "tourism": null, "beds": null, "name": "Tepuy", "opening_hours": "Mo-Fr 16:00-22:00; Sa-Su 16:00-00:00", "shop": null, "rooms": null}},{"type": "Feature", "geometry": {"type":"Point","coordinates":[121.0492293,14.5771123]}, "properties": {"osm_id": 6562780089, "osm_type": "nodes", "amenity": null, "tourism": null, "beds": null, "name": "Chin-Chin Store", "opening_hours": null, "shop": "convenience", "rooms": null}},{"type": "Feature", "geometry": {"type":"Point","coordinates":[121.0485072,14.575635]}, "properties": {"osm_id": 6561226722, "osm_type": "nodes", "amenity": "fast_food", "tourism": null, "beds": null, "name": "EMS Favored Canteen", "opening_hours": null, "shop": null, "rooms": null}},{"type": "Feature", "geometry": {"type":"Point","coordinates":[121.0503754,14.5771958]}, "properties": {"osm_id": 11687254845, "osm_type": "nodes", "amenity": "fast_food", "tourism": null, "beds": null, "name": "Chick 'n Juicy", "opening_hours": null, "shop": null, "rooms": null}},{"type": "Feature", "geometry": {"type":"Point","coordinates":[121.0530972,14.5708782]}, "properties": {"osm_id": 4187276690, "osm_type": "nodes", "amenity": null, "tourism": null, "beds": null, "name": "Sparta Philippines", "opening_hours": "24/7", "shop": "sports", "rooms": null}},{"type": "Feature", "geometry": {"type":"Point","coordinates":[121.0515946,14.5726536]}, "properties": {"osm_id": 11680202596, "osm_type": "nodes", "amenity": null, "tourism": null, "beds": null, "name": "Automatic Centre Outlet Store", "opening_hours": null, "shop": "appliance", "rooms": null}},{"type": "Feature", "geometry": {"type":"Point","coordinates":[121.0480468,14.572895]}, "properties": {"osm_id": 7353446085, "osm_type": "nodes", "amenity": null, "tourism": null, "beds": null, "name": "7-Eleven", "opening_hours": "24/7", "shop": "convenience", "rooms": null}},{"type": "Feature", "geometry": {"type":"Point","coordinates":[121.0533339,14.5708846]}, "properties": {"osm_id": 1194898320, "osm_type": "nodes", "amenity": null, "tourism": null, "beds": null, "name": "Regalong Pambahay Outlet Store", "opening_hours": null, "shop": "gift", "rooms": null}},{"type": "Feature", "geometry": {"type":"Point","coordinates":[121.045762,14.5742358]}, "properties": {"osm_id": 6560904165, "osm_type": "nodes", "amenity": null, "tourism": null, "beds": null, "name": "I&CS", "opening_hours": null, "shop": null, "rooms": null}},{"type": "Feature", "geometry": {"type":"Point","coordinates":[121.0507604,14.5786079]}, "properties": {"osm_id": 12737948090, "osm_type": "nodes", "amenity": null, "tourism": null, "beds": null, "name": "CM Minimart", "opening_hours": null, "shop": "convenience", "rooms": null}},{"type": "Feature", "geometry": {"type":"Point","coordinates":[121.0443918,14.5879967]}, "properties": {"osm_id": 6412810785, "osm_type": "nodes", "amenity": "fast_food", "tourism": null, "beds": null, "name": "Dunkin'", "opening_hours": null, "shop": null, "rooms": null}},{"type": "Feature", "geometry": {"type":"Point","coordinates":[121.0399761,14.5763344]}, "properties": {"osm_id": 5586282639, "osm_type": "nodes", "amenity": null, "tourism": null, "beds": null, "name": "Imavision Acrylic", "opening_hours": null, "shop": "printing", "rooms": null}},{"type": "Feature", "geometry": {"type":"Point","coordinates":[121.048243,14.5791044]}, "properties": {"osm_id": 2699361340, "osm_type": "nodes", "amenity": "fast_food", "tourism": null, "beds": null, "name": "Tapa King", "opening_hours": null, "shop": null, "rooms": null}},{"type": "Feature", "geometry": {"type":"Point","coordinates":[121.0460084,14.5873634]}, "properties": {"osm_id": 6536470712, "osm_type": "nodes", "amenity": null, "tourism": null, "beds": null, "name": "/nook/", "opening_hours": null, "shop": "hairdresser", "rooms": null}},{"type": "Feature", "geometry": {"type":"Point","coordinates":[121.0494282,14.5840841]}, "properties": {"osm_id": 7003951462, "osm_type": "nodes", "amenity": null, "tourism": null, "beds": null, "name": "7-Eleven", "opening_hours": "24/7", "shop": "convenience", "rooms": null}},{"type": "Feature", "geometry": {"type":"Point","coordinates":[121.0440679,14.5886991]}, "properties": {"osm_id": 11539224353, "osm_type": "nodes", "amenity": null, "tourism": null, "beds": null, "name": "Phoenix Super LPG", "opening_hours": null, "shop": "gas", "rooms": null}},{"type": "Feature", "geometry": {"type":"Point","coordinates":[121.0479098,14.5739544]}, "properties": {"osm_id": 347279285, "osm_type": "nodes", "amenity": "restaurant", "tourism": null, "beds": null, "name": "Pizza Hut", "opening_hours": "09:00-24:00", "shop": null, "rooms": null}},{"type": "Feature", "geometry": {"type":"Point","coordinates":[121.0409696,14.5715328]}, "properties": {"osm_id": 10148578454, "osm_type": "nodes", "amenity": null, "tourism": null, "beds": null, "name": "Sangguniang Pambarangay ng Barangka Itaas", "opening_hours": "Mo-Fr 08:00-17:00", "shop": null, "rooms": null}},{"type": "Feature", "geometry": {"type":"Point","coordinates":[121.043571,14.58859]}, "properties": {"osm_id": 255072305, "osm_type": "nodes", "amenity": null, "tourism": null, "beds": null, "name": "Neo Service Center", "opening_hours": null, "shop": "repair", "rooms": null}},{"type": "Feature", "geometry": {"type":"Point","coordinates":[121.0481914,14.572967]}, "properties": {"osm_id": 11003012081, "osm_type": "nodes", "amenity": null, "tourism": null, "beds": null, "name": "Neat and Tidy Repair and Maintenance", "opening_hours": "08:00-21:00", "shop": "repair", "rooms": null}},{"type": "Feature", "geometry": {"type":"Point","coordinates":[121.0261234,14.5855745]}, "properties": {"osm_id": 3725593326, "osm_type": "nodes", "amenity": null, "tourism": null, "beds": null, "name": "Infinitea;Southstar Drug", "opening_hours": null, "shop": "chemist", "rooms": null}},{"type": "Feature", "geometry": {"type":"Point","coordinates":[121.0413199,14.58945]}, "properties": {"osm_id": 255063749, "osm_type": "nodes", "amenity": null, "tourism": null, "beds": null, "name": "Honda Cars Shaw Blvd", "opening_hours": null, "shop": "car", "rooms": null}},{"type": "Feature", "geometry": {"type":"Point","coordinates":[121.0406939,14.576448]}, "properties": {"osm_id": 5204003324, "osm_type": "nodes", "amenity": null, "tourism": null, "beds": null, "name": "Trigon Management & Industrial Corporation", "opening_hours": null, "shop": null, "rooms": null}},{"type": "Feature", "geometry": {"type":"Point","coordinates":[121.0407201,14.576184]}, "properties": {"osm_id": 9537579153, "osm_type": "nodes", "amenity": "restaurant", "tourism": null, "beds": null, "name": "Samgyupsalan", "opening_hours": null, "shop": null, "rooms": null}},{"type": "Feature", "geometry": {"type":"Point","coordinates":[121.0299829,14.5734737]}, "properties": {"osm_id": 9128357659, "osm_type": "nodes", "amenity": null, "tourism": null, "beds": null, "name": "EM Marketing", "opening_hours": null, "shop": "gas", "rooms": null}},{"type": "Feature", "geometry": {"type":"Point","coordinates":[121.0471613,14.5793299]}, "properties": {"osm_id": 11563319578, "osm_type": "nodes", "amenity": "fast_food", "tourism": null, "beds": null, "name": "Popeyes", "opening_hours": null, "shop": null, "rooms": null}},{"type": "Feature", "geometry": {"type":"Point","coordinates":[121.0451142,14.5792471]}, "properties": {"osm_id": 6555802204, "osm_type": "nodes", "amenity": "fast_food", "tourism": null, "beds": null, "name": "Wow Tuna", "opening_hours": null, "shop": null, "rooms": null}},{"type": "Feature", "geometry": {"type":"Point","coordinates":[121.0465801,14.5845843]}, "properties": {"osm_id": 4992690321, "osm_type": "nodes", "amenity": null, "tourism": null, "beds": null, "name": "AIM INC. Office", "opening_hours": "Mo-Th 08:30-18:30; Fr 08:30-18:00; Sa 08:30-12:00", "shop": null, "rooms": null}},{"type": "Feature", "geometry": {"type":"Point","coordinates":[121.0452378,14.5875734]}, "properties": {"osm_id": 3502212749, "osm_type": "nodes", "amenity": "restaurant", "tourism": null, "beds": null, "name": "Luk Foo Cantonese Kitchen", "opening_hours": "10:30-22:30", "shop": null, "rooms": null}},{"type": "Feature", "geometry": {"type":"Point","coordinates":[121.0368504,14.5750496]}, "properties": {"osm_id": 7409657385, "osm_type": "nodes", "amenity": null, "tourism": null, "beds": null, "name": "Qwynn", "opening_hours": null, "shop": "water", "rooms": null}},{"type": "Feature", "geometry": {"type":"Point","coordinates":[121.0349522,14.5777526]}, "properties": {"osm_id": 10595291321, "osm_type": "nodes", "amenity": "fast_food", "tourism": null, "beds": null, "name": "Dunkin'", "opening_hours": "24/7", "shop": null, "rooms": null}},{"type": "Feature", "geometry": {"type":"Point","coordinates":[121.0349177,14.5779569]}, "properties": {"osm_id": 10595277438, "osm_type": "nodes", "amenity": "fast_food", "tourism": null, "beds": null, "name": "Mr Sisig", "opening_hours": null, "shop": null, "rooms": null}},{"type": "Feature", "geometry": {"type":"Point","coordinates":[121.0394695,14.5764761]}, "properties": {"osm_id": 9537628781, "osm_type": "nodes", "amenity": null, "tourism": null, "beds": null, "name": "Dav Muffler", "opening_hours": null, "shop": "car_parts", "rooms": null}},{"type": "Feature", "geometry": {"type":"Point","coordinates":[121.0390528,14.5765864]}, "properties": {"osm_id": 9537628788, "osm_type": "nodes", "amenity": null, "tourism": null, "beds": null, "name": "Red Cross", "opening_hours": null, "shop": null, "rooms": null}},{"type": "Feature", "geometry": {"type":"Point","coordinates":[121.0376577,14.587946]}, "properties": {"osm_id": 9537386311, "osm_type": "nodes", "amenity": null, "tourism": null, "beds": null, "name": "Vidal Store", "opening_hours": null, "shop": "convenience", "rooms": null}},{"type": "Feature", "geometry": {"type":"Point","coordinates":[121.03387,14.5681191]}, "properties": {"osm_id": 8629628644, "osm_type": "nodes", "amenity": "fast_food", "tourism": null, "beds": null, "name": null, "opening_hours": null, "shop": null, "rooms": null}},{"type": "Feature", "geometry": {"type":"Point","coordinates":[121.0339018,14.5682252]}, "properties": {"osm_id": 8629646088, "osm_type": "nodes", "amenity": null, "tourism": null, "beds": null, "name": null, "opening_hours": null, "shop": "laundry", "rooms": null}},{"type": "Feature", "geometry": {"type":"Point","coordinates":[121.0277813,14.5843319]}, "properties": {"osm_id": 5215982511, "osm_type": "nodes", "amenity": "bar", "tourism": null, "beds": null, "name": "Foxhole Bar and Grill", "opening_hours": "Mo-Sa 17:00-02:00", "shop": null, "rooms": null}},{"type": "Feature", "geometry": {"type":"Point","coordinates":[121.0352665,14.5780024]}, "properties": {"osm_id": 5948634405, "osm_type": "nodes", "amenity": null, "tourism": null, "beds": null, "name": "Marketing Advertising, Inc.", "opening_hours": null, "shop": null, "rooms": null}},{"type": "Feature", "geometry": {"type":"Point","coordinates":[121.0279059,14.5750192]}, "properties": {"osm_id": 1830532393, "osm_type": "nodes", "amenity": null, "tourism": null, "beds": null, "name": "Chinoy", "opening_hours": null, "shop": "beverages", "rooms": null}},{"type": "Feature", "geometry": {"type":"Point","coordinates":[121.0298703,14.5718519]}, "properties": {"osm_id": 1913734237, "osm_type": "nodes", "amenity": null, "tourism": null, "beds": null, "name": "Santa Maria", "opening_hours": null, "shop": "optician", "rooms": null}},{"type": "Feature", "geometry": {"type":"Point","coordinates":[121.0461416,14.5703763]}, "properties": {"osm_id": 11143379792, "osm_type": "nodes", "amenity": "restaurant", "tourism": null, "beds": null, "name": "Amber Golden Chain of Restaurants", "opening_hours": null, "shop": null, "rooms": null}},{"type": "Feature", "geometry": {"type":"Point","coordinates":[121.0438712,14.5881959]}, "properties": {"osm_id": 12941614940, "osm_type": "nodes", "amenity": null, "tourism": null, "beds": null, "name": "Hyundai", "opening_hours": null, "shop": "car", "rooms": null}},{"type": "Feature", "geometry": {"type":"Point","coordinates":[121.0453577,14.5880536]}, "properties": {"osm_id": 255050424, "osm_type": "nodes", "amenity": "cafe", "tourism": null, "beds": null, "name": "Starbucks", "opening_hours": null, "shop": null, "rooms": null}},{"type": "Feature", "geometry": {"type":"Point","coordinates":[121.0420646,14.5893688]}, "properties": {"osm_id": 8577372793, "osm_type": "nodes", "amenity": null, "tourism": null, "beds": null, "name": "Helix Oilchange+", "opening_hours": null, "shop": "car_repair", "rooms": null}},{"type": "Feature", "geometry": {"type":"Point","coordinates":[121.027031,14.593976]}, "properties": {"osm_id": 5539306721, "osm_type": "nodes", "amenity": null, "tourism": null, "beds": null, "name": "Ladies & Gentlemen Salon & Barbershop", "opening_hours": null, "shop": "hairdresser", "rooms": null}},{"type": "Feature", "geometry": {"type":"Point","coordinates":[121.0415272,14.5919665]}, "properties": {"osm_id": 4198567051, "osm_type": "nodes", "amenity": "fast_food", "tourism": null, "beds": null, "name": "Suzhou Dimsum", "opening_hours": "Mo-Su 10:00-15:00;17:00-21:00", "shop": null, "rooms": null}},{"type": "Feature", "geometry": {"type":"Point","coordinates":[121.0271442,14.5945224]}, "properties": {"osm_id": 5541818422, "osm_type": "nodes", "amenity": null, "tourism": "apartment", "beds": null, "name": "Joyce Apartelle", "opening_hours": null, "shop": null, "rooms": null}},{"type": "Feature", "geometry": {"type":"Point","coordinates":[121.0275793,14.5939897]}, "properties": {"osm_id": 6522507084, "osm_type": "nodes", "amenity": null, "tourism": null, "beds": null, "name": null, "opening_hours": null, "shop": "car_repair", "rooms": null}},{"type": "Feature", "geometry": {"type":"Point","coordinates":[121.0267257,14.5930306]}, "properties": {"osm_id": 8578218947, "osm_type": "nodes", "amenity": null, "tourism": null, "beds": null, "name": "Symmetry Hardware & Construction Supply", "opening_hours": null, "shop": "hardware", "rooms": null}},{"type": "Feature", "geometry": {"type":"Point","coordinates":[121.0307839,14.5910099]}, "properties": {"osm_id": 6252886887, "osm_type": "nodes", "amenity": null, "tourism": "artwork", "beds": null, "name": null, "opening_hours": null, "shop": null, "rooms": null}},{"type": "Feature", "geometry": {"type":"Point","coordinates":[121.0273446,14.5934702]}, "properties": {"osm_id": 2126363185, "osm_type": "nodes", "amenity": "fast_food", "tourism": null, "beds": null, "name": "Chowking", "opening_hours": null, "shop": null, "rooms": null}},{"type": "Feature", "geometry": {"type":"Point","coordinates":[121.0446411,14.5879527]}, "properties": {"osm_id": 255062522, "osm_type": "nodes", "amenity": null, "tourism": null, "beds": null, "name": "Proline Sports Center", "opening_hours": null, "shop": "sports", "rooms": null}},{"type": "Feature", "geometry": {"type":"Point","coordinates":[121.0412592,14.5888019]}, "properties": {"osm_id": 9968909587, "osm_type": "nodes", "amenity": "marketplace", "tourism": null, "beds": null, "name": "Good Food Sundays", "opening_hours": "Mo-Sa off;Su 11:00-17:00", "shop": null, "rooms": null}},{"type": "Feature", "geometry": {"type":"Point","coordinates":[121.0332578,14.5912223]}, "properties": {"osm_id": 12500327706, "osm_type": "nodes", "amenity": "fast_food", "tourism": null, "beds": null, "name": "24 Chicken", "opening_hours": null, "shop": null, "rooms": null}},{"type": "Feature", "geometry": {"type":"Point","coordinates":[121.0455069,14.5882024]}, "properties": {"osm_id": 3483211197, "osm_type": "nodes", "amenity": "restaurant", "tourism": null, "beds": null, "name": "Conti's", "opening_hours": null, "shop": null, "rooms": null}},{"type": "Feature", "geometry": {"type":"Point","coordinates":[121.041714,14.5927298]}, "properties": {"osm_id": 12735712543, "osm_type": "nodes", "amenity": "restaurant", "tourism": null, "beds": null, "name": "The Giving Café", "opening_hours": "Tu-Su 07:00-22:00, Mo 07:00-20:00", "shop": null, "rooms": null}},{"type": "Feature", "geometry": {"type":"Point","coordinates":[121.0307538,14.5797275]}, "properties": {"osm_id": 4465916397, "osm_type": "nodes", "amenity": "fast_food", "tourism": null, "beds": null, "name": "Tapsihan sa San Joaquin", "opening_hours": "24/7", "shop": null, "rooms": null}},{"type": "Feature", "geometry": {"type":"Point","coordinates":[121.0301613,14.5919852]}, "properties": {"osm_id": 919486530, "osm_type": "nodes", "amenity": "fast_food", "tourism": null, "beds": null, "name": "Max's Restaurant", "opening_hours": null, "shop": null, "rooms": null}},{"type": "Feature", "geometry": {"type":"Point","coordinates":[121.02882,14.5929956]}, "properties": {"osm_id": 11091106028, "osm_type": "nodes", "amenity": "fast_food", "tourism": null, "beds": null, "name": "Kumo Kuro", "opening_hours": null, "shop": null, "rooms": null}},{"type": "Feature", "geometry": {"type":"Point","coordinates":[121.0599171,14.5894597]}, "properties": {"osm_id": 12836762741, "osm_type": "nodes", "amenity": null, "tourism": null, "beds": null, "name": "O´NLSO SLIM", "opening_hours": "Mo-Su 10:00-21:00", "shop": "beauty", "rooms": null}},{"type": "Feature", "geometry": {"type":"Point","coordinates":[121.0577756,14.5931568]}, "properties": {"osm_id": 12811339070, "osm_type": "nodes", "amenity": null, "tourism": null, "beds": null, "name": "Department of Migrant Workers", "opening_hours": null, "shop": null, "rooms": null}},{"type": "Feature", "geometry": {"type":"Point","coordinates":[121.0537834,14.5784665]}, "properties": {"osm_id": 12690117153, "osm_type": "nodes", "amenity": null, "tourism": null, "beds": null, "name": "Boulangerie22", "opening_hours": "07:00-21:00", "shop": "bakery", "rooms": null}},{"type": "Feature", "geometry": {"type":"Point","coordinates":[121.0568884,14.5848679]}, "properties": {"osm_id": 12337178711, "osm_type": "nodes", "amenity": null, "tourism": null, "beds": null, "name": "MAC Cosmetics", "opening_hours": null, "shop": "cosmetics", "rooms": null}},{"type": "Feature", "geometry": {"type":"Point","coordinates":[121.0568864,14.5850401]}, "properties": {"osm_id": 12337178713, "osm_type": "nodes", "amenity": null, "tourism": null, "beds": null, "name": "Shiseido", "opening_hours": null, "shop": "cosmetics", "rooms": null}},{"type": "Feature", "geometry": {"type":"Point","coordinates":[121.057215,14.5852499]}, "properties": {"osm_id": 12337178734, "osm_type": "nodes", "amenity": null, "tourism": null, "beds": null, "name": "Gap Kids", "opening_hours": null, "shop": "clothes", "rooms": null}},{"type": "Feature", "geometry": {"type":"Point","coordinates":[121.0572043,14.5831837]}, "properties": {"osm_id": 12337178745, "osm_type": "nodes", "amenity": null, "tourism": null, "beds": null, "name": "Dune London", "opening_hours": null, "shop": "shoes", "rooms": null}},{"type": "Feature", "geometry": {"type":"Point","coordinates":[121.0572063,14.5857954]}, "properties": {"osm_id": 12337178772, "osm_type": "nodes", "amenity": "cafe", "tourism": null, "beds": null, "name": "Conti's Bakeshop and Restaurant", "opening_hours": null, "shop": null, "rooms": null}},{"type": "Feature", "geometry": {"type":"Point","coordinates":[121.0568744,14.5859989]}, "properties": {"osm_id": 12337178776, "osm_type": "nodes", "amenity": "fast_food", "tourism": null, "beds": null, "name": "Mister Donut", "opening_hours": null, "shop": null, "rooms": null}},{"type": "Feature", "geometry": {"type":"Point","coordinates":[121.0568354,14.5841633]}, "properties": {"osm_id": 12337178784, "osm_type": "nodes", "amenity": "fast_food", "tourism": null, "beds": null, "name": "Zark's Burgers", "opening_hours": null, "shop": null, "rooms": null}},{"type": "Feature", "geometry": {"type":"Point","coordinates":[121.0568389,14.5841008]}, "properties": {"osm_id": 12337178785, "osm_type": "nodes", "amenity": "restaurant", "tourism": null, "beds": null, "name": "Masuki", "opening_hours": null, "shop": null, "rooms": null}},{"type": "Feature", "geometry": {"type":"Point","coordinates":[121.0568389,14.5840383]}, "properties": {"osm_id": 12337178787, "osm_type": "nodes", "amenity": "restaurant", "tourism": null, "beds": null, "name": "Bacolod Chicken Inasal", "opening_hours": null, "shop": null, "rooms": null}},{"type": "Feature", "geometry": {"type":"Point","coordinates":[121.0572168,14.5828959]}, "properties": {"osm_id": 12337178793, "osm_type": "nodes", "amenity": null, "tourism": null, "beds": null, "name": "Surplus", "opening_hours": null, "shop": "clothes", "rooms": null}},{"type": "Feature", "geometry": {"type":"Point","coordinates":[121.0570666,14.5826837]}, "properties": {"osm_id": 12337178796, "osm_type": "nodes", "amenity": null, "tourism": null, "beds": null, "name": "SM Supermarket", "opening_hours": null, "shop": "supermarket", "rooms": null}},{"type": "Feature", "geometry": {"type":"Point","coordinates":[121.057361,14.5859146]}, "properties": {"osm_id": 12337182406, "osm_type": "nodes", "amenity": "fast_food", "tourism": null, "beds": null, "name": "Krispy Kreme", "opening_hours": null, "shop": "bakery", "rooms": null}},{"type": "Feature", "geometry": {"type":"Point","coordinates":[121.0572944,14.5864414]}, "properties": {"osm_id": 12337182421, "osm_type": "nodes", "amenity": "fast_food", "tourism": null, "beds": null, "name": "Auntie Anne's", "opening_hours": null, "shop": null, "rooms": null}},{"type": "Feature", "geometry": {"type":"Point","coordinates":[121.0572836,14.5840711]}, "properties": {"osm_id": 12337182448, "osm_type": "nodes", "amenity": "fast_food", "tourism": null, "beds": null, "name": "John Lemon", "opening_hours": null, "shop": null, "rooms": null}},{"type": "Feature", "geometry": {"type":"Point","coordinates":[121.0572116,14.5838246]}, "properties": {"osm_id": 12337182451, "osm_type": "nodes", "amenity": null, "tourism": null, "beds": null, "name": "Onesimus", "opening_hours": null, "shop": "clothes", "rooms": null}},{"type": "Feature", "geometry": {"type":"Point","coordinates":[121.0572119,14.5838086]}, "properties": {"osm_id": 12337182463, "osm_type": "nodes", "amenity": null, "tourism": null, "beds": null, "name": "The Body Shop", "opening_hours": null, "shop": "cosmetics", "rooms": null}},{"type": "Feature", "geometry": {"type":"Point","coordinates":[121.0568337,14.5842934]}, "properties": {"osm_id": 12292910492, "osm_type": "nodes", "amenity": "cafe", "tourism": null, "beds": null, "name": "The Coffee Bean & Tea Leaf", "opening_hours": null, "shop": null, "rooms": null}},{"type": "Feature", "geometry": {"type":"Point","coordinates":[121.055331,14.5800961]}, "properties": {"osm_id": 746487788, "osm_type": "nodes", "amenity": null, "tourism": null, "beds": null, "name": "F&T Raymundo Pawnshop", "opening_hours": null, "shop": "pawnbroker", "rooms": null}},{"type": "Feature", "geometry": {"type":"Point","coordinates":[121.0549764,14.5804991]}, "properties": {"osm_id": 746487766, "osm_type": "nodes", "amenity": null, "tourism": null, "beds": null, "name": null, "opening_hours": null, "shop": "vacant", "rooms": null}},{"type": "Feature", "geometry": {"type":"Point","coordinates":[121.0512471,14.5786831]}, "properties": {"osm_id": 1664000114, "osm_type": "nodes", "amenity": "fast_food", "tourism": null, "beds": null, "name": "Andok's", "opening_hours": null, "shop": null, "rooms": null}},{"type": "Feature", "geometry": {"type":"Point","coordinates":[121.0517567,14.5794509]}, "properties": {"osm_id": 6549818992, "osm_type": "nodes", "amenity": null, "tourism": null, "beds": null, "name": "Eri Barbershop", "opening_hours": null, "shop": "hairdresser", "rooms": null}},{"type": "Feature", "geometry": {"type":"Point","coordinates":[121.0577505,14.5924113]}, "properties": {"osm_id": 4242562883, "osm_type": "nodes", "amenity": null, "tourism": null, "beds": null, "name": "7-Eleven", "opening_hours": "24/7", "shop": "convenience", "rooms": null}},{"type": "Feature", "geometry": {"type":"Point","coordinates":[121.0557369,14.5808776]}, "properties": {"osm_id": 10682114618, "osm_type": "nodes", "amenity": "cafe", "tourism": null, "beds": null, "name": "Wobbly Pan Spanish bistro", "opening_hours": null, "shop": null, "rooms": null}},{"type": "Feature", "geometry": {"type":"Point","coordinates":[121.0479577,14.5788196]}, "properties": {"osm_id": 11563319569, "osm_type": "nodes", "amenity": null, "tourism": null, "beds": null, "name": "Pink Dough Bakery", "opening_hours": null, "shop": "bakery", "rooms": null}},{"type": "Feature", "geometry": {"type":"Point","coordinates":[121.0481388,14.5856086]}, "properties": {"osm_id": 7039917385, "osm_type": "nodes", "amenity": null, "tourism": null, "beds": null, "name": "The SHIP Foundation", "opening_hours": "Mo-Fr 8:00-17:00", "shop": null, "rooms": null}},{"type": "Feature", "geometry": {"type":"Point","coordinates":[121.0536719,14.5823218]}, "properties": {"osm_id": 2210574799, "osm_type": "nodes", "amenity": "restaurant", "tourism": null, "beds": null, "name": "Max's Restaurant", "opening_hours": null, "shop": null, "rooms": null}},{"type": "Feature", "geometry": {"type":"Point","coordinates":[121.0559541,14.5836471]}, "properties": {"osm_id": 10277184317, "osm_type": "nodes", "amenity": "restaurant", "tourism": null, "beds": null, "name": "Nara", "opening_hours": null, "shop": null, "rooms": null}},{"type": "Feature", "geometry": {"type":"Point","coordinates":[121.0531194,14.5823088]}, "properties": {"osm_id": 2210577705, "osm_type": "nodes", "amenity": "fast_food", "tourism": null, "beds": null, "name": "McDonald's", "opening_hours": null, "shop": null, "rooms": null}},{"type": "Feature", "geometry": {"type":"Point","coordinates":[121.0530643,14.5806937]}, "properties": {"osm_id": 7475236634, "osm_type": "nodes", "amenity": null, "tourism": null, "beds": null, "name": null, "opening_hours": null, "shop": "ticket", "rooms": null}},{"type": "Feature", "geometry": {"type":"Point","coordinates":[121.0535539,14.5823763]}, "properties": {"osm_id": 2210578919, "osm_type": "nodes", "amenity": "fast_food", "tourism": null, "beds": null, "name": "Greenwich", "opening_hours": null, "shop": null, "rooms": null}},{"type": "Feature", "geometry": {"type":"Point","coordinates":[121.0555923,14.5810168]}, "properties": {"osm_id": 4551155222, "osm_type": "nodes", "amenity": "restaurant", "tourism": null, "beds": null, "name": "Sages", "opening_hours": null, "shop": null, "rooms": null}},{"type": "Feature", "geometry": {"type":"Point","coordinates":[121.0600199,14.5813909]}, "properties": {"osm_id": 255065350, "osm_type": "nodes", "amenity": "restaurant", "tourism": null, "beds": null, "name": "Buds", "opening_hours": null, "shop": null, "rooms": null}},{"type": "Feature", "geometry": {"type":"Point","coordinates":[121.0534185,14.5795033]}, "properties": {"osm_id": 2282145468, "osm_type": "nodes", "amenity": null, "tourism": null, "beds": null, "name": "Grab Driver Center", "opening_hours": null, "shop": null, "rooms": null}},{"type": "Feature", "geometry": {"type":"Point","coordinates":[121.053742,14.5790496]}, "properties": {"osm_id": 12924971709, "osm_type": "nodes", "amenity": "cafe", "tourism": null, "beds": null, "name": "Coffee Blanc", "opening_hours": "Mo-Fr 08:00-24:00; Sa-Su 08:00-02:30", "shop": null, "rooms": null}},{"type": "Feature", "geometry": {"type":"Point","coordinates":[121.0491436,14.5849203]}, "properties": {"osm_id": 7246750869, "osm_type": "nodes", "amenity": null, "tourism": null, "beds": null, "name": "Perron Gasul Elite", "opening_hours": null, "shop": "gas", "rooms": null}},{"type": "Feature", "geometry": {"type":"Point","coordinates":[121.0528226,14.5815603]}, "properties": {"osm_id": 11725818607, "osm_type": "nodes", "amenity": "fast_food", "tourism": null, "beds": null, "name": "Aling Banang", "opening_hours": null, "shop": null, "rooms": null}},{"type": "Feature", "geometry": {"type":"Point","coordinates":[121.0540786,14.5787388]}, "properties": {"osm_id": 2062630221, "osm_type": "nodes", "amenity": "cafe", "tourism": null, "beds": null, "name": "Starbucks", "opening_hours": "Mo-Th 08:00-24:00, Fr-Su 08:00-01:00", "shop": null, "rooms": null}},{"type": "Feature", "geometry": {"type":"Point","coordinates":[121.0544748,14.5784867]}, "properties": {"osm_id": 12952926301, "osm_type": "nodes", "amenity": "pub", "tourism": null, "beds": null, "name": "The Beer Factory", "opening_hours": null, "shop": null, "rooms": null}},{"type": "Feature", "geometry": {"type":"Point","coordinates":[121.0379538,14.5867251]}, "properties": {"osm_id": 12198605109, "osm_type": "nodes", "amenity": null, "tourism": null, "beds": null, "name": "Utol's Barbershop", "opening_hours": null, "shop": "hairdresser", "rooms": null}},{"type": "Feature", "geometry": {"type":"Point","coordinates":[121.0365402,14.5818135]}, "properties": {"osm_id": 7345389685, "osm_type": "nodes", "amenity": null, "tourism": null, "beds": null, "name": "RM Water Refilling Station", "opening_hours": null, "shop": "water", "rooms": null}},{"type": "Feature", "geometry": {"type":"Point","coordinates":[121.0258471,14.586435]}, "properties": {"osm_id": 6866523886, "osm_type": "nodes", "amenity": "fast_food", "tourism": null, "beds": null, "name": "Tanveer Halal Kitchenette", "opening_hours": "Mo-Su 04:00-21:00", "shop": null, "rooms": null}},{"type": "Feature", "geometry": {"type":"Point","coordinates":[121.036989,14.5890639]}, "properties": {"osm_id": 11740617545, "osm_type": "nodes", "amenity": null, "tourism": null, "beds": null, "name": "LTO Driver's License Renewal Office", "opening_hours": null, "shop": null, "rooms": null}},{"type": "Feature", "geometry": {"type":"Point","coordinates":[121.0358046,14.5790029]}, "properties": {"osm_id": 1278924689, "osm_type": "nodes", "amenity": null, "tourism": null, "beds": null, "name": "Palawan Pawnshop", "opening_hours": null, "shop": "pawnbroker", "rooms": null}},{"type": "Feature", "geometry": {"type":"Point","coordinates":[121.038166,14.5895905]}, "properties": {"osm_id": 11645326035, "osm_type": "nodes", "amenity": "fast_food", "tourism": null, "beds": null, "name": "Big Guys! Pizza", "opening_hours": "09:00-23:00", "shop": null, "rooms": null}},{"type": "Feature", "geometry": {"type":"Point","coordinates":[121.0295963,14.591433]}, "properties": {"osm_id": 6010820788, "osm_type": "nodes", "amenity": "cafe", "tourism": null, "beds": null, "name": "BEAUTéDERM", "opening_hours": null, "shop": null, "rooms": null}},{"type": "Feature", "geometry": {"type":"Point","coordinates":[121.0328317,14.5908274]}, "properties": {"osm_id": 11091112727, "osm_type": "nodes", "amenity": null, "tourism": null, "beds": null, "name": "Nexen Trading", "opening_hours": null, "shop": "gas", "rooms": null}},{"type": "Feature", "geometry": {"type":"Point","coordinates":[121.0349913,14.5775988]}, "properties": {"osm_id": 11056608207, "osm_type": "nodes", "amenity": "fast_food", "tourism": null, "beds": null, "name": "Pancit Malabon", "opening_hours": null, "shop": null, "rooms": null}},{"type": "Feature", "geometry": {"type":"Point","coordinates":[121.0350774,14.5781179]}, "properties": {"osm_id": 5951716976, "osm_type": "nodes", "amenity": null, "tourism": null, "beds": null, "name": "Tambunting", "opening_hours": null, "shop": "pawnbroker", "rooms": null}},{"type": "Feature", "geometry": {"type":"Point","coordinates":[121.0306107,14.5724685]}, "properties": {"osm_id": 10930796612, "osm_type": "nodes", "amenity": null, "tourism": null, "beds": null, "name": null, "opening_hours": null, "shop": "convenience", "rooms": null}},{"type": "Feature", "geometry": {"type":"Point","coordinates":[121.0351461,14.5765135]}, "properties": {"osm_id": 1278959883, "osm_type": "nodes", "amenity": "fast_food", "tourism": null, "beds": null, "name": "Chowking", "opening_hours": "24/7", "shop": null, "rooms": null}},{"type": "Feature", "geometry": {"type":"Point","coordinates":[121.0332749,14.5911333]}, "properties": {"osm_id": 10137300010, "osm_type": "nodes", "amenity": null, "tourism": null, "beds": null, "name": "Great Cakes", "opening_hours": null, "shop": "pastry", "rooms": null}},{"type": "Feature", "geometry": {"type":"Point","coordinates":[121.0219929,14.5884434]}, "properties": {"osm_id": 11649729642, "osm_type": "nodes", "amenity": null, "tourism": null, "beds": null, "name": "Motorstar", "opening_hours": null, "shop": "motorcycle", "rooms": null}},{"type": "Feature", "geometry": {"type":"Point","coordinates":[121.0209234,14.5871096]}, "properties": {"osm_id": 6523052928, "osm_type": "nodes", "amenity": null, "tourism": null, "beds": null, "name": "Tita Rae", "opening_hours": null, "shop": "beauty", "rooms": null}},{"type": "Feature", "geometry": {"type":"Point","coordinates":[121.0534685,14.5732141]}, "properties": {"osm_id": 10877164219, "osm_type": "nodes", "amenity": "restaurant", "tourism": null, "beds": null, "name": "Empanada Ilocano food house", "opening_hours": null, "shop": null, "rooms": null}},{"type": "Feature", "geometry": {"type":"Point","coordinates":[121.056291,14.5833096]}, "properties": {"osm_id": 12337182475, "osm_type": "nodes", "amenity": "restaurant", "tourism": null, "beds": null, "name": "Din Tai Fung", "opening_hours": null, "shop": null, "rooms": null}},{"type": "Feature", "geometry": {"type":"Point","coordinates":[121.0575698,14.5859117]}, "properties": {"osm_id": 12337182407, "osm_type": "nodes", "amenity": "ice_cream", "tourism": null, "beds": null, "name": "Cold Stone Creamery", "opening_hours": null, "shop": "religion", "rooms": null}},{"type": "Feature", "geometry": {"type":"Point","coordinates":[121.0534691,14.5731703]}, "properties": {"osm_id": 10810642051, "osm_type": "nodes", "amenity": "restaurant", "tourism": null, "beds": null, "name": "Rakenrolls", "opening_hours": null, "shop": null, "rooms": null}},{"type": "Feature", "geometry": {"type":"Point","coordinates":[121.0595296,14.5853451]}, "properties": {"osm_id": 12028926338, "osm_type": "nodes", "amenity": "restaurant", "tourism": null, "beds": null, "name": "Elephant Grounds", "opening_hours": null, "shop": null, "rooms": null}},{"type": "Feature", "geometry": {"type":"Point","coordinates":[121.0491932,14.5784127]}, "properties": {"osm_id": 5950936486, "osm_type": "nodes", "amenity": null, "tourism": null, "beds": null, "name": "Micro genesys", "opening_hours": null, "shop": "computer", "rooms": null}},{"type": "Feature", "geometry": {"type":"Point","coordinates":[121.0518533,14.5797663]}, "properties": {"osm_id": 6549818991, "osm_type": "nodes", "amenity": null, "tourism": null, "beds": null, "name": "Papa's Pawnshop", "opening_hours": null, "shop": "pawnbroker", "rooms": null}},{"type": "Feature", "geometry": {"type":"Point","coordinates":[121.0485622,14.5857586]}, "properties": {"osm_id": 7298488185, "osm_type": "nodes", "amenity": null, "tourism": null, "beds": null, "name": "Foundation For Entrepreneurial Development, Inc.", "opening_hours": null, "shop": null, "rooms": null}},{"type": "Feature", "geometry": {"type":"Point","coordinates":[121.0530065,14.5717645]}, "properties": {"osm_id": 10844887375, "osm_type": "nodes", "amenity": "cafe", "tourism": null, "beds": null, "name": "Nitro 7 Coffee and Tea", "opening_hours": null, "shop": null, "rooms": null}},{"type": "Feature", "geometry": {"type":"Point","coordinates":[121.0552592,14.5812895]}, "properties": {"osm_id": 4551155224, "osm_type": "nodes", "amenity": "cafe", "tourism": null, "beds": null, "name": "The Coffee Bean & Tea Leaf", "opening_hours": "Mo-Fr 07:00-11:00; Sa,Su 07:00-24:00", "shop": null, "rooms": null}},{"type": "Feature", "geometry": {"type":"Point","coordinates":[121.0515118,14.5711537]}, "properties": {"osm_id": 10660851474, "osm_type": "nodes", "amenity": "fast_food", "tourism": null, "beds": null, "name": "Pit Stop grill", "opening_hours": "24/7", "shop": null, "rooms": null}},{"type": "Feature", "geometry": {"type":"Point","coordinates":[121.0537775,14.578519]}, "properties": {"osm_id": 10651286941, "osm_type": "nodes", "amenity": "cafe", "tourism": null, "beds": null, "name": "Gong Cha", "opening_hours": "10:00-22:00", "shop": null, "rooms": null}},{"type": "Feature", "geometry": {"type":"Point","coordinates":[121.0559628,14.5834928]}, "properties": {"osm_id": 10277184319, "osm_type": "nodes", "amenity": "restaurant", "tourism": null, "beds": null, "name": "Kam's Roast", "opening_hours": null, "shop": null, "rooms": null}},{"type": "Feature", "geometry": {"type":"Point","coordinates":[121.0564107,14.5831778]}, "properties": {"osm_id": 10277184321, "osm_type": "nodes", "amenity": null, "tourism": null, "beds": null, "name": "Dimensione", "opening_hours": null, "shop": "furniture", "rooms": null}},{"type": "Feature", "geometry": {"type":"Point","coordinates":[121.0568935,14.5833321]}, "properties": {"osm_id": 10277184322, "osm_type": "nodes", "amenity": "fast_food", "tourism": null, "beds": null, "name": "Taco Bell", "opening_hours": null, "shop": null, "rooms": null}},{"type": "Feature", "geometry": {"type":"Point","coordinates":[121.0573182,14.5845629]}, "properties": {"osm_id": 10277184326, "osm_type": "nodes", "amenity": "restaurant", "tourism": null, "beds": null, "name": "Astons Specialities", "opening_hours": null, "shop": null, "rooms": null}},{"type": "Feature", "geometry": {"type":"Point","coordinates":[121.05881,14.601726]}, "properties": {"osm_id": 12918588488, "osm_type": "nodes", "amenity": null, "tourism": null, "beds": null, "name": "Zuspresso Philippines, Inc.", "opening_hours": null, "shop": null, "rooms": null}},{"type": "Feature", "geometry": {"type":"Point","coordinates":[121.0590132,14.6006842]}, "properties": {"osm_id": 1075204706, "osm_type": "nodes", "amenity": null, "tourism": null, "beds": null, "name": "Consulate of Peru", "opening_hours": null, "shop": null, "rooms": null}},{"type": "Feature", "geometry": {"type":"Point","coordinates":[121.0320531,14.5914305]}, "properties": {"osm_id": 13059308795, "osm_type": "nodes", "amenity": null, "tourism": null, "beds": null, "name": "Mandaluyong Optical Clinic", "opening_hours": null, "shop": "optician", "rooms": null}},{"type": "Feature", "geometry": {"type":"Point","coordinates":[121.04383,14.588601]}, "properties": {"osm_id": 255059272, "osm_type": "nodes", "amenity": null, "tourism": null, "beds": null, "name": "Pc Options", "opening_hours": null, "shop": "computer", "rooms": null}},{"type": "Feature", "geometry": {"type":"Point","coordinates":[121.0454303,14.587208]}, "properties": {"osm_id": 5694520975, "osm_type": "nodes", "amenity": "cafe", "tourism": null, "beds": null, "name": "Coffee Bean and Tea Leaf", "opening_hours": null, "shop": null, "rooms": null}},{"type": "Feature", "geometry": {"type":"Point","coordinates":[121.0484903,14.5857166]}, "properties": {"osm_id": 12947663242, "osm_type": "nodes", "amenity": null, "tourism": null, "beds": null, "name": "GG Barbershop", "opening_hours": null, "shop": "hairdresser", "rooms": null}},{"type": "Feature", "geometry": {"type":"Point","coordinates":[121.0424267,14.5890439]}, "properties": {"osm_id": 12949064797, "osm_type": "nodes", "amenity": null, "tourism": null, "beds": null, "name": "Le Tigre", "opening_hours": null, "shop": "clothes", "rooms": null}},{"type": "Feature", "geometry": {"type":"Point","coordinates":[121.0332738,14.5911697]}, "properties": {"osm_id": 10137300011, "osm_type": "nodes", "amenity": "fast_food", "tourism": null, "beds": null, "name": "Potato Corner", "opening_hours": "Su-Sa 10:00-21:00", "shop": null, "rooms": null}},{"type": "Feature", "geometry": {"type":"Point","coordinates":[121.0426617,14.5885309]}, "properties": {"osm_id": 12257053986, "osm_type": "nodes", "amenity": "restaurant", "tourism": null, "beds": null, "name": "Escobar's", "opening_hours": null, "shop": null, "rooms": null}},{"type": "Feature", "geometry": {"type":"Point","coordinates":[121.0411221,14.5755995]}, "properties": {"osm_id": 1278914918, "osm_type": "nodes", "amenity": null, "tourism": null, "beds": null, "name": "7-Eleven", "opening_hours": "24/7", "shop": "convenience", "rooms": null}},{"type": "Feature", "geometry": {"type":"Point","coordinates":[121.0463997,14.5822103]}, "properties": {"osm_id": 6565328409, "osm_type": "nodes", "amenity": null, "tourism": null, "beds": null, "name": "Alday Store", "opening_hours": null, "shop": "convenience", "rooms": null}},{"type": "Feature", "geometry": {"type":"Point","coordinates":[121.0420566,14.588875]}, "properties": {"osm_id": 12257192112, "osm_type": "nodes", "amenity": "fast_food", "tourism": null, "beds": null, "name": "Yalla Yalla", "opening_hours": "10:00-02:00", "shop": null, "rooms": null}},{"type": "Feature", "geometry": {"type":"Point","coordinates":[121.0362553,14.5890943]}, "properties": {"osm_id": 12973044882, "osm_type": "nodes", "amenity": null, "tourism": null, "beds": null, "name": "Carolina's", "opening_hours": null, "shop": "massage", "rooms": null}},{"type": "Feature", "geometry": {"type":"Point","coordinates":[121.057453,14.5848579]}, "properties": {"osm_id": 10747754871, "osm_type": "nodes", "amenity": null, "tourism": null, "beds": null, "name": "DITO Experience Store - SM Megamall", "opening_hours": "Mo-Su 10:00-22:00", "shop": "telecommunication", "rooms": null}},{"type": "Feature", "geometry": {"type":"Point","coordinates":[121.030284,14.5911426]}, "properties": {"osm_id": 10148567934, "osm_type": "nodes", "amenity": null, "tourism": null, "beds": null, "name": "Sangguniang Pambarangay ng Bagong Silang", "opening_hours": "Mo-Fr 08:00-17:00", "shop": null, "rooms": null}},{"type": "Feature", "geometry": {"type":"Point","coordinates":[121.060121,14.5858519]}, "properties": {"osm_id": 6619166188, "osm_type": "nodes", "amenity": null, "tourism": null, "beds": null, "name": "Embassy of Timor-Leste", "opening_hours": "Mo-Fr 09:00-12:00, 13:00-17:00", "shop": null, "rooms": null}},{"type": "Feature", "geometry": {"type":"Point","coordinates":[121.0333729,14.5773988]}, "properties": {"osm_id": 4763067523, "osm_type": "nodes", "amenity": null, "tourism": null, "beds": null, "name": "Bureau of Jail Management and Penology", "opening_hours": null, "shop": null, "rooms": null}},{"type": "Feature", "geometry": {"type":"Point","coordinates":[121.0275015,14.5943038]}, "properties": {"osm_id": 6522521286, "osm_type": "nodes", "amenity": "cafe", "tourism": null, "beds": null, "name": "Dunkin' Donuts", "opening_hours": null, "shop": null, "rooms": null}},{"type": "Feature", "geometry": {"type":"Point","coordinates":[121.0275617,14.5943736]}, "properties": {"osm_id": 6522521287, "osm_type": "nodes", "amenity": null, "tourism": null, "beds": null, "name": "7-Eleven", "opening_hours": "24/7", "shop": "convenience", "rooms": null}},{"type": "Feature", "geometry": {"type":"Point","coordinates":[121.0212138,14.5872338]}, "properties": {"osm_id": 6523052924, "osm_type": "nodes", "amenity": null, "tourism": null, "beds": null, "name": null, "opening_hours": null, "shop": "water", "rooms": null}},{"type": "Feature", "geometry": {"type":"Point","coordinates":[121.0326863,14.5908889]}, "properties": {"osm_id": 9985714832, "osm_type": "nodes", "amenity": "cafe", "tourism": null, "beds": null, "name": "Nihon Café", "opening_hours": "24/7", "shop": null, "rooms": null}},{"type": "Feature", "geometry": {"type":"Point","coordinates":[121.0433452,14.5892286]}, "properties": {"osm_id": 8152164517, "osm_type": "nodes", "amenity": null, "tourism": null, "beds": null, "name": "American Technologies, Inc.", "opening_hours": "Mo-Fr 08:00-17:00", "shop": null, "rooms": null}},{"type": "Feature", "geometry": {"type":"Point","coordinates":[121.0434918,14.5887531]}, "properties": {"osm_id": 10598704730, "osm_type": "nodes", "amenity": null, "tourism": null, "beds": null, "name": null, "opening_hours": null, "shop": null, "rooms": null}},{"type": "Feature", "geometry": {"type":"Point","coordinates":[121.0409497,14.58841]}, "properties": {"osm_id": 10161383343, "osm_type": "nodes", "amenity": "cafe", "tourism": null, "beds": null, "name": "Café 2.0", "opening_hours": null, "shop": null, "rooms": null}},{"type": "Feature", "geometry": {"type":"Point","coordinates":[121.0413035,14.5907959]}, "properties": {"osm_id": 3506924048, "osm_type": "nodes", "amenity": null, "tourism": null, "beds": null, "name": "Jipan Corporation", "opening_hours": null, "shop": null, "rooms": null}},{"type": "Feature", "geometry": {"type":"Point","coordinates":[121.0425972,14.5934644]}, "properties": {"osm_id": 4883129021, "osm_type": "nodes", "amenity": null, "tourism": null, "beds": null, "name": "TFE Sales", "opening_hours": null, "shop": "hardware", "rooms": null}},{"type": "Feature", "geometry": {"type":"Point","coordinates":[121.0428333,14.5933333]}, "properties": {"osm_id": 4915687021, "osm_type": "nodes", "amenity": null, "tourism": null, "beds": null, "name": "TFE Marketing", "opening_hours": null, "shop": "hardware", "rooms": null}},{"type": "Feature", "geometry": {"type":"Point","coordinates":[121.0406228,14.5923621]}, "properties": {"osm_id": 5748817321, "osm_type": "nodes", "amenity": null, "tourism": null, "beds": null, "name": "World solution", "opening_hours": null, "shop": null, "rooms": null}},{"type": "Feature", "geometry": {"type":"Point","coordinates":[121.0474224,14.5734759]}, "properties": {"osm_id": 12738679004, "osm_type": "nodes", "amenity": null, "tourism": null, "beds": null, "name": "Navix Hair & Nail Spa", "opening_hours": null, "shop": "hairdresser", "rooms": null}},{"type": "Feature", "geometry": {"type":"Point","coordinates":[121.0475444,14.5734367]}, "properties": {"osm_id": 12744105221, "osm_type": "nodes", "amenity": null, "tourism": null, "beds": null, "name": "Cebuana Lhuillier", "opening_hours": null, "shop": "pawnbroker", "rooms": null}},{"type": "Feature", "geometry": {"type":"Point","coordinates":[121.0581549,14.5861327]}, "properties": {"osm_id": 7281169785, "osm_type": "nodes", "amenity": null, "tourism": null, "beds": null, "name": "Kaiyuan Minimart", "opening_hours": null, "shop": "convenience", "rooms": null}},{"type": "Feature", "geometry": {"type":"Point","coordinates":[121.0580813,14.5859763]}, "properties": {"osm_id": 3994812537, "osm_type": "nodes", "amenity": null, "tourism": null, "beds": null, "name": "7-Eleven", "opening_hours": "24/7", "shop": "convenience", "rooms": null}},{"type": "Feature", "geometry": {"type":"Point","coordinates":[121.0561384,14.5874593]}, "properties": {"osm_id": 8810396917, "osm_type": "nodes", "amenity": null, "tourism": null, "beds": null, "name": "Etihad Airways", "opening_hours": null, "shop": null, "rooms": null}},{"type": "Feature", "geometry": {"type":"Point","coordinates":[121.0566262,14.5886757]}, "properties": {"osm_id": 6353566685, "osm_type": "nodes", "amenity": null, "tourism": null, "beds": null, "name": "EJQ Institute", "opening_hours": null, "shop": null, "rooms": null}},{"type": "Feature", "geometry": {"type":"Point","coordinates":[121.0575667,14.5859917]}, "properties": {"osm_id": 12337182408, "osm_type": "nodes", "amenity": null, "tourism": null, "beds": null, "name": "St Pauls", "opening_hours": null, "shop": "religion", "rooms": null}},{"type": "Feature", "geometry": {"type":"Point","coordinates":[121.0568844,14.5852123]}, "properties": {"osm_id": 12337178715, "osm_type": "nodes", "amenity": null, "tourism": null, "beds": null, "name": "Mango Man", "opening_hours": null, "shop": "clothes", "rooms": null}},{"type": "Feature", "geometry": {"type":"Point","coordinates":[121.056869,14.5865037]}, "properties": {"osm_id": 12337178730, "osm_type": "nodes", "amenity": null, "tourism": null, "beds": null, "name": "Oxygen", "opening_hours": null, "shop": "clothes", "rooms": null}},{"type": "Feature", "geometry": {"type":"Point","coordinates":[121.057557,14.5863114]}, "properties": {"osm_id": 12337178770, "osm_type": "nodes", "amenity": "restaurant", "tourism": null, "beds": null, "name": "Mexicali", "opening_hours": null, "shop": null, "rooms": null}},{"type": "Feature", "geometry": {"type":"Point","coordinates":[121.056871,14.5864393]}, "properties": {"osm_id": 12337178781, "osm_type": "nodes", "amenity": "restaurant", "tourism": null, "beds": null, "name": "Yoshinoya", "opening_hours": null, "shop": null, "rooms": null}},{"type": "Feature", "geometry": {"type":"Point","coordinates":[121.0568609,14.5850717]}, "properties": {"osm_id": 12337178783, "osm_type": "nodes", "amenity": null, "tourism": null, "beds": null, "name": "George", "opening_hours": null, "shop": "clothes", "rooms": null}},{"type": "Feature", "geometry": {"type":"Point","coordinates":[121.0568549,14.5857464]}, "properties": {"osm_id": 12337182434, "osm_type": "nodes", "amenity": "restaurant", "tourism": null, "beds": null, "name": "de Original Jamaican Pattie Shop", "opening_hours": null, "shop": null, "rooms": null}},{"type": "Feature", "geometry": {"type":"Point","coordinates":[121.0568579,14.585568]}, "properties": {"osm_id": 12337182436, "osm_type": "nodes", "amenity": null, "tourism": null, "beds": null, "name": "Blue Magic!", "opening_hours": null, "shop": "gift", "rooms": null}},{"type": "Feature", "geometry": {"type":"Point","coordinates":[121.0572828,14.5839493]}, "properties": {"osm_id": 12337182449, "osm_type": "nodes", "amenity": null, "tourism": null, "beds": null, "name": "Bakedpuff", "opening_hours": null, "shop": "pastry", "rooms": null}},{"type": "Feature", "geometry": {"type":"Point","coordinates":[121.0378312,14.5919042]}, "properties": {"osm_id": 12591711693, "osm_type": "nodes", "amenity": "fast_food", "tourism": null, "beds": null, "name": null, "opening_hours": null, "shop": null, "rooms": null}},{"type": "Feature", "geometry": {"type":"Point","coordinates":[121.0568874,14.584954]}, "properties": {"osm_id": 12337178712, "osm_type": "nodes", "amenity": null, "tourism": null, "beds": null, "name": "Benefit", "opening_hours": null, "shop": "cosmetics", "rooms": null}},{"type": "Feature", "geometry": {"type":"Point","coordinates":[121.0568833,14.5852984]}, "properties": {"osm_id": 12337178716, "osm_type": "nodes", "amenity": null, "tourism": null, "beds": null, "name": "Origins", "opening_hours": null, "shop": "cosmetics", "rooms": null}},{"type": "Feature", "geometry": {"type":"Point","coordinates":[121.0568813,14.5854706]}, "properties": {"osm_id": 12337178718, "osm_type": "nodes", "amenity": null, "tourism": null, "beds": null, "name": "Fred Perry", "opening_hours": null, "shop": "clothes", "rooms": null}},{"type": "Feature", "geometry": {"type":"Point","coordinates":[121.0568711,14.5863315]}, "properties": {"osm_id": 12337178728, "osm_type": "nodes", "amenity": null, "tourism": null, "beds": null, "name": "Stradivarius", "opening_hours": null, "shop": "clothes", "rooms": null}},{"type": "Feature", "geometry": {"type":"Point","coordinates":[121.0575465,14.5864299]}, "properties": {"osm_id": 12337178771, "osm_type": "nodes", "amenity": null, "tourism": null, "beds": null, "name": "Lola Nena's", "opening_hours": null, "shop": "pastry", "rooms": null}},{"type": "Feature", "geometry": {"type":"Point","coordinates":[121.0568849,14.5856995]}, "properties": {"osm_id": 12337178773, "osm_type": "nodes", "amenity": "cafe", "tourism": null, "beds": null, "name": "Starbucks Coffee", "opening_hours": null, "shop": null, "rooms": null}},{"type": "Feature", "geometry": {"type":"Point","coordinates":[121.0572168,14.5836691]}, "properties": {"osm_id": 12337178800, "osm_type": "nodes", "amenity": null, "tourism": null, "beds": null, "name": "M+F Girbaud", "opening_hours": null, "shop": "clothes", "rooms": null}},{"type": "Feature", "geometry": {"type":"Point","coordinates":[121.057556,14.5862573]}, "properties": {"osm_id": 12337182415, "osm_type": "nodes", "amenity": "fast_food", "tourism": null, "beds": null, "name": "Chatime", "opening_hours": null, "shop": null, "rooms": null}},{"type": "Feature", "geometry": {"type":"Point","coordinates":[121.045386,14.5882288]}, "properties": {"osm_id": 10036050920, "osm_type": "nodes", "amenity": null, "tourism": "museum", "beds": null, "name": "Nationalista Party Museum", "opening_hours": null, "shop": null, "rooms": null}},{"type": "Feature", "geometry": {"type":"Point","coordinates":[121.0531288,14.571513]}, "properties": {"osm_id": 9172181269, "osm_type": "nodes", "amenity": "restaurant", "tourism": null, "beds": null, "name": "JT's Manukan Grille", "opening_hours": "Mo-Su 11:00-22:30", "shop": null, "rooms": null}},{"type": "Feature", "geometry": {"type":"Point","coordinates":[121.0318135,14.5911685]}, "properties": {"osm_id": 11534210705, "osm_type": "nodes", "amenity": "bar", "tourism": null, "beds": null, "name": "Polari Sky Lounge", "opening_hours": null, "shop": null, "rooms": null}},{"type": "Feature", "geometry": {"type":"Point","coordinates":[121.0460567,14.5873406]}, "properties": {"osm_id": 6536470711, "osm_type": "nodes", "amenity": null, "tourism": null, "beds": null, "name": "Nook", "opening_hours": null, "shop": "yes", "rooms": null}},{"type": "Feature", "geometry": {"type":"Point","coordinates":[121.0343924,14.5776546]}, "properties": {"osm_id": 255060421, "osm_type": "nodes", "amenity": null, "tourism": null, "beds": null, "name": "Mandaluyong City Traffic Office", "opening_hours": null, "shop": null, "rooms": null}},{"type": "Feature", "geometry": {"type":"Point","coordinates":[121.0366038,14.589028]}, "properties": {"osm_id": 3499203341, "osm_type": "nodes", "amenity": null, "tourism": null, "beds": null, "name": "Metro Supermarket", "opening_hours": "09:00-21:00", "shop": "supermarket", "rooms": null}},{"type": "Feature", "geometry": {"type":"Point","coordinates":[121.0336403,14.5743179]}, "properties": {"osm_id": 7068589086, "osm_type": "nodes", "amenity": null, "tourism": null, "beds": null, "name": "Asmacs", "opening_hours": null, "shop": "travel_agency", "rooms": null}},{"type": "Feature", "geometry": {"type":"Point","coordinates":[121.0492597,14.577093]}, "properties": {"osm_id": 6562780090, "osm_type": "nodes", "amenity": null, "tourism": null, "beds": null, "name": "Lay Store", "opening_hours": null, "shop": "convenience", "rooms": null}},{"type": "Feature", "geometry": {"type":"Point","coordinates":[121.0510875,14.5790349]}, "properties": {"osm_id": 6549786490, "osm_type": "nodes", "amenity": "restaurant", "tourism": null, "beds": null, "name": "Tan Tan Men House", "opening_hours": null, "shop": null, "rooms": null}},{"type": "Feature", "geometry": {"type":"Point","coordinates":[121.0496389,14.5845468]}, "properties": {"osm_id": 4690190191, "osm_type": "nodes", "amenity": null, "tourism": null, "beds": null, "name": "Welltech Service Corporation", "opening_hours": "Mo-Sa 08:00-17:00", "shop": null, "rooms": null}},{"type": "Feature", "geometry": {"type":"Point","coordinates":[121.0468144,14.5697847]}, "properties": {"osm_id": 1140296540, "osm_type": "nodes", "amenity": null, "tourism": null, "beds": null, "name": "Uncle John's", "opening_hours": "24/7", "shop": "convenience", "rooms": null}},{"type": "Feature", "geometry": {"type":"Point","coordinates":[121.0515189,14.5729229]}, "properties": {"osm_id": 11221712937, "osm_type": "nodes", "amenity": "cafe", "tourism": null, "beds": null, "name": "Allegro Beverage", "opening_hours": null, "shop": null, "rooms": null}},{"type": "Feature", "geometry": {"type":"Point","coordinates":[121.0490271,14.5703035]}, "properties": {"osm_id": 4455931491, "osm_type": "nodes", "amenity": null, "tourism": null, "beds": null, "name": "Uncle John's", "opening_hours": null, "shop": "convenience", "rooms": null}},{"type": "Feature", "geometry": {"type":"Point","coordinates":[121.0425745,14.5884612]}, "properties": {"osm_id": 4486492493, "osm_type": "nodes", "amenity": null, "tourism": null, "beds": null, "name": "Ubm Corporation", "opening_hours": null, "shop": "trade", "rooms": null}},{"type": "Feature", "geometry": {"type":"Point","coordinates":[121.0569485,14.5854141]}, "properties": {"osm_id": 10277184331, "osm_type": "nodes", "amenity": "restaurant", "tourism": null, "beds": null, "name": "Nanyang", "opening_hours": null, "shop": null, "rooms": null}},{"type": "Feature", "geometry": {"type":"Point","coordinates":[121.0332741,14.5911606]}, "properties": {"osm_id": 10137300000, "osm_type": "nodes", "amenity": "cafe", "tourism": null, "beds": null, "name": "Squint", "opening_hours": null, "shop": null, "rooms": null}},{"type": "Feature", "geometry": {"type":"Point","coordinates":[121.0535216,14.581157]}, "properties": {"osm_id": 7475236633, "osm_type": "nodes", "amenity": null, "tourism": null, "beds": null, "name": null, "opening_hours": null, "shop": "ticket", "rooms": null}},{"type": "Feature", "geometry": {"type":"Point","coordinates":[121.0523321,14.5803822]}, "properties": {"osm_id": 6564052256, "osm_type": "nodes", "amenity": null, "tourism": null, "beds": null, "name": "Motortrade", "opening_hours": null, "shop": "motorcycle", "rooms": null}},{"type": "Feature", "geometry": {"type":"Point","coordinates":[121.042534,14.5807086]}, "properties": {"osm_id": 6543749836, "osm_type": "nodes", "amenity": null, "tourism": "artwork", "beds": null, "name": null, "opening_hours": null, "shop": null, "rooms": null}},{"type": "Feature", "geometry": {"type":"Point","coordinates":[121.0517216,14.583308]}, "properties": {"osm_id": 4455036738, "osm_type": "nodes", "amenity": null, "tourism": null, "beds": null, "name": "VentureSpace PH", "opening_hours": null, "shop": null, "rooms": null}},{"type": "Feature", "geometry": {"type":"Point","coordinates":[121.0409939,14.5895229]}, "properties": {"osm_id": 1346911562, "osm_type": "nodes", "amenity": null, "tourism": null, "beds": null, "name": "Honda Car Repair/Service", "opening_hours": null, "shop": "car_repair", "rooms": null}},{"type": "Feature", "geometry": {"type":"Point","coordinates":[121.0479277,14.5787185]}, "properties": {"osm_id": 827172358, "osm_type": "nodes", "amenity": "fast_food", "tourism": null, "beds": null, "name": "Janina's Kitchen", "opening_hours": null, "shop": null, "rooms": null}},{"type": "Feature", "geometry": {"type":"Point","coordinates":[121.0235822,14.5893687]}, "properties": {"osm_id": 4873088591, "osm_type": "nodes", "amenity": null, "tourism": null, "beds": null, "name": "NWow", "opening_hours": null, "shop": "motorcycle", "rooms": null}},{"type": "Feature", "geometry": {"type":"Point","coordinates":[121.0347754,14.5677498]}, "properties": {"osm_id": 8668098725, "osm_type": "nodes", "amenity": null, "tourism": null, "beds": null, "name": null, "opening_hours": null, "shop": "convenience", "rooms": null}},{"type": "Feature", "geometry": {"type":"Point","coordinates":[121.0589487,14.5846893]}, "properties": {"osm_id": 12028926337, "osm_type": "nodes", "amenity": "restaurant", "tourism": null, "beds": null, "name": "Nikkei", "opening_hours": null, "shop": null, "rooms": null}},{"type": "Feature", "geometry": {"type":"Point","coordinates":[121.0280088,14.5947964]}, "properties": {"osm_id": 4614128692, "osm_type": "nodes", "amenity": null, "tourism": null, "beds": null, "name": "Gawad Kalinga", "opening_hours": null, "shop": null, "rooms": null}},{"type": "Feature", "geometry": {"type":"Point","coordinates":[121.0399725,14.5741873]}, "properties": {"osm_id": 12818531901, "osm_type": "nodes", "amenity": null, "tourism": "attraction", "beds": null, "name": "400 busilak st. Barangay barangka drive", "opening_hours": null, "shop": null, "rooms": null}},{"type": "Feature", "geometry": {"type":"Point","coordinates":[121.033251,14.5912512]}, "properties": {"osm_id": 5963272810, "osm_type": "nodes", "amenity": "restaurant", "tourism": null, "beds": null, "name": "Hap Chan", "opening_hours": null, "shop": null, "rooms": null}},{"type": "Feature", "geometry": {"type":"Point","coordinates":[121.0340469,14.5763223]}, "properties": {"osm_id": 1646689541, "osm_type": "nodes", "amenity": null, "tourism": null, "beds": null, "name": "Jewels 24", "opening_hours": "24/7", "shop": "convenience", "rooms": null}},{"type": "Feature", "geometry": {"type":"Point","coordinates":[121.0293127,14.5811732]}, "properties": {"osm_id": 11747087688, "osm_type": "nodes", "amenity": null, "tourism": null, "beds": null, "name": "Robinsons Easymart", "opening_hours": null, "shop": "convenience", "rooms": null}},{"type": "Feature", "geometry": {"type":"Point","coordinates":[121.0320954,14.5862994]}, "properties": {"osm_id": 6169811985, "osm_type": "nodes", "amenity": null, "tourism": null, "beds": null, "name": "Gumabao Softdrinks & Beer Trading", "opening_hours": null, "shop": "trade", "rooms": null}},{"type": "Feature", "geometry": {"type":"Point","coordinates":[121.0311541,14.5706526]}, "properties": {"osm_id": 5049977322, "osm_type": "nodes", "amenity": null, "tourism": null, "beds": null, "name": "Pobox Photography", "opening_hours": "24/7", "shop": "photo", "rooms": null}},{"type": "Feature", "geometry": {"type":"Point","coordinates":[121.0512426,14.5784543]}, "properties": {"osm_id": 12385599140, "osm_type": "nodes", "amenity": null, "tourism": null, "beds": null, "name": "RD", "opening_hours": null, "shop": "pawnbroker", "rooms": null}},{"type": "Feature", "geometry": {"type":"Point","coordinates":[121.0510283,14.5789983]}, "properties": {"osm_id": 12385563214, "osm_type": "nodes", "amenity": "fast_food", "tourism": null, "beds": null, "name": "Baliwag", "opening_hours": null, "shop": null, "rooms": null}},{"type": "Feature", "geometry": {"type":"Point","coordinates":[121.053406,14.5762909]}, "properties": {"osm_id": 12815884501, "osm_type": "nodes", "amenity": "cafe", "tourism": null, "beds": null, "name": "Espresso Studio", "opening_hours": "Mo-Su 06:00-22:00", "shop": null, "rooms": null}},{"type": "Feature", "geometry": {"type":"Point","coordinates":[121.0561087,14.5837911]}, "properties": {"osm_id": 12823257929, "osm_type": "nodes", "amenity": "restaurant", "tourism": null, "beds": null, "name": "Kam's Roast", "opening_hours": null, "shop": null, "rooms": null}},{"type": "Feature", "geometry": {"type":"Point","coordinates":[121.0515713,14.5775502]}, "properties": {"osm_id": 12196293101, "osm_type": "nodes", "amenity": null, "tourism": null, "beds": null, "name": "Alfamart", "opening_hours": "24/7", "shop": "convenience", "rooms": null}},{"type": "Feature", "geometry": {"type":"Point","coordinates":[121.0463508,14.5784219]}, "properties": {"osm_id": 11563319574, "osm_type": "nodes", "amenity": null, "tourism": null, "beds": null, "name": "Hair By: Rene Capuno", "opening_hours": null, "shop": "hairdresser", "rooms": null}},{"type": "Feature", "geometry": {"type":"Point","coordinates":[121.0439373,14.58809]}, "properties": {"osm_id": 1539143093, "osm_type": "nodes", "amenity": null, "tourism": null, "beds": null, "name": "Super 8", "opening_hours": null, "shop": "supermarket", "rooms": null}},{"type": "Feature", "geometry": {"type":"Point","coordinates":[121.0518188,14.5706439]}, "properties": {"osm_id": 10660883082, "osm_type": "nodes", "amenity": "pub", "tourism": null, "beds": null, "name": "Illusion", "opening_hours": "24/7", "shop": null, "rooms": null}},{"type": "Feature", "geometry": {"type":"Point","coordinates":[121.0541654,14.580231]}, "properties": {"osm_id": 12690117156, "osm_type": "nodes", "amenity": "cafe", "tourism": null, "beds": null, "name": "Zu's Coffee", "opening_hours": null, "shop": null, "rooms": null}},{"type": "Feature", "geometry": {"type":"Point","coordinates":[121.041972,14.5893962]}, "properties": {"osm_id": 12949064796, "osm_type": "nodes", "amenity": null, "tourism": null, "beds": null, "name": null, "opening_hours": null, "shop": "convenience", "rooms": null}},{"type": "Feature", "geometry": {"type":"Point","coordinates":[121.0457225,14.5874421]}, "properties": {"osm_id": 9875911792, "osm_type": "nodes", "amenity": "fast_food", "tourism": null, "beds": null, "name": "Burger King", "opening_hours": "24/7", "shop": null, "rooms": null}},{"type": "Feature", "geometry": {"type":"Point","coordinates":[121.041943,14.5889068]}, "properties": {"osm_id": 11145925500, "osm_type": "nodes", "amenity": "restaurant", "tourism": null, "beds": null, "name": "Max's", "opening_hours": null, "shop": null, "rooms": null}},{"type": "Feature", "geometry": {"type":"Point","coordinates":[121.0332764,14.5909508]}, "properties": {"osm_id": 10137300014, "osm_type": "nodes", "amenity": null, "tourism": null, "beds": null, "name": "7-Eleven", "opening_hours": null, "shop": "convenience", "rooms": null}},{"type": "Feature", "geometry": {"type":"Point","coordinates":[121.0360249,14.5891362]}, "properties": {"osm_id": 3737346962, "osm_type": "nodes", "amenity": null, "tourism": null, "beds": null, "name": null, "opening_hours": null, "shop": "car_repair", "rooms": null}},{"type": "Feature", "geometry": {"type":"Point","coordinates":[121.0359536,14.5892722]}, "properties": {"osm_id": 4527590703, "osm_type": "nodes", "amenity": "fast_food", "tourism": null, "beds": null, "name": "Mr. Kimbob", "opening_hours": null, "shop": null, "rooms": null}},{"type": "Feature", "geometry": {"type":"Point","coordinates":[121.0358529,14.5892918]}, "properties": {"osm_id": 3508423532, "osm_type": "nodes", "amenity": null, "tourism": null, "beds": null, "name": "Lapid's Freshly Popped Chicharon", "opening_hours": null, "shop": "kiosk", "rooms": null}},{"type": "Feature", "geometry": {"type":"Point","coordinates":[121.0357937,14.5892707]}, "properties": {"osm_id": 3508423533, "osm_type": "nodes", "amenity": "fast_food", "tourism": null, "beds": null, "name": "Mang Inasal", "opening_hours": null, "shop": null, "rooms": null}},{"type": "Feature", "geometry": {"type":"Point","coordinates":[121.0357423,14.5892714]}, "properties": {"osm_id": 4528328335, "osm_type": "nodes", "amenity": null, "tourism": null, "beds": null, "name": "Cebuana Lhuillier", "opening_hours": null, "shop": "pawnbroker", "rooms": null}},{"type": "Feature", "geometry": {"type":"Point","coordinates":[121.0358586,14.5893155]}, "properties": {"osm_id": 3508423531, "osm_type": "nodes", "amenity": null, "tourism": null, "beds": null, "name": null, "opening_hours": null, "shop": "lottery", "rooms": null}},{"type": "Feature", "geometry": {"type":"Point","coordinates":[121.0358363,14.5895915]}, "properties": {"osm_id": 3508423535, "osm_type": "nodes", "amenity": null, "tourism": null, "beds": null, "name": "White Palace Spa", "opening_hours": null, "shop": "massage", "rooms": null}},{"type": "Feature", "geometry": {"type":"Point","coordinates":[121.0358193,14.5895833]}, "properties": {"osm_id": 3811984101, "osm_type": "nodes", "amenity": null, "tourism": null, "beds": null, "name": null, "opening_hours": null, "shop": "hairdresser", "rooms": null}},{"type": "Feature", "geometry": {"type":"Point","coordinates":[121.0353289,14.589649]}, "properties": {"osm_id": 7116477694, "osm_type": "nodes", "amenity": "fast_food", "tourism": null, "beds": null, "name": "Chowking", "opening_hours": null, "shop": null, "rooms": null}},{"type": "Feature", "geometry": {"type":"Point","coordinates":[121.0344441,14.5898288]}, "properties": {"osm_id": 6322810060, "osm_type": "nodes", "amenity": null, "tourism": null, "beds": null, "name": "Lotto", "opening_hours": null, "shop": "lottery", "rooms": null}},{"type": "Feature", "geometry": {"type":"Point","coordinates":[121.0348623,14.5901297]}, "properties": {"osm_id": 4115658989, "osm_type": "nodes", "amenity": "fast_food", "tourism": null, "beds": null, "name": null, "opening_hours": null, "shop": null, "rooms": null}},{"type": "Feature", "geometry": {"type":"Point","coordinates":[121.0346098,14.5898893]}, "properties": {"osm_id": 4231110732, "osm_type": "nodes", "amenity": null, "tourism": null, "beds": null, "name": "Shepherd's Meat House", "opening_hours": "6:00-14:00", "shop": "butcher", "rooms": null}},{"type": "Feature", "geometry": {"type":"Point","coordinates":[121.0349028,14.5899401]}, "properties": {"osm_id": 4723226020, "osm_type": "nodes", "amenity": "fast_food", "tourism": null, "beds": null, "name": "Chef Jumbo Sizzlings & Grills", "opening_hours": null, "shop": null, "rooms": null}},{"type": "Feature", "geometry": {"type":"Point","coordinates":[121.036223,14.5907035]}, "properties": {"osm_id": 3506895925, "osm_type": "nodes", "amenity": null, "tourism": null, "beds": null, "name": "Schippers Philippines, Incorporated.", "opening_hours": null, "shop": null, "rooms": null}},{"type": "Feature", "geometry": {"type":"Point","coordinates":[121.0343881,14.5904647]}, "properties": {"osm_id": 3786973959, "osm_type": "nodes", "amenity": null, "tourism": null, "beds": null, "name": "M. Aquino Construction and Trading Supply", "opening_hours": null, "shop": "hardware", "rooms": null}},{"type": "Feature", "geometry": {"type":"Point","coordinates":[121.0352025,14.5909174]}, "properties": {"osm_id": 3506384329, "osm_type": "nodes", "amenity": null, "tourism": null, "beds": null, "name": "RRP Laundry Matt Service", "opening_hours": null, "shop": "laundry", "rooms": null}},{"type": "Feature", "geometry": {"type":"Point","coordinates":[121.0279675,14.5955649]}, "properties": {"osm_id": 12295737676, "osm_type": "nodes", "amenity": "post_office", "tourism": null, "beds": null, "name": null, "opening_hours": "Mo-Fr 09:00-17:00; Sa-Su 09:00-16:30", "shop": null, "rooms": null}},{"type": "Feature", "geometry": {"type":"Point","coordinates":[121.0453818,14.5867308]}, "properties": {"osm_id": 12828507509, "osm_type": "nodes", "amenity": null, "tourism": null, "beds": null, "name": "ceci Korean Grocery & Food Lab", "opening_hours": "24/7", "shop": "convenience", "rooms": null}},{"type": "Feature", "geometry": {"type":"Point","coordinates":[121.0278544,14.5949372]}, "properties": {"osm_id": 4186720286, "osm_type": "nodes", "amenity": "fast_food", "tourism": null, "beds": null, "name": "Chick's A-hoy!", "opening_hours": null, "shop": null, "rooms": null}},{"type": "Feature", "geometry": {"type":"Point","coordinates":[121.037009,14.5888887]}, "properties": {"osm_id": 12640959016, "osm_type": "nodes", "amenity": null, "tourism": null, "beds": null, "name": "N&N Healing Touch", "opening_hours": null, "shop": "massage", "rooms": null}},{"type": "Feature", "geometry": {"type":"Point","coordinates":[121.0400929,14.5899847]}, "properties": {"osm_id": 12634918464, "osm_type": "nodes", "amenity": null, "tourism": null, "beds": null, "name": "Lubeserv", "opening_hours": null, "shop": "car_repair", "rooms": null}},{"type": "Feature", "geometry": {"type":"Point","coordinates":[121.0271206,14.5889761]}, "properties": {"osm_id": 12606915807, "osm_type": "nodes", "amenity": null, "tourism": null, "beds": null, "name": "Dali", "opening_hours": null, "shop": "convenience", "rooms": null}},{"type": "Feature", "geometry": {"type":"Point","coordinates":[121.0439168,14.5881921]}, "properties": {"osm_id": 4447080951, "osm_type": "nodes", "amenity": "restaurant", "tourism": null, "beds": null, "name": "Phở Hòa", "opening_hours": null, "shop": null, "rooms": null}},{"type": "Feature", "geometry": {"type":"Point","coordinates":[121.0437988,14.5882346]}, "properties": {"osm_id": 6412819585, "osm_type": "nodes", "amenity": "fast_food", "tourism": null, "beds": null, "name": "Subway", "opening_hours": null, "shop": null, "rooms": null}},{"type": "Feature", "geometry": {"type":"Point","coordinates":[121.0371625,14.5860256]}, "properties": {"osm_id": 12578375771, "osm_type": "nodes", "amenity": null, "tourism": null, "beds": null, "name": "Wilmex stote", "opening_hours": null, "shop": "yes", "rooms": null}},{"type": "Feature", "geometry": {"type":"Point","coordinates":[121.0332578,14.5912016]}, "properties": {"osm_id": 12500327707, "osm_type": "nodes", "amenity": "restaurant", "tourism": null, "beds": null, "name": "Pancake House", "opening_hours": null, "shop": null, "rooms": null}},{"type": "Feature", "geometry": {"type":"Point","coordinates":[121.0412221,14.5906999]}, "properties": {"osm_id": 12432761186, "osm_type": "nodes", "amenity": null, "tourism": null, "beds": null, "name": "Chef's Nook", "opening_hours": null, "shop": "kitchen", "rooms": null}},{"type": "Feature", "geometry": {"type":"Point","coordinates":[121.0430771,14.5767221]}, "properties": {"osm_id": 4372882689, "osm_type": "nodes", "amenity": null, "tourism": null, "beds": null, "name": "Y.R.S Repair Shop", "opening_hours": null, "shop": "car_repair", "rooms": null}},{"type": "Feature", "geometry": {"type":"Point","coordinates":[121.0535469,14.5786997]}, "properties": {"osm_id": 10651308229, "osm_type": "nodes", "amenity": null, "tourism": null, "beds": null, "name": "Yzone", "opening_hours": null, "shop": "motorcycle_repair", "rooms": null}},{"type": "Feature", "geometry": {"type":"Point","coordinates":[121.0533774,14.5729741]}, "properties": {"osm_id": 10651238771, "osm_type": "nodes", "amenity": null, "tourism": null, "beds": null, "name": "The Deli Hub", "opening_hours": null, "shop": "deli", "rooms": null}},{"type": "Feature", "geometry": {"type":"Point","coordinates":[121.0480778,14.5750727]}, "properties": {"osm_id": 12744033003, "osm_type": "nodes", "amenity": null, "tourism": null, "beds": null, "name": "E-Dynamic Diesel Calibration", "opening_hours": null, "shop": "car_repair", "rooms": null}},{"type": "Feature", "geometry": {"type":"Point","coordinates":[121.0475578,14.5734529]}, "properties": {"osm_id": 12744105222, "osm_type": "nodes", "amenity": null, "tourism": null, "beds": null, "name": "NRR Foto Studio", "opening_hours": null, "shop": "copyshop", "rooms": null}},{"type": "Feature", "geometry": {"type":"Point","coordinates":[121.0363198,14.5708776]}, "properties": {"osm_id": 12824841601, "osm_type": "nodes", "amenity": null, "tourism": null, "beds": null, "name": "RJs Bakery", "opening_hours": null, "shop": "bakery", "rooms": null}},{"type": "Feature", "geometry": {"type":"Point","coordinates":[121.0454658,14.5797166]}, "properties": {"osm_id": 1664001668, "osm_type": "nodes", "amenity": null, "tourism": null, "beds": null, "name": "7-Eleven", "opening_hours": "24/7", "shop": "convenience", "rooms": null}},{"type": "Feature", "geometry": {"type":"Point","coordinates":[121.0467929,14.5742104]}, "properties": {"osm_id": 12763401976, "osm_type": "nodes", "amenity": null, "tourism": null, "beds": null, "name": "H2O JJ Water Refill Station", "opening_hours": null, "shop": "water", "rooms": null}},{"type": "Feature", "geometry": {"type":"Point","coordinates":[121.0467866,14.5736881]}, "properties": {"osm_id": 12747544832, "osm_type": "nodes", "amenity": null, "tourism": null, "beds": null, "name": "Desire Salon & Barbershop", "opening_hours": null, "shop": "hairdresser", "rooms": null}},{"type": "Feature", "geometry": {"type":"Point","coordinates":[121.0474834,14.5734796]}, "properties": {"osm_id": 12744128820, "osm_type": "nodes", "amenity": null, "tourism": null, "beds": null, "name": "Mightee Mart", "opening_hours": null, "shop": "convenience", "rooms": null}},{"type": "Feature", "geometry": {"type":"Point","coordinates":[121.0480039,14.5751239]}, "properties": {"osm_id": 12740308197, "osm_type": "nodes", "amenity": null, "tourism": null, "beds": null, "name": "The Lavendry Lounge", "opening_hours": "24/7", "shop": "laundry", "rooms": null}},{"type": "Feature", "geometry": {"type":"Point","coordinates":[121.0494651,14.5716223]}, "properties": {"osm_id": 4424691900, "osm_type": "nodes", "amenity": null, "tourism": null, "beds": null, "name": "Chang Thai Massage", "opening_hours": null, "shop": "massage", "rooms": null}},{"type": "Feature", "geometry": {"type":"Point","coordinates":[121.0456911,14.5741717]}, "properties": {"osm_id": 12734230822, "osm_type": "nodes", "amenity": null, "tourism": null, "beds": null, "name": "North Haven Wellness Spa", "opening_hours": null, "shop": "massage", "rooms": null}},{"type": "Feature", "geometry": {"type":"Point","coordinates":[121.050117,14.5836652]}, "properties": {"osm_id": 12695707383, "osm_type": "nodes", "amenity": "restaurant", "tourism": null, "beds": null, "name": "Terrasse", "opening_hours": null, "shop": null, "rooms": null}},{"type": "Feature", "geometry": {"type":"Point","coordinates":[121.0483654,14.5791674]}, "properties": {"osm_id": 11563319570, "osm_type": "nodes", "amenity": null, "tourism": null, "beds": null, "name": "Jin's Mini Grocery", "opening_hours": null, "shop": "convenience", "rooms": null}},{"type": "Feature", "geometry": {"type":"Point","coordinates":[121.0481993,14.5789005]}, "properties": {"osm_id": 12634919028, "osm_type": "nodes", "amenity": null, "tourism": null, "beds": null, "name": "Sew & Fit", "opening_hours": null, "shop": "tailor", "rooms": null}},{"type": "Feature", "geometry": {"type":"Point","coordinates":[121.0481864,14.5787925]}, "properties": {"osm_id": 12634919029, "osm_type": "nodes", "amenity": null, "tourism": null, "beds": null, "name": "MyLaundry", "opening_hours": null, "shop": "laundry", "rooms": null}},{"type": "Feature", "geometry": {"type":"Point","coordinates":[121.0484523,14.5790953]}, "properties": {"osm_id": 8236053012, "osm_type": "nodes", "amenity": "cafe", "tourism": null, "beds": null, "name": "Starbucks", "opening_hours": null, "shop": null, "rooms": null}},{"type": "Feature", "geometry": {"type":"Point","coordinates":[121.0479398,14.5788693]}, "properties": {"osm_id": 12634908548, "osm_type": "nodes", "amenity": "cafe", "tourism": null, "beds": null, "name": "Zus Coffee", "opening_hours": "06:00-22:00", "shop": null, "rooms": null}},{"type": "Feature", "geometry": {"type":"Point","coordinates":[121.0454461,14.5734797]}, "properties": {"osm_id": 1141686456, "osm_type": "nodes", "amenity": null, "tourism": null, "beds": null, "name": "Dali", "opening_hours": null, "shop": "convenience", "rooms": null}},{"type": "Feature", "geometry": {"type":"Point","coordinates":[121.030828,14.5718512]}, "properties": {"osm_id": 10962253663, "osm_type": "nodes", "amenity": "restaurant", "tourism": null, "beds": null, "name": "Bazaar", "opening_hours": null, "shop": null, "rooms": null}},{"type": "Feature", "geometry": {"type":"Point","coordinates":[121.0372731,14.5761506]}, "properties": {"osm_id": 11168511088, "osm_type": "nodes", "amenity": null, "tourism": null, "beds": null, "name": "Treskul Records & Café", "opening_hours": "Mo-Th 14:00-22:00; Fr-Sa 14:00-02:00; Su 14:00-20:00; PH closed", "shop": "music", "rooms": null}},{"type": "Feature", "geometry": {"type":"Point","coordinates":[121.0559266,14.5830947]}, "properties": {"osm_id": 4524696229, "osm_type": "nodes", "amenity": null, "tourism": null, "beds": null, "name": "H&M", "opening_hours": null, "shop": "clothes", "rooms": null}},{"type": "Feature", "geometry": {"type":"Point","coordinates":[121.0572183,14.5836081]}, "properties": {"osm_id": 12337182401, "osm_type": "nodes", "amenity": null, "tourism": null, "beds": null, "name": "Swatch", "opening_hours": null, "shop": "watches", "rooms": null}},{"type": "Feature", "geometry": {"type":"Point","coordinates":[121.0560617,14.5833109]}, "properties": {"osm_id": 12337182477, "osm_type": "nodes", "amenity": null, "tourism": null, "beds": null, "name": "Pandora", "opening_hours": null, "shop": "jewelry", "rooms": null}},{"type": "Feature", "geometry": {"type":"Point","coordinates":[121.0599638,14.5861656]}, "properties": {"osm_id": 748626037, "osm_type": "nodes", "amenity": "cafe", "tourism": null, "beds": null, "name": "Starbucks", "opening_hours": "Mo-Fr 06:00-21:00", "shop": null, "rooms": null}},{"type": "Feature", "geometry": {"type":"Point","coordinates":[121.0555953,14.5742009]}, "properties": {"osm_id": 5586319524, "osm_type": "nodes", "amenity": null, "tourism": null, "beds": null, "name": "Blims Fine Furniture", "opening_hours": null, "shop": "furniture", "rooms": null}},{"type": "Feature", "geometry": {"type":"Point","coordinates":[121.0549569,14.5761572]}, "properties": {"osm_id": 6361790385, "osm_type": "nodes", "amenity": "social_facility", "tourism": null, "beds": null, "name": "UN World Food Programme", "opening_hours": null, "shop": null, "rooms": null}},{"type": "Feature", "geometry": {"type":"Point","coordinates":[121.053073,14.580695]}, "properties": {"osm_id": 7475236645, "osm_type": "nodes", "amenity": null, "tourism": null, "beds": null, "name": null, "opening_hours": null, "shop": "ticket", "rooms": null}},{"type": "Feature", "geometry": {"type":"Point","coordinates":[121.0254158,14.5916312]}, "properties": {"osm_id": 1859742274, "osm_type": "nodes", "amenity": null, "tourism": null, "beds": null, "name": "Monterey Meat Shop", "opening_hours": null, "shop": "butcher", "rooms": null}},{"type": "Feature", "geometry": {"type":"Point","coordinates":[121.0476301,14.5801458]}, "properties": {"osm_id": 11270758051, "osm_type": "nodes", "amenity": null, "tourism": null, "beds": null, "name": "Sikap Cycle Works", "opening_hours": "Mo off; Tu-Su 09:00-18:00", "shop": "bicycle", "rooms": null}},{"type": "Feature", "geometry": {"type":"Point","coordinates":[121.0572409,14.5826038]}, "properties": {"osm_id": 12337178792, "osm_type": "nodes", "amenity": "fast_food", "tourism": null, "beds": null, "name": "Turks", "opening_hours": null, "shop": null, "rooms": null}},{"type": "Feature", "geometry": {"type":"Point","coordinates":[121.0572101,14.5837549]}, "properties": {"osm_id": 12337182452, "osm_type": "nodes", "amenity": null, "tourism": null, "beds": null, "name": "Fine Fancy", "opening_hours": null, "shop": "fabric", "rooms": null}},{"type": "Feature", "geometry": {"type":"Point","coordinates":[121.0350267,14.5765705]}, "properties": {"osm_id": 7411532821, "osm_type": "nodes", "amenity": "pharmacy", "tourism": null, "beds": null, "name": "Watsons", "opening_hours": "Mo-Su 08:00-21:00", "shop": "chemist", "rooms": null}},{"type": "Feature", "geometry": {"type":"Point","coordinates":[121.0486209,14.5737793]}, "properties": {"osm_id": 11375079373, "osm_type": "nodes", "amenity": "restaurant", "tourism": null, "beds": null, "name": "Egg Drop MNL", "opening_hours": null, "shop": null, "rooms": null}},{"type": "Feature", "geometry": {"type":"Point","coordinates":[121.0350228,14.5774888]}, "properties": {"osm_id": 10595296155, "osm_type": "nodes", "amenity": null, "tourism": null, "beds": null, "name": "Kitchen City", "opening_hours": null, "shop": "frozen_food", "rooms": null}},{"type": "Feature", "geometry": {"type":"Point","coordinates":[121.051228,14.5709839]}, "properties": {"osm_id": 7450782078, "osm_type": "nodes", "amenity": "fast_food", "tourism": null, "beds": null, "name": "KFC", "opening_hours": "24/7", "shop": null, "rooms": null}},{"type": "Feature", "geometry": {"type":"Point","coordinates":[121.0356172,14.5791284]}, "properties": {"osm_id": 5948634409, "osm_type": "nodes", "amenity": null, "tourism": null, "beds": null, "name": "M Lhuillier", "opening_hours": null, "shop": "pawnbroker", "rooms": null}},{"type": "Feature", "geometry": {"type":"Point","coordinates":[121.0297052,14.5925476]}, "properties": {"osm_id": 5818161823, "osm_type": "nodes", "amenity": "pharmacy", "tourism": null, "beds": null, "name": "Watsons", "opening_hours": null, "shop": "chemist", "rooms": null}},{"type": "Feature", "geometry": {"type":"Point","coordinates":[121.0418185,14.5754915]}, "properties": {"osm_id": 1390525937, "osm_type": "nodes", "amenity": "fast_food", "tourism": null, "beds": null, "name": "Jollibee", "opening_hours": null, "shop": null, "rooms": null}},{"type": "Feature", "geometry": {"type":"Point","coordinates":[121.0456641,14.5702909]}, "properties": {"osm_id": 6011976354, "osm_type": "nodes", "amenity": null, "tourism": null, "beds": null, "name": "Amy Store", "opening_hours": null, "shop": "convenience", "rooms": null}},{"type": "Feature", "geometry": {"type":"Point","coordinates":[121.0296892,14.58126]}, "properties": {"osm_id": 4111838798, "osm_type": "nodes", "amenity": null, "tourism": null, "beds": null, "name": "LIC INTERNET CAFE", "opening_hours": null, "shop": "computer", "rooms": null}},{"type": "Feature", "geometry": {"type":"Point","coordinates":[121.0593677,14.5978562]}, "properties": {"osm_id": 363027920, "osm_type": "nodes", "amenity": "restaurant", "tourism": null, "beds": null, "name": "Salt & Pepper", "opening_hours": null, "shop": null, "rooms": null}},{"type": "Feature", "geometry": {"type":"Point","coordinates":[121.0372955,14.5920451]}, "properties": {"osm_id": 12922541039, "osm_type": "nodes", "amenity": null, "tourism": null, "beds": null, "name": "Quirk Furniture Collective", "opening_hours": "Mo-Fr 08:00-18:00; Su off; Sa \"By appointment\"", "shop": null, "rooms": null}},{"type": "Feature", "geometry": {"type":"Point","coordinates":[121.0468496,14.5865065]}, "properties": {"osm_id": 12941617122, "osm_type": "nodes", "amenity": null, "tourism": null, "beds": null, "name": "New Wintex Fabrics", "opening_hours": null, "shop": "fabric", "rooms": null}},{"type": "Feature", "geometry": {"type":"Point","coordinates":[121.0542932,14.5782622]}, "properties": {"osm_id": 2393437794, "osm_type": "nodes", "amenity": "restaurant", "tourism": null, "beds": null, "name": "Mr Beef & Noodles", "opening_hours": null, "shop": null, "rooms": null}},{"type": "Feature", "geometry": {"type":"Point","coordinates":[121.0368094,14.5904437]}, "properties": {"osm_id": 12642824339, "osm_type": "nodes", "amenity": "fast_food", "tourism": null, "beds": null, "name": "Town Kitchen", "opening_hours": "24/7", "shop": null, "rooms": null}},{"type": "Feature", "geometry": {"type":"Point","coordinates":[121.048301,14.5858925]}, "properties": {"osm_id": 13025855786, "osm_type": "nodes", "amenity": "restaurant", "tourism": null, "beds": null, "name": "Seoul Delightful", "opening_hours": null, "shop": null, "rooms": null}},{"type": "Feature", "geometry": {"type":"Point","coordinates":[121.0411987,14.5884334]}, "properties": {"osm_id": 12151875748, "osm_type": "nodes", "amenity": null, "tourism": null, "beds": null, "name": "Plain Sight Coffee Roasters", "opening_hours": "Mo-Su 10:00-18:00", "shop": "coffee", "rooms": null}},{"type": "Feature", "geometry": {"type":"Point","coordinates":[121.0432164,14.5888329]}, "properties": {"osm_id": 3491213278, "osm_type": "nodes", "amenity": "restaurant", "tourism": null, "beds": null, "name": "Yellow Cab", "opening_hours": null, "shop": null, "rooms": null}},{"type": "Feature", "geometry": {"type":"Point","coordinates":[121.0430755,14.5888654]}, "properties": {"osm_id": 13025856436, "osm_type": "nodes", "amenity": "cafe", "tourism": null, "beds": null, "name": "Samantha's Café", "opening_hours": null, "shop": null, "rooms": null}},{"type": "Feature", "geometry": {"type":"Point","coordinates":[121.0601526,14.5817084]}, "properties": {"osm_id": 13049138991, "osm_type": "nodes", "amenity": null, "tourism": null, "beds": null, "name": "Lawson", "opening_hours": "24/7", "shop": "convenience", "rooms": null}},{"type": "Feature", "geometry": {"type":"Point","coordinates":[121.034879,14.5899712]}, "properties": {"osm_id": 13059287318, "osm_type": "nodes", "amenity": "fast_food", "tourism": null, "beds": null, "name": "Bowl Appetit", "opening_hours": null, "shop": null, "rooms": null}},{"type": "Feature", "geometry": {"type":"Point","coordinates":[121.0323463,14.5761957]}, "properties": {"osm_id": 13061115383, "osm_type": "nodes", "amenity": null, "tourism": null, "beds": null, "name": "Pagasa Philippines Finance Corporation", "opening_hours": null, "shop": null, "rooms": null}},{"type": "Feature", "geometry": {"type":"Point","coordinates":[121.044255,14.5717392]}, "properties": {"osm_id": 10302184609, "osm_type": "nodes", "amenity": null, "tourism": "apartment", "beds": null, "name": "Heart's Dorm", "opening_hours": null, "shop": null, "rooms": null}},{"type": "Feature", "geometry": {"type":"Point","coordinates":[121.0568957,14.58288]}, "properties": {"osm_id": 6516600480, "osm_type": "nodes", "amenity": null, "tourism": null, "beds": null, "name": "Bangs Salon", "opening_hours": null, "shop": "hairdresser", "rooms": null}},{"type": "Feature", "geometry": {"type":"Point","coordinates":[121.0525637,14.5807143]}, "properties": {"osm_id": 4989291472, "osm_type": "nodes", "amenity": null, "tourism": null, "beds": null, "name": "7-Eleven", "opening_hours": null, "shop": "convenience", "rooms": null}},{"type": "Feature", "geometry": {"type":"Point","coordinates":[121.0532232,14.5812576]}, "properties": {"osm_id": 1663999093, "osm_type": "nodes", "amenity": "fast_food", "tourism": null, "beds": null, "name": "Dunkin'", "opening_hours": "24/7", "shop": null, "rooms": null}},{"type": "Feature", "geometry": {"type":"Point","coordinates":[121.05243,14.5706639]}, "properties": {"osm_id": 2139479033, "osm_type": "nodes", "amenity": "fast_food", "tourism": null, "beds": null, "name": "RFM Canteen", "opening_hours": null, "shop": null, "rooms": null}},{"type": "Feature", "geometry": {"type":"Point","coordinates":[121.0519812,14.5702341]}, "properties": {"osm_id": 4443269789, "osm_type": "nodes", "amenity": "restaurant", "tourism": null, "beds": null, "name": "Sonsi", "opening_hours": null, "shop": null, "rooms": null}},{"type": "Feature", "geometry": {"type":"Point","coordinates":[121.0594843,14.5856427]}, "properties": {"osm_id": 813135850, "osm_type": "nodes", "amenity": "cafe", "tourism": null, "beds": null, "name": "Café Breton", "opening_hours": null, "shop": null, "rooms": null}},{"type": "Feature", "geometry": {"type":"Point","coordinates":[121.0580552,14.5858346]}, "properties": {"osm_id": 7548625934, "osm_type": "nodes", "amenity": "fast_food", "tourism": null, "beds": null, "name": "Master Siomai", "opening_hours": null, "shop": null, "rooms": null}},{"type": "Feature", "geometry": {"type":"Point","coordinates":[121.0580559,14.5856257]}, "properties": {"osm_id": 2810385193, "osm_type": "nodes", "amenity": "fast_food", "tourism": null, "beds": null, "name": "Andok's", "opening_hours": "24/7", "shop": null, "rooms": null}},{"type": "Feature", "geometry": {"type":"Point","coordinates":[121.0576118,14.5854529]}, "properties": {"osm_id": 6707380286, "osm_type": "nodes", "amenity": null, "tourism": null, "beds": null, "name": "Pet Express", "opening_hours": null, "shop": "pet", "rooms": null}},{"type": "Feature", "geometry": {"type":"Point","coordinates":[121.0569457,14.585329]}, "properties": {"osm_id": 10277184327, "osm_type": "nodes", "amenity": null, "tourism": null, "beds": null, "name": "BreadTalk", "opening_hours": null, "shop": "bakery", "rooms": null}},{"type": "Feature", "geometry": {"type":"Point","coordinates":[121.056446,14.5851244]}, "properties": {"osm_id": 5135393422, "osm_type": "nodes", "amenity": null, "tourism": null, "beds": null, "name": "Department of Foreign Affairs - North East", "opening_hours": null, "shop": null, "rooms": null}},{"type": "Feature", "geometry": {"type":"Point","coordinates":[121.0575229,14.5851776]}, "properties": {"osm_id": 1435156680, "osm_type": "nodes", "amenity": null, "tourism": null, "beds": null, "name": "The SM Store", "opening_hours": null, "shop": "department_store", "rooms": null}},{"type": "Feature", "geometry": {"type":"Point","coordinates":[121.0588292,14.5846604]}, "properties": {"osm_id": 6707415585, "osm_type": "nodes", "amenity": "restaurant", "tourism": null, "beds": null, "name": "Ça Va", "opening_hours": null, "shop": null, "rooms": null}},{"type": "Feature", "geometry": {"type":"Point","coordinates":[121.0406855,14.5853779]}, "properties": {"osm_id": 6076683006, "osm_type": "nodes", "amenity": null, "tourism": null, "beds": null, "name": "Head of Social Service Office", "opening_hours": null, "shop": null, "rooms": null}},{"type": "Feature", "geometry": {"type":"Point","coordinates":[121.0358472,14.5855511]}, "properties": {"osm_id": 9121425222, "osm_type": "nodes", "amenity": null, "tourism": null, "beds": null, "name": "Metro Manila Center For Health Development", "opening_hours": null, "shop": null, "rooms": null}},{"type": "Feature", "geometry": {"type":"Point","coordinates":[121.0356702,14.5855212]}, "properties": {"osm_id": 9121425223, "osm_type": "nodes", "amenity": null, "tourism": null, "beds": null, "name": "DOH National Capital Regional Office", "opening_hours": null, "shop": null, "rooms": null}},{"type": "Feature", "geometry": {"type":"Point","coordinates":[121.0370613,14.5841292]}, "properties": {"osm_id": 9537480302, "osm_type": "nodes", "amenity": null, "tourism": null, "beds": null, "name": "Alim Hardware", "opening_hours": null, "shop": "trade", "rooms": null}},{"type": "Feature", "geometry": {"type":"Point","coordinates":[121.0463145,14.5847022]}, "properties": {"osm_id": 6564734428, "osm_type": "nodes", "amenity": null, "tourism": null, "beds": null, "name": null, "opening_hours": null, "shop": "laundry", "rooms": null}},{"type": "Feature", "geometry": {"type":"Point","coordinates":[121.0452175,14.5844745]}, "properties": {"osm_id": 9756145415, "osm_type": "nodes", "amenity": null, "tourism": null, "beds": null, "name": "Select", "opening_hours": null, "shop": "convenience", "rooms": null}},{"type": "Feature", "geometry": {"type":"Point","coordinates":[121.0452732,14.5843336]}, "properties": {"osm_id": 9756145414, "osm_type": "nodes", "amenity": null, "tourism": null, "beds": null, "name": "Helix Service Center", "opening_hours": null, "shop": "car_repair", "rooms": null}},{"type": "Feature", "geometry": {"type":"Point","coordinates":[121.045589,14.5841609]}, "properties": {"osm_id": 6351447490, "osm_type": "nodes", "amenity": null, "tourism": null, "beds": null, "name": null, "opening_hours": null, "shop": "outdoor", "rooms": null}},{"type": "Feature", "geometry": {"type":"Point","coordinates":[121.0448878,14.5838016]}, "properties": {"osm_id": 4352142095, "osm_type": "nodes", "amenity": null, "tourism": null, "beds": null, "name": "tfe sales marketing", "opening_hours": null, "shop": "hardware", "rooms": null}},{"type": "Feature", "geometry": {"type":"Point","coordinates":[121.0371893,14.5834822]}, "properties": {"osm_id": 9537480297, "osm_type": "nodes", "amenity": null, "tourism": null, "beds": null, "name": "Rose Store", "opening_hours": null, "shop": "convenience", "rooms": null}},{"type": "Feature", "geometry": {"type":"Point","coordinates":[121.0455183,14.5822551]}, "properties": {"osm_id": 6565328389, "osm_type": "nodes", "amenity": null, "tourism": null, "beds": null, "name": null, "opening_hours": null, "shop": "convenience", "rooms": null}},{"type": "Feature", "geometry": {"type":"Point","coordinates":[121.0454774,14.582258]}, "properties": {"osm_id": 6565328390, "osm_type": "nodes", "amenity": null, "tourism": null, "beds": null, "name": null, "opening_hours": null, "shop": "convenience", "rooms": null}},{"type": "Feature", "geometry": {"type":"Point","coordinates":[121.0430933,14.5796294]}, "properties": {"osm_id": 2560859155, "osm_type": "nodes", "amenity": "fast_food", "tourism": null, "beds": null, "name": "Chekwa", "opening_hours": null, "shop": null, "rooms": null}},{"type": "Feature", "geometry": {"type":"Point","coordinates":[121.0443497,14.5800641]}, "properties": {"osm_id": 8862188117, "osm_type": "nodes", "amenity": null, "tourism": null, "beds": null, "name": null, "opening_hours": null, "shop": "laundry", "rooms": null}},{"type": "Feature", "geometry": {"type":"Point","coordinates":[121.0374364,14.5856484]}, "properties": {"osm_id": 9537494728, "osm_type": "nodes", "amenity": null, "tourism": null, "beds": null, "name": "Phoenix Super LPG", "opening_hours": null, "shop": "gas", "rooms": null}},