{"type": "FeatureCollection","features": [{"type": "Feature", "geometry": {"type":"Point","coordinates":[120.9634431,14.6320251]}, "properties": {"osm_id": 4796393821, "osm_type": "nodes", "amenity": null, "tourism": null, "beds": null, "name": "Victoriano ent corp", "opening_hours": null, "shop": "hardware", "rooms": null}},{"type": "Feature", "geometry": {"type":"Point","coordinates":[120.9466184,14.6319736]}, "properties": {"osm_id": 4172536090, "osm_type": "nodes", "amenity": null, "tourism": null, "beds": null, "name": "Mama Tina Pasta Company Inc.", "opening_hours": null, "shop": null, "rooms": null}},{"type": "Feature", "geometry": {"type":"Point","coordinates":[120.9651217,14.6285925]}, "properties": {"osm_id": 4893458021, "osm_type": "nodes", "amenity": null, "tourism": null, "beds": null, "name": "Victor cargo", "opening_hours": "Mo-Sa 09:00-17:00", "shop": null, "rooms": null}},{"type": "Feature", "geometry": {"type":"Point","coordinates":[120.9654133,14.627615]}, "properties": {"osm_id": 4805957921, "osm_type": "nodes", "amenity": null, "tourism": null, "beds": null, "name": "Builders", "opening_hours": null, "shop": "hardware", "rooms": null}},{"type": "Feature", "geometry": {"type":"Point","coordinates":[120.9638466,14.6233332]}, "properties": {"osm_id": 10809270505, "osm_type": "nodes", "amenity": "fast_food", "tourism": null, "beds": null, "name": "Ugbo Street Food", "opening_hours": null, "shop": null, "rooms": null}},{"type": "Feature", "geometry": {"type":"Point","coordinates":[120.9621452,14.6222881]}, "properties": {"osm_id": 7353370776, "osm_type": "nodes", "amenity": null, "tourism": null, "beds": null, "name": null, "opening_hours": null, "shop": "laundry", "rooms": null}},{"type": "Feature", "geometry": {"type":"Point","coordinates":[120.9621401,14.6224145]}, "properties": {"osm_id": 7353387185, "osm_type": "nodes", "amenity": null, "tourism": null, "beds": null, "name": null, "opening_hours": null, "shop": "general", "rooms": null}},{"type": "Feature", "geometry": {"type":"Point","coordinates":[120.9651815,14.6217417]}, "properties": {"osm_id": 5631788022, "osm_type": "nodes", "amenity": null, "tourism": null, "beds": null, "name": "Shovel & Pail", "opening_hours": null, "shop": "hardware", "rooms": null}},{"type": "Feature", "geometry": {"type":"Point","coordinates":[120.9635226,14.621656]}, "properties": {"osm_id": 7353402485, "osm_type": "nodes", "amenity": null, "tourism": null, "beds": null, "name": "Aqua Best Water Station", "opening_hours": null, "shop": "water", "rooms": null}},{"type": "Feature", "geometry": {"type":"Point","coordinates":[120.9617508,14.6199137]}, "properties": {"osm_id": 4398393890, "osm_type": "nodes", "amenity": null, "tourism": null, "beds": null, "name": "Jonis Trading", "opening_hours": null, "shop": null, "rooms": null}},{"type": "Feature", "geometry": {"type":"Point","coordinates":[120.9636173,14.6181684]}, "properties": {"osm_id": 9973655516, "osm_type": "nodes", "amenity": null, "tourism": null, "beds": null, "name": "Jobeth", "opening_hours": null, "shop": "bicycle", "rooms": null}},{"type": "Feature", "geometry": {"type":"Point","coordinates":[120.9636683,14.618182]}, "properties": {"osm_id": 9973655515, "osm_type": "nodes", "amenity": null, "tourism": null, "beds": null, "name": null, "opening_hours": null, "shop": "bakery", "rooms": null}},{"type": "Feature", "geometry": {"type":"Point","coordinates":[120.9644208,14.618463]}, "properties": {"osm_id": 5180368021, "osm_type": "nodes", "amenity": "bar", "tourism": null, "beds": null, "name": "SOSIMUSARAP", "opening_hours": null, "shop": null, "rooms": null}},{"type": "Feature", "geometry": {"type":"Point","coordinates":[120.9643601,14.6184667]}, "properties": {"osm_id": 5180368223, "osm_type": "nodes", "amenity": null, "tourism": null, "beds": null, "name": "Bee and Xanne Mktg.", "opening_hours": null, "shop": null, "rooms": null}},{"type": "Feature", "geometry": {"type":"Point","coordinates":[120.9645733,14.6185079]}, "properties": {"osm_id": 5180368221, "osm_type": "nodes", "amenity": null, "tourism": null, "beds": null, "name": "Motormorphosis", "opening_hours": null, "shop": "motorcycle", "rooms": null}},{"type": "Feature", "geometry": {"type":"Point","coordinates":[120.9628912,14.6186007]}, "properties": {"osm_id": 4914024121, "osm_type": "nodes", "amenity": null, "tourism": "guest_house", "beds": null, "name": null, "opening_hours": null, "shop": null, "rooms": null}},{"type": "Feature", "geometry": {"type":"Point","coordinates":[120.9659893,14.6187016]}, "properties": {"osm_id": 1900350686, "osm_type": "nodes", "amenity": null, "tourism": null, "beds": null, "name": "New Albarose Enterprises", "opening_hours": "Mo-Sa 08:00-17:00;Su 08:00-12:00", "shop": "hardware", "rooms": null}},{"type": "Feature", "geometry": {"type":"Point","coordinates":[120.9634504,14.6181528]}, "properties": {"osm_id": 9973658318, "osm_type": "nodes", "amenity": null, "tourism": null, "beds": null, "name": "Arjhen Cycle Parts", "opening_hours": null, "shop": "motorcycle", "rooms": null}},{"type": "Feature", "geometry": {"type":"Point","coordinates":[120.9954521,14.5646554]}, "properties": {"osm_id": 5485530821, "osm_type": "nodes", "amenity": null, "tourism": "hotel", "beds": null, "name": "Friedenshaus Hotel School", "opening_hours": null, "shop": null, "rooms": null}},{"type": "Feature", "geometry": {"type":"Point","coordinates":[120.9945162,14.5647541]}, "properties": {"osm_id": 4334684690, "osm_type": "nodes", "amenity": "restaurant", "tourism": null, "beds": null, "name": "Flaming Wings", "opening_hours": null, "shop": null, "rooms": null}},{"type": "Feature", "geometry": {"type":"Point","coordinates":[120.9950382,14.5648073]}, "properties": {"osm_id": 10603857241, "osm_type": "nodes", "amenity": null, "tourism": null, "beds": null, "name": null, "opening_hours": null, "shop": "bakery", "rooms": null}},{"type": "Feature", "geometry": {"type":"Point","coordinates":[120.9954072,14.5647593]}, "properties": {"osm_id": 6690280786, "osm_type": "nodes", "amenity": null, "tourism": "hotel", "beds": null, "name": "RED DOORZ PLUS", "opening_hours": null, "shop": null, "rooms": null}},{"type": "Feature", "geometry": {"type":"Point","coordinates":[120.9947303,14.5653945]}, "properties": {"osm_id": 2394631555, "osm_type": "nodes", "amenity": "restaurant", "tourism": null, "beds": null, "name": "Gravy Fix", "opening_hours": null, "shop": null, "rooms": null}},{"type": "Feature", "geometry": {"type":"Point","coordinates":[120.9960518,14.5652886]}, "properties": {"osm_id": 6055171086, "osm_type": "nodes", "amenity": "restaurant", "tourism": null, "beds": null, "name": "Bon Appetea", "opening_hours": null, "shop": null, "rooms": null}},{"type": "Feature", "geometry": {"type":"Point","coordinates":[120.9951549,14.5649454]}, "properties": {"osm_id": 6602765235, "osm_type": "nodes", "amenity": "fast_food", "tourism": null, "beds": null, "name": "24 Chicken", "opening_hours": null, "shop": null, "rooms": null}},{"type": "Feature", "geometry": {"type":"Point","coordinates":[120.9951632,14.5649628]}, "properties": {"osm_id": 5102404921, "osm_type": "nodes", "amenity": "restaurant", "tourism": null, "beds": null, "name": "Samgyopsalamat", "opening_hours": null, "shop": null, "rooms": null}},{"type": "Feature", "geometry": {"type":"Point","coordinates":[120.9951562,14.5649955]}, "properties": {"osm_id": 4755616176, "osm_type": "nodes", "amenity": null, "tourism": null, "beds": null, "name": "Sinensis spa", "opening_hours": null, "shop": "cosmetics", "rooms": null}},{"type": "Feature", "geometry": {"type":"Point","coordinates":[120.9961285,14.5653479]}, "properties": {"osm_id": 6678154185, "osm_type": "nodes", "amenity": "fast_food", "tourism": null, "beds": null, "name": "Boy Shawarma", "opening_hours": null, "shop": null, "rooms": null}},{"type": "Feature", "geometry": {"type":"Point","coordinates":[120.9980838,14.5646047]}, "properties": {"osm_id": 5683687024, "osm_type": "nodes", "amenity": null, "tourism": null, "beds": null, "name": null, "opening_hours": null, "shop": "laundry", "rooms": null}},{"type": "Feature", "geometry": {"type":"Point","coordinates":[120.9986433,14.5640557]}, "properties": {"osm_id": 6237243785, "osm_type": "nodes", "amenity": null, "tourism": "hostel", "beds": null, "name": "Ola! Hostel Manila", "opening_hours": null, "shop": null, "rooms": null}},{"type": "Feature", "geometry": {"type":"Point","coordinates":[120.9982607,14.5640639]}, "properties": {"osm_id": 4509682495, "osm_type": "nodes", "amenity": null, "tourism": null, "beds": null, "name": "Barko International", "opening_hours": null, "shop": null, "rooms": null}},{"type": "Feature", "geometry": {"type":"Point","coordinates":[120.994666,14.564423]}, "properties": {"osm_id": 6602765237, "osm_type": "nodes", "amenity": null, "tourism": null, "beds": null, "name": "Needle Juice", "opening_hours": null, "shop": "tattoo", "rooms": null}},{"type": "Feature", "geometry": {"type":"Point","coordinates":[120.9973231,14.5634839]}, "properties": {"osm_id": 4334860891, "osm_type": "nodes", "amenity": null, "tourism": null, "beds": null, "name": "Dexact Photo & Graphic Services", "opening_hours": null, "shop": "photo", "rooms": null}},{"type": "Feature", "geometry": {"type":"Point","coordinates":[120.9975037,14.5638]}, "properties": {"osm_id": 6591074880, "osm_type": "nodes", "amenity": "townhall", "tourism": null, "beds": null, "name": "Barangay 728 Zone 9 Hall", "opening_hours": "24/7", "shop": null, "rooms": null}},{"type": "Feature", "geometry": {"type":"Point","coordinates":[120.9967191,14.5632182]}, "properties": {"osm_id": 6602370653, "osm_type": "nodes", "amenity": "restaurant", "tourism": null, "beds": null, "name": "Samgyupsamalat", "opening_hours": null, "shop": null, "rooms": null}},{"type": "Feature", "geometry": {"type":"Point","coordinates":[120.9962704,14.5630411]}, "properties": {"osm_id": 7635025739, "osm_type": "nodes", "amenity": null, "tourism": null, "beds": null, "name": "7-Eleven", "opening_hours": null, "shop": "convenience", "rooms": null}},{"type": "Feature", "geometry": {"type":"Point","coordinates":[120.9965625,14.5627512]}, "properties": {"osm_id": 7049527388, "osm_type": "nodes", "amenity": null, "tourism": "museum", "beds": null, "name": "Museum of Contemporary Art and Design", "opening_hours": null, "shop": null, "rooms": null}},{"type": "Feature", "geometry": {"type":"Point","coordinates":[120.9961109,14.5629681]}, "properties": {"osm_id": 6757945330, "osm_type": "nodes", "amenity": null, "tourism": null, "beds": null, "name": "Fortunes Mart", "opening_hours": null, "shop": "supermarket", "rooms": null}},{"type": "Feature", "geometry": {"type":"Point","coordinates":[120.9952801,14.5629847]}, "properties": {"osm_id": 5350202122, "osm_type": "nodes", "amenity": null, "tourism": null, "beds": null, "name": "Red Ribbon", "opening_hours": "Mo-Su 07:00-20:00", "shop": "bakery", "rooms": null}},{"type": "Feature", "geometry": {"type":"Point","coordinates":[120.9948068,14.562958]}, "properties": {"osm_id": 4952271372, "osm_type": "nodes", "amenity": null, "tourism": null, "beds": null, "name": "All Day", "opening_hours": null, "shop": "convenience", "rooms": null}},{"type": "Feature", "geometry": {"type":"Point","coordinates":[120.9952798,14.5630136]}, "properties": {"osm_id": 1740377672, "osm_type": "nodes", "amenity": "fast_food", "tourism": null, "beds": null, "name": "Mang Inasal", "opening_hours": null, "shop": null, "rooms": null}},{"type": "Feature", "geometry": {"type":"Point","coordinates":[120.9945998,14.5631775]}, "properties": {"osm_id": 5225147366, "osm_type": "nodes", "amenity": null, "tourism": null, "beds": null, "name": "7-Eleven", "opening_hours": "24/7", "shop": "convenience", "rooms": null}},{"type": "Feature", "geometry": {"type":"Point","coordinates":[120.9950426,14.5633269]}, "properties": {"osm_id": 10177452717, "osm_type": "nodes", "amenity": "fast_food", "tourism": null, "beds": null, "name": "Dunkin'", "opening_hours": null, "shop": null, "rooms": null}},{"type": "Feature", "geometry": {"type":"Point","coordinates":[120.9973856,14.6136035]}, "properties": {"osm_id": 4158760090, "osm_type": "nodes", "amenity": "restaurant", "tourism": null, "beds": null, "name": "Plane Bistro", "opening_hours": "Mo-Su 11:00-23:00", "shop": null, "rooms": null}},{"type": "Feature", "geometry": {"type":"Point","coordinates":[120.9955779,14.6124669]}, "properties": {"osm_id": 10148653498, "osm_type": "nodes", "amenity": null, "tourism": null, "beds": null, "name": "Regasco", "opening_hours": null, "shop": "gas", "rooms": null}},{"type": "Feature", "geometry": {"type":"Point","coordinates":[120.9955769,14.6116806]}, "properties": {"osm_id": 4175737294, "osm_type": "nodes", "amenity": null, "tourism": null, "beds": null, "name": null, "opening_hours": null, "shop": "car_repair", "rooms": null}},{"type": "Feature", "geometry": {"type":"Point","coordinates":[120.9953898,14.6122996]}, "properties": {"osm_id": 8276884237, "osm_type": "nodes", "amenity": null, "tourism": null, "beds": null, "name": "WiWash Laundry Hub", "opening_hours": null, "shop": "laundry", "rooms": null}},{"type": "Feature", "geometry": {"type":"Point","coordinates":[120.9951225,14.61205]}, "properties": {"osm_id": 8273973717, "osm_type": "nodes", "amenity": null, "tourism": null, "beds": null, "name": "Red Images Timeless Photography", "opening_hours": null, "shop": "photo", "rooms": null}},{"type": "Feature", "geometry": {"type":"Point","coordinates":[120.9949795,14.6119314]}, "properties": {"osm_id": 8276877164, "osm_type": "nodes", "amenity": "restaurant", "tourism": null, "beds": null, "name": "Pares Laksa-Mami House", "opening_hours": null, "shop": null, "rooms": null}},{"type": "Feature", "geometry": {"type":"Point","coordinates":[120.9951676,14.6106881]}, "properties": {"osm_id": 4175661193, "osm_type": "nodes", "amenity": "fast_food", "tourism": null, "beds": null, "name": "Jollibee", "opening_hours": "Mo-Su 10:00-22:00", "shop": null, "rooms": null}},{"type": "Feature", "geometry": {"type":"Point","coordinates":[120.9962363,14.6107891]}, "properties": {"osm_id": 4175941589, "osm_type": "nodes", "amenity": null, "tourism": null, "beds": null, "name": "24k", "opening_hours": "24/7", "shop": "bakery", "rooms": null}},{"type": "Feature", "geometry": {"type":"Point","coordinates":[120.9980911,14.6104547]}, "properties": {"osm_id": 7502345885, "osm_type": "nodes", "amenity": null, "tourism": null, "beds": null, "name": "Levy", "opening_hours": null, "shop": "bicycle", "rooms": null}},{"type": "Feature", "geometry": {"type":"Point","coordinates":[120.9961955,14.6110406]}, "properties": {"osm_id": 4175972591, "osm_type": "nodes", "amenity": "fast_food", "tourism": null, "beds": null, "name": "Tres-e Eatery", "opening_hours": "Mo-Su 10:00-22:00", "shop": null, "rooms": null}},{"type": "Feature", "geometry": {"type":"Point","coordinates":[120.9956436,14.6202122]}, "properties": {"osm_id": 8732496177, "osm_type": "nodes", "amenity": "fast_food", "tourism": null, "beds": null, "name": "Bulaloan sa Laon Laan", "opening_hours": null, "shop": null, "rooms": null}},{"type": "Feature", "geometry": {"type":"Point","coordinates":[120.9957296,14.6203214]}, "properties": {"osm_id": 10104802817, "osm_type": "nodes", "amenity": "restaurant", "tourism": null, "beds": null, "name": "Bulaluhan sa Laon Laan", "opening_hours": null, "shop": null, "rooms": null}},{"type": "Feature", "geometry": {"type":"Point","coordinates":[120.9966058,14.6191592]}, "properties": {"osm_id": 8763523826, "osm_type": "nodes", "amenity": null, "tourism": null, "beds": null, "name": "Lola Esing Bakery", "opening_hours": null, "shop": "bakery", "rooms": null}},{"type": "Feature", "geometry": {"type":"Point","coordinates":[120.9963705,14.6191235]}, "properties": {"osm_id": 8763523824, "osm_type": "nodes", "amenity": null, "tourism": null, "beds": null, "name": "Franz Paint Center", "opening_hours": null, "shop": "paint", "rooms": null}},{"type": "Feature", "geometry": {"type":"Point","coordinates":[120.9982406,14.618485]}, "properties": {"osm_id": 9283610311, "osm_type": "nodes", "amenity": null, "tourism": null, "beds": null, "name": "JKTM Auto Cycle Shop", "opening_hours": null, "shop": "motorcycle", "rooms": null}},{"type": "Feature", "geometry": {"type":"Point","coordinates":[120.9982628,14.6184136]}, "properties": {"osm_id": 9283610310, "osm_type": "nodes", "amenity": "fast_food", "tourism": null, "beds": null, "name": "Pares Street", "opening_hours": null, "shop": null, "rooms": null}},{"type": "Feature", "geometry": {"type":"Point","coordinates":[120.9958474,14.6186414]}, "properties": {"osm_id": 8763523823, "osm_type": "nodes", "amenity": null, "tourism": null, "beds": null, "name": "2075 Store", "opening_hours": null, "shop": "convenience", "rooms": null}},{"type": "Feature", "geometry": {"type":"Point","coordinates":[120.9949113,14.6175494]}, "properties": {"osm_id": 8763523821, "osm_type": "nodes", "amenity": "fast_food", "tourism": null, "beds": null, "name": "Baliwag Lechon", "opening_hours": null, "shop": null, "rooms": null}},{"type": "Feature", "geometry": {"type":"Point","coordinates":[120.994959,14.6178238]}, "properties": {"osm_id": 8763766161, "osm_type": "nodes", "amenity": null, "tourism": null, "beds": null, "name": null, "opening_hours": null, "shop": "greengrocer", "rooms": null}},{"type": "Feature", "geometry": {"type":"Point","coordinates":[120.9950636,14.617731]}, "properties": {"osm_id": 8763766162, "osm_type": "nodes", "amenity": "fast_food", "tourism": null, "beds": null, "name": "Chooks to Go", "opening_hours": null, "shop": null, "rooms": null}},{"type": "Feature", "geometry": {"type":"Point","coordinates":[120.998824,14.6174086]}, "properties": {"osm_id": 9283610305, "osm_type": "nodes", "amenity": null, "tourism": null, "beds": null, "name": "Mightee Mart", "opening_hours": null, "shop": "convenience", "rooms": null}},{"type": "Feature", "geometry": {"type":"Point","coordinates":[120.9958953,14.616484]}, "properties": {"osm_id": 4948021789, "osm_type": "nodes", "amenity": null, "tourism": null, "beds": null, "name": "Ivan's Wood Furniture", "opening_hours": "08:00-21:00", "shop": "furniture", "rooms": null}},{"type": "Feature", "geometry": {"type":"Point","coordinates":[120.9997916,14.616299]}, "properties": {"osm_id": 9283649395, "osm_type": "nodes", "amenity": null, "tourism": null, "beds": null, "name": "Boogie-Boogie Ukay-Ukay", "opening_hours": null, "shop": "clothes", "rooms": null}},{"type": "Feature", "geometry": {"type":"Point","coordinates":[120.999736,14.6162458]}, "properties": {"osm_id": 9283649394, "osm_type": "nodes", "amenity": null, "tourism": null, "beds": null, "name": "ACH Tiles Center", "opening_hours": null, "shop": "trade", "rooms": null}},{"type": "Feature", "geometry": {"type":"Point","coordinates":[120.9996032,14.6161193]}, "properties": {"osm_id": 9283649391, "osm_type": "nodes", "amenity": null, "tourism": null, "beds": null, "name": "BubbleBoy", "opening_hours": null, "shop": "laundry", "rooms": null}},{"type": "Feature", "geometry": {"type":"Point","coordinates":[120.9995368,14.6160635]}, "properties": {"osm_id": 9283649392, "osm_type": "nodes", "amenity": null, "tourism": null, "beds": null, "name": "Mitsukoshi", "opening_hours": null, "shop": "motorcycle", "rooms": null}},{"type": "Feature", "geometry": {"type":"Point","coordinates":[120.9993484,14.6158825]}, "properties": {"osm_id": 9283649388, "osm_type": "nodes", "amenity": "restaurant", "tourism": null, "beds": null, "name": "Pares Mami House", "opening_hours": null, "shop": null, "rooms": null}},{"type": "Feature", "geometry": {"type":"Point","coordinates":[120.9991803,14.6150156]}, "properties": {"osm_id": 10079584692, "osm_type": "nodes", "amenity": "cafe", "tourism": null, "beds": null, "name": "Dunkin Donut Petron - España", "opening_hours": null, "shop": null, "rooms": null}},{"type": "Feature", "geometry": {"type":"Point","coordinates":[120.998763,14.6148742]}, "properties": {"osm_id": 9283682481, "osm_type": "nodes", "amenity": null, "tourism": null, "beds": null, "name": "Super Sale Auto Supply", "opening_hours": null, "shop": "car_parts", "rooms": null}},{"type": "Feature", "geometry": {"type":"Point","coordinates":[120.9987169,14.614831]}, "properties": {"osm_id": 4679251189, "osm_type": "nodes", "amenity": "restaurant", "tourism": null, "beds": null, "name": "Carmen's Diner", "opening_hours": "24/7", "shop": null, "rooms": null}},{"type": "Feature", "geometry": {"type":"Point","coordinates":[120.9982185,14.6143427]}, "properties": {"osm_id": 9283682482, "osm_type": "nodes", "amenity": "fast_food", "tourism": null, "beds": null, "name": "Tokyo Tokyo", "opening_hours": null, "shop": null, "rooms": null}},{"type": "Feature", "geometry": {"type":"Point","coordinates":[120.9984693,14.6141572]}, "properties": {"osm_id": 9283682483, "osm_type": "nodes", "amenity": null, "tourism": null, "beds": null, "name": "Motolite", "opening_hours": null, "shop": "car_repair", "rooms": null}},{"type": "Feature", "geometry": {"type":"Point","coordinates":[120.9975408,14.6142525]}, "properties": {"osm_id": 9521332444, "osm_type": "nodes", "amenity": null, "tourism": null, "beds": null, "name": "Chayong Frozen Food Trading", "opening_hours": null, "shop": "deli", "rooms": null}},{"type": "Feature", "geometry": {"type":"Point","coordinates":[120.9987359,14.617065]}, "properties": {"osm_id": 6810401686, "osm_type": "nodes", "amenity": null, "tourism": null, "beds": null, "name": "MBPS Cabling Corporation (2156-D P. Florentino Street Sampaloc)", "opening_hours": null, "shop": null, "rooms": null}},{"type": "Feature", "geometry": {"type":"Point","coordinates":[121.004535,14.601886]}, "properties": {"osm_id": 944882824, "osm_type": "nodes", "amenity": null, "tourism": null, "beds": null, "name": "Watsons", "opening_hours": null, "shop": "chemist", "rooms": null}},{"type": "Feature", "geometry": {"type":"Point","coordinates":[121.0049631,14.6019568]}, "properties": {"osm_id": 4877466554, "osm_type": "nodes", "amenity": null, "tourism": null, "beds": null, "name": "7-Eleven", "opening_hours": null, "shop": "convenience", "rooms": null}},{"type": "Feature", "geometry": {"type":"Point","coordinates":[121.0019776,14.6016139]}, "properties": {"osm_id": 9805647384, "osm_type": "nodes", "amenity": null, "tourism": null, "beds": null, "name": "M Lhuillier", "opening_hours": null, "shop": "pawnbroker", "rooms": null}},{"type": "Feature", "geometry": {"type":"Point","coordinates":[121.0028223,14.6016943]}, "properties": {"osm_id": 944882575, "osm_type": "nodes", "amenity": null, "tourism": null, "beds": null, "name": null, "opening_hours": null, "shop": "doityourself", "rooms": null}},{"type": "Feature", "geometry": {"type":"Point","coordinates":[121.001226,14.6016674]}, "properties": {"osm_id": 4364967789, "osm_type": "nodes", "amenity": null, "tourism": null, "beds": null, "name": "Zoom International", "opening_hours": null, "shop": null, "rooms": null}},{"type": "Feature", "geometry": {"type":"Point","coordinates":[121.000987,14.6029524]}, "properties": {"osm_id": 7842526280, "osm_type": "nodes", "amenity": null, "tourism": null, "beds": null, "name": "Orap's Barbershop", "opening_hours": "Mo-Su 09:00-17:00", "shop": "hairdresser", "rooms": null}},{"type": "Feature", "geometry": {"type":"Point","coordinates":[121.0017264,14.6029586]}, "properties": {"osm_id": 7165554987, "osm_type": "nodes", "amenity": null, "tourism": null, "beds": null, "name": null, "opening_hours": null, "shop": "supermarket", "rooms": null}},{"type": "Feature", "geometry": {"type":"Point","coordinates":[121.0010298,14.6028416]}, "properties": {"osm_id": 7815962097, "osm_type": "nodes", "amenity": null, "tourism": null, "beds": null, "name": "Orap's Bakery", "opening_hours": null, "shop": "bakery", "rooms": null}},{"type": "Feature", "geometry": {"type":"Point","coordinates":[121.0037283,14.6033552]}, "properties": {"osm_id": 5105919822, "osm_type": "nodes", "amenity": null, "tourism": null, "beds": null, "name": "Philippine Statistics Authority", "opening_hours": null, "shop": null, "rooms": null}},{"type": "Feature", "geometry": {"type":"Point","coordinates":[121.001639,14.6031672]}, "properties": {"osm_id": 7165554988, "osm_type": "nodes", "amenity": null, "tourism": null, "beds": null, "name": null, "opening_hours": null, "shop": "supermarket", "rooms": null}},{"type": "Feature", "geometry": {"type":"Point","coordinates":[121.0015023,14.6031211]}, "properties": {"osm_id": 7165554986, "osm_type": "nodes", "amenity": null, "tourism": null, "beds": null, "name": null, "opening_hours": null, "shop": "convenience", "rooms": null}},{"type": "Feature", "geometry": {"type":"Point","coordinates":[121.001914,14.603072]}, "properties": {"osm_id": 7165554990, "osm_type": "nodes", "amenity": null, "tourism": null, "beds": null, "name": "Sangguniang Pambarangay ng Barangay 424", "opening_hours": "Mo-Fr 08:00-17:00", "shop": null, "rooms": null}},{"type": "Feature", "geometry": {"type":"Point","coordinates":[121.0017144,14.6037802]}, "properties": {"osm_id": 944885578, "osm_type": "nodes", "amenity": null, "tourism": null, "beds": null, "name": null, "opening_hours": null, "shop": "garden_centre", "rooms": null}},{"type": "Feature", "geometry": {"type":"Point","coordinates":[121.0005116,14.6053383]}, "properties": {"osm_id": 4172536089, "osm_type": "nodes", "amenity": null, "tourism": null, "beds": null, "name": "BEPR Salon", "opening_hours": null, "shop": "beauty", "rooms": null}},{"type": "Feature", "geometry": {"type":"Point","coordinates":[121.0006112,14.6055366]}, "properties": {"osm_id": 5612941525, "osm_type": "nodes", "amenity": null, "tourism": null, "beds": null, "name": "BoxPH", "opening_hours": "Mo-Fr 10:00-19:00", "shop": "convenience", "rooms": null}},{"type": "Feature", "geometry": {"type":"Point","coordinates":[121.0048529,14.6063428]}, "properties": {"osm_id": 4844035421, "osm_type": "nodes", "amenity": null, "tourism": "guest_house", "beds": null, "name": "937 Betina", "opening_hours": null, "shop": null, "rooms": null}},{"type": "Feature", "geometry": {"type":"Point","coordinates":[121.0032873,14.607208]}, "properties": {"osm_id": 1624722605, "osm_type": "nodes", "amenity": "marketplace", "tourism": null, "beds": null, "name": null, "opening_hours": null, "shop": null, "rooms": null}},{"type": "Feature", "geometry": {"type":"Point","coordinates":[121.0030805,14.6069659]}, "properties": {"osm_id": 4175868190, "osm_type": "nodes", "amenity": "fast_food", "tourism": null, "beds": null, "name": "Jollibee", "opening_hours": "24/7", "shop": null, "rooms": null}},{"type": "Feature", "geometry": {"type":"Point","coordinates":[121.0012555,14.60951]}, "properties": {"osm_id": 3595912723, "osm_type": "nodes", "amenity": null, "tourism": null, "beds": null, "name": "Pustura Salon", "opening_hours": null, "shop": "hairdresser", "rooms": null}},{"type": "Feature", "geometry": {"type":"Point","coordinates":[121.0035274,14.610333]}, "properties": {"osm_id": 1624721682, "osm_type": "nodes", "amenity": null, "tourism": null, "beds": null, "name": null, "opening_hours": "24/7", "shop": "tyres", "rooms": null}},{"type": "Feature", "geometry": {"type":"Point","coordinates":[121.0040633,14.6096576]}, "properties": {"osm_id": 585231003, "osm_type": "nodes", "amenity": null, "tourism": null, "beds": null, "name": "Aling Mercy's", "opening_hours": null, "shop": "convenience", "rooms": null}},{"type": "Feature", "geometry": {"type":"Point","coordinates":[121.003949,14.60945]}, "properties": {"osm_id": 585230912, "osm_type": "nodes", "amenity": null, "tourism": null, "beds": null, "name": "Norma's Store", "opening_hours": null, "shop": "convenience", "rooms": null}},{"type": "Feature", "geometry": {"type":"Point","coordinates":[121.0051542,14.6112155]}, "properties": {"osm_id": 1624721032, "osm_type": "nodes", "amenity": null, "tourism": null, "beds": null, "name": null, "opening_hours": null, "shop": "hairdresser", "rooms": null}},{"type": "Feature", "geometry": {"type":"Point","coordinates":[121.00524,14.6108833]}, "properties": {"osm_id": 1624725764, "osm_type": "nodes", "amenity": null, "tourism": null, "beds": null, "name": null, "opening_hours": null, "shop": "bakery", "rooms": null}},{"type": "Feature", "geometry": {"type":"Point","coordinates":[121.0047357,14.6103538]}, "properties": {"osm_id": 1624721689, "osm_type": "nodes", "amenity": null, "tourism": null, "beds": null, "name": null, "opening_hours": null, "shop": "bakery", "rooms": null}},{"type": "Feature", "geometry": {"type":"Point","coordinates":[121.0004377,14.610881]}, "properties": {"osm_id": 4787776555, "osm_type": "nodes", "amenity": "bar", "tourism": null, "beds": null, "name": "Kambingan", "opening_hours": null, "shop": null, "rooms": null}},{"type": "Feature", "geometry": {"type":"Point","coordinates":[121.0037272,14.6109248]}, "properties": {"osm_id": 1624721515, "osm_type": "nodes", "amenity": "restaurant", "tourism": null, "beds": null, "name": null, "opening_hours": null, "shop": null, "rooms": null}},{"type": "Feature", "geometry": {"type":"Point","coordinates":[121.0032015,14.6116308]}, "properties": {"osm_id": 1624721595, "osm_type": "nodes", "amenity": null, "tourism": null, "beds": null, "name": "Lunar's Bakery", "opening_hours": null, "shop": "bakery", "rooms": null}},{"type": "Feature", "geometry": {"type":"Point","coordinates":[121.0061028,14.6117938]}, "properties": {"osm_id": 4175900695, "osm_type": "nodes", "amenity": null, "tourism": null, "beds": null, "name": null, "opening_hours": "24/7", "shop": "tyres", "rooms": null}},{"type": "Feature", "geometry": {"type":"Point","coordinates":[121.0067807,14.6125906]}, "properties": {"osm_id": 5259211493, "osm_type": "nodes", "amenity": null, "tourism": null, "beds": null, "name": null, "opening_hours": null, "shop": "laundry", "rooms": null}},{"type": "Feature", "geometry": {"type":"Point","coordinates":[121.003021,14.6080205]}, "properties": {"osm_id": 2869870706, "osm_type": "nodes", "amenity": null, "tourism": "hotel", "beds": null, "name": "Casa Rosario", "opening_hours": null, "shop": null, "rooms": null}},{"type": "Feature", "geometry": {"type":"Point","coordinates":[120.986356,14.6077864]}, "properties": {"osm_id": 5694080521, "osm_type": "nodes", "amenity": null, "tourism": "apartment", "beds": null, "name": "1", "opening_hours": null, "shop": null, "rooms": null}},{"type": "Feature", "geometry": {"type":"Point","coordinates":[120.9864921,14.6078286]}, "properties": {"osm_id": 4865307242, "osm_type": "nodes", "amenity": null, "tourism": "guest_house", "beds": null, "name": "1075 Dormitory", "opening_hours": null, "shop": null, "rooms": null}},{"type": "Feature", "geometry": {"type":"Point","coordinates":[120.9879544,14.6074742]}, "properties": {"osm_id": 6356200787, "osm_type": "nodes", "amenity": "restaurant", "tourism": null, "beds": null, "name": null, "opening_hours": null, "shop": null, "rooms": null}},{"type": "Feature", "geometry": {"type":"Point","coordinates":[120.9882963,14.6075529]}, "properties": {"osm_id": 3951630071, "osm_type": "nodes", "amenity": "restaurant", "tourism": null, "beds": null, "name": "Wing Vibe", "opening_hours": null, "shop": null, "rooms": null}},{"type": "Feature", "geometry": {"type":"Point","coordinates":[120.9877683,14.6082831]}, "properties": {"osm_id": 5402904821, "osm_type": "nodes", "amenity": null, "tourism": null, "beds": null, "name": "Lawson", "opening_hours": "24/7", "shop": "convenience", "rooms": null}},{"type": "Feature", "geometry": {"type":"Point","coordinates":[120.9876337,14.6083378]}, "properties": {"osm_id": 4376695989, "osm_type": "nodes", "amenity": "cafe", "tourism": null, "beds": null, "name": "Cafe Khivan", "opening_hours": null, "shop": null, "rooms": null}},{"type": "Feature", "geometry": {"type":"Point","coordinates":[120.9861791,14.6081147]}, "properties": {"osm_id": 3598097193, "osm_type": "nodes", "amenity": "fast_food", "tourism": null, "beds": null, "name": "Yvan Navy", "opening_hours": null, "shop": null, "rooms": null}},{"type": "Feature", "geometry": {"type":"Point","coordinates":[120.9861976,14.6080505]}, "properties": {"osm_id": 6778897385, "osm_type": "nodes", "amenity": null, "tourism": "hostel", "beds": null, "name": "Dormitel UST", "opening_hours": null, "shop": null, "rooms": null}},{"type": "Feature", "geometry": {"type":"Point","coordinates":[120.986299,14.6080167]}, "properties": {"osm_id": 5158905722, "osm_type": "nodes", "amenity": null, "tourism": null, "beds": null, "name": "Barbershop", "opening_hours": null, "shop": "hairdresser", "rooms": null}},{"type": "Feature", "geometry": {"type":"Point","coordinates":[120.9871248,14.608798]}, "properties": {"osm_id": 4359599292, "osm_type": "nodes", "amenity": "cafe", "tourism": null, "beds": null, "name": null, "opening_hours": null, "shop": null, "rooms": null}},{"type": "Feature", "geometry": {"type":"Point","coordinates":[120.9881825,14.6090683]}, "properties": {"osm_id": 5103678013, "osm_type": "nodes", "amenity": null, "tourism": null, "beds": null, "name": "Santisimo Rosario Parish Office", "opening_hours": null, "shop": null, "rooms": null}},{"type": "Feature", "geometry": {"type":"Point","coordinates":[120.9905011,14.6073505]}, "properties": {"osm_id": 3951630070, "osm_type": "nodes", "amenity": "restaurant", "tourism": null, "beds": null, "name": "Pancake House", "opening_hours": null, "shop": null, "rooms": null}},{"type": "Feature", "geometry": {"type":"Point","coordinates":[120.9889686,14.6070373]}, "properties": {"osm_id": 3951630073, "osm_type": "nodes", "amenity": "restaurant", "tourism": null, "beds": null, "name": "Tori Box", "opening_hours": null, "shop": null, "rooms": null}},{"type": "Feature", "geometry": {"type":"Point","coordinates":[120.9879297,14.60738]}, "properties": {"osm_id": 5200193136, "osm_type": "nodes", "amenity": "restaurant", "tourism": null, "beds": null, "name": "Lopez Canteen", "opening_hours": null, "shop": null, "rooms": null}},{"type": "Feature", "geometry": {"type":"Point","coordinates":[120.98792,14.6070887]}, "properties": {"osm_id": 6810401592, "osm_type": "nodes", "amenity": null, "tourism": null, "beds": null, "name": "987 G.M. Tolentino Street Sampaloc", "opening_hours": null, "shop": null, "rooms": null}},{"type": "Feature", "geometry": {"type":"Point","coordinates":[120.988192,14.607078]}, "properties": {"osm_id": 6354311386, "osm_type": "nodes", "amenity": null, "tourism": null, "beds": null, "name": "Barber shop", "opening_hours": null, "shop": "beauty", "rooms": null}},{"type": "Feature", "geometry": {"type":"Point","coordinates":[120.9889939,14.6065167]}, "properties": {"osm_id": 11243856429, "osm_type": "nodes", "amenity": null, "tourism": null, "beds": null, "name": "7-Eleven", "opening_hours": "24/7", "shop": "convenience", "rooms": null}},{"type": "Feature", "geometry": {"type":"Point","coordinates":[120.9895456,14.6064538]}, "properties": {"osm_id": 8733044650, "osm_type": "nodes", "amenity": null, "tourism": null, "beds": null, "name": "Uncle John's", "opening_hours": null, "shop": "convenience", "rooms": null}},{"type": "Feature", "geometry": {"type":"Point","coordinates":[120.9891207,14.6066448]}, "properties": {"osm_id": 6713914154, "osm_type": "nodes", "amenity": "fast_food", "tourism": null, "beds": null, "name": "Chowking", "opening_hours": null, "shop": null, "rooms": null}},{"type": "Feature", "geometry": {"type":"Point","coordinates":[120.9900383,14.6069161]}, "properties": {"osm_id": 6351453889, "osm_type": "nodes", "amenity": null, "tourism": null, "beds": null, "name": "EXACT Training Center", "opening_hours": null, "shop": null, "rooms": null}},{"type": "Feature", "geometry": {"type":"Point","coordinates":[120.9904512,14.6068107]}, "properties": {"osm_id": 4880979926, "osm_type": "nodes", "amenity": null, "tourism": "hotel", "beds": null, "name": "Torre Residences", "opening_hours": null, "shop": null, "rooms": null}},{"type": "Feature", "geometry": {"type":"Point","coordinates":[120.990337,14.6066775]}, "properties": {"osm_id": 4352511505, "osm_type": "nodes", "amenity": "cafe", "tourism": null, "beds": null, "name": "Smynoshery", "opening_hours": "Mo-Su 10:30-22:00", "shop": null, "rooms": null}},{"type": "Feature", "geometry": {"type":"Point","coordinates":[120.9901586,14.6061497]}, "properties": {"osm_id": 3951630072, "osm_type": "nodes", "amenity": "restaurant", "tourism": null, "beds": null, "name": "Calda Pizza", "opening_hours": null, "shop": null, "rooms": null}},{"type": "Feature", "geometry": {"type":"Point","coordinates":[120.9892924,14.6060376]}, "properties": {"osm_id": 4865307243, "osm_type": "nodes", "amenity": null, "tourism": null, "beds": null, "name": "Style Metro", "opening_hours": null, "shop": "clothes", "rooms": null}},{"type": "Feature", "geometry": {"type":"Point","coordinates":[120.9891705,14.6060791]}, "properties": {"osm_id": 4359406542, "osm_type": "nodes", "amenity": null, "tourism": "apartment", "beds": null, "name": "España Bakus", "opening_hours": null, "shop": null, "rooms": null}},{"type": "Feature", "geometry": {"type":"Point","coordinates":[120.9897417,14.6062016]}, "properties": {"osm_id": 6486949485, "osm_type": "nodes", "amenity": null, "tourism": null, "beds": null, "name": "7-Eleven", "opening_hours": "24/7", "shop": "convenience", "rooms": null}},{"type": "Feature", "geometry": {"type":"Point","coordinates":[120.9898627,14.6063794]}, "properties": {"osm_id": 4471259190, "osm_type": "nodes", "amenity": null, "tourism": null, "beds": null, "name": "Exclusively His", "opening_hours": null, "shop": "tailor", "rooms": null}},{"type": "Feature", "geometry": {"type":"Point","coordinates":[120.9898192,14.6064279]}, "properties": {"osm_id": 4158776089, "osm_type": "nodes", "amenity": "cafe", "tourism": null, "beds": null, "name": "Amo Yamie Crib", "opening_hours": "Mo-Su 9:00-21:00", "shop": null, "rooms": null}},{"type": "Feature", "geometry": {"type":"Point","coordinates":[120.9868921,14.6062893]}, "properties": {"osm_id": 3602068963, "osm_type": "nodes", "amenity": "bar", "tourism": null, "beds": null, "name": "Lakay", "opening_hours": null, "shop": null, "rooms": null}},{"type": "Feature", "geometry": {"type":"Point","coordinates":[120.9871604,14.6060352]}, "properties": {"osm_id": 6015237086, "osm_type": "nodes", "amenity": "restaurant", "tourism": null, "beds": null, "name": "The Hashery", "opening_hours": null, "shop": null, "rooms": null}},{"type": "Feature", "geometry": {"type":"Point","coordinates":[120.9877408,14.6059451]}, "properties": {"osm_id": 4518446198, "osm_type": "nodes", "amenity": null, "tourism": "attraction", "beds": null, "name": "Great Seas Mariners training and Assessment center GSM", "opening_hours": null, "shop": null, "rooms": null}},{"type": "Feature", "geometry": {"type":"Point","coordinates":[120.9873428,14.6057951]}, "properties": {"osm_id": 3601558396, "osm_type": "nodes", "amenity": "cafe", "tourism": null, "beds": null, "name": "Brewing beyond coffee", "opening_hours": null, "shop": null, "rooms": null}},{"type": "Feature", "geometry": {"type":"Point","coordinates":[120.9872111,14.6057097]}, "properties": {"osm_id": 3601558092, "osm_type": "nodes", "amenity": null, "tourism": null, "beds": null, "name": "Aqua Safe Drinking Water", "opening_hours": null, "shop": "water", "rooms": null}},{"type": "Feature", "geometry": {"type":"Point","coordinates":[120.9879092,14.6055461]}, "properties": {"osm_id": 3600495427, "osm_type": "nodes", "amenity": "fast_food", "tourism": null, "beds": null, "name": "Steak Station", "opening_hours": null, "shop": null, "rooms": null}},{"type": "Feature", "geometry": {"type":"Point","coordinates":[120.9878838,14.6055297]}, "properties": {"osm_id": 3598075656, "osm_type": "nodes", "amenity": "fast_food", "tourism": null, "beds": null, "name": "Baliwag Chicken", "opening_hours": null, "shop": null, "rooms": null}},{"type": "Feature", "geometry": {"type":"Point","coordinates":[120.987749,14.6054716]}, "properties": {"osm_id": 3600536422, "osm_type": "nodes", "amenity": "cafe", "tourism": null, "beds": null, "name": "Churros House", "opening_hours": null, "shop": null, "rooms": null}},{"type": "Feature", "geometry": {"type":"Point","coordinates":[120.9887296,14.6054686]}, "properties": {"osm_id": 3598009759, "osm_type": "nodes", "amenity": "cafe", "tourism": null, "beds": null, "name": "DCream", "opening_hours": null, "shop": null, "rooms": null}},{"type": "Feature", "geometry": {"type":"Point","coordinates":[120.9887107,14.6054985]}, "properties": {"osm_id": 3601539682, "osm_type": "nodes", "amenity": null, "tourism": null, "beds": null, "name": "ICSEC-KAPLAN Review Center", "opening_hours": null, "shop": null, "rooms": null}},{"type": "Feature", "geometry": {"type":"Point","coordinates":[120.9886818,14.605532]}, "properties": {"osm_id": 3601536806, "osm_type": "nodes", "amenity": "fast_food", "tourism": null, "beds": null, "name": "Chicboy", "opening_hours": null, "shop": null, "rooms": null}},{"type": "Feature", "geometry": {"type":"Point","coordinates":[120.9891641,14.6057605]}, "properties": {"osm_id": 4320365265, "osm_type": "nodes", "amenity": null, "tourism": null, "beds": null, "name": "Carl Balita Review Center", "opening_hours": null, "shop": null, "rooms": null}},{"type": "Feature", "geometry": {"type":"Point","coordinates":[120.9890898,14.605055]}, "properties": {"osm_id": 6699860886, "osm_type": "nodes", "amenity": "restaurant", "tourism": null, "beds": null, "name": "Incredibowl", "opening_hours": null, "shop": null, "rooms": null}},{"type": "Feature", "geometry": {"type":"Point","coordinates":[120.9886809,14.6052082]}, "properties": {"osm_id": 3601559222, "osm_type": "nodes", "amenity": "fast_food", "tourism": null, "beds": null, "name": null, "opening_hours": null, "shop": null, "rooms": null}},{"type": "Feature", "geometry": {"type":"Point","coordinates":[120.9890453,14.6051445]}, "properties": {"osm_id": 3601540464, "osm_type": "nodes", "amenity": null, "tourism": null, "beds": null, "name": "Arizona Spa", "opening_hours": null, "shop": "beauty", "rooms": null}},{"type": "Feature", "geometry": {"type":"Point","coordinates":[120.9889871,14.6051526]}, "properties": {"osm_id": 3601536173, "osm_type": "nodes", "amenity": "fast_food", "tourism": null, "beds": null, "name": "AJIE'S Kitchennette", "opening_hours": null, "shop": null, "rooms": null}},{"type": "Feature", "geometry": {"type":"Point","coordinates":[120.9890237,14.6051196]}, "properties": {"osm_id": 3601535847, "osm_type": "nodes", "amenity": "cafe", "tourism": null, "beds": null, "name": "The Wicked Waffle", "opening_hours": null, "shop": null, "rooms": null}},{"type": "Feature", "geometry": {"type":"Point","coordinates":[120.989574,14.605142]}, "properties": {"osm_id": 4321343591, "osm_type": "nodes", "amenity": null, "tourism": null, "beds": null, "name": "United Fire Association", "opening_hours": null, "shop": null, "rooms": null}},{"type": "Feature", "geometry": {"type":"Point","coordinates":[120.9901084,14.6050613]}, "properties": {"osm_id": 4536139189, "osm_type": "nodes", "amenity": null, "tourism": null, "beds": null, "name": "Tita Em's Beauty Salon", "opening_hours": null, "shop": "cosmetics", "rooms": null}},{"type": "Feature", "geometry": {"type":"Point","coordinates":[120.9883436,14.6053933]}, "properties": {"osm_id": 3601538771, "osm_type": "nodes", "amenity": "fast_food", "tourism": null, "beds": null, "name": "Chicken Corner", "opening_hours": null, "shop": null, "rooms": null}},{"type": "Feature", "geometry": {"type":"Point","coordinates":[120.9884561,14.605391]}, "properties": {"osm_id": 4821784321, "osm_type": "nodes", "amenity": null, "tourism": null, "beds": null, "name": "CRC ACE Review Center", "opening_hours": null, "shop": null, "rooms": null}},{"type": "Feature", "geometry": {"type":"Point","coordinates":[120.9887575,14.6054455]}, "properties": {"osm_id": 3601535876, "osm_type": "nodes", "amenity": null, "tourism": null, "beds": null, "name": "Clyde's Bread and Pastries", "opening_hours": null, "shop": "bakery", "rooms": null}},{"type": "Feature", "geometry": {"type":"Point","coordinates":[120.9874679,14.605367]}, "properties": {"osm_id": 3601558090, "osm_type": "nodes", "amenity": null, "tourism": null, "beds": null, "name": "Aiyana eye hair salon", "opening_hours": null, "shop": "hairdresser", "rooms": null}},{"type": "Feature", "geometry": {"type":"Point","coordinates":[120.9871728,14.6052815]}, "properties": {"osm_id": 3601558402, "osm_type": "nodes", "amenity": null, "tourism": null, "beds": null, "name": "KBR's Frame Shop", "opening_hours": null, "shop": "frame", "rooms": null}},{"type": "Feature", "geometry": {"type":"Point","coordinates":[120.988059,14.6051466]}, "properties": {"osm_id": 3600102882, "osm_type": "nodes", "amenity": null, "tourism": null, "beds": null, "name": "LIBRASAM General Merchandise", "opening_hours": null, "shop": "variety_store", "rooms": null}},{"type": "Feature", "geometry": {"type":"Point","coordinates":[120.9886441,14.6052458]}, "properties": {"osm_id": 3601557811, "osm_type": "nodes", "amenity": null, "tourism": null, "beds": null, "name": null, "opening_hours": null, "shop": "convenience", "rooms": null}},{"type": "Feature", "geometry": {"type":"Point","coordinates":[120.9865917,14.6076615]}, "properties": {"osm_id": 4359597090, "osm_type": "nodes", "amenity": null, "tourism": "hostel", "beds": null, "name": "Corinthians Econorooms", "opening_hours": null, "shop": null, "rooms": null}},{"type": "Feature", "geometry": {"type":"Point","coordinates":[120.9884871,14.6054179]}, "properties": {"osm_id": 3601525458, "osm_type": "nodes", "amenity": null, "tourism": null, "beds": null, "name": "Besavilla Review Center", "opening_hours": null, "shop": null, "rooms": null}},{"type": "Feature", "geometry": {"type":"Point","coordinates":[120.9877937,14.605479]}, "properties": {"osm_id": 3600534861, "osm_type": "nodes", "amenity": null, "tourism": null, "beds": null, "name": "Laundy Magic", "opening_hours": null, "shop": "laundry", "rooms": null}},{"type": "Feature", "geometry": {"type":"Point","coordinates":[120.9900159,14.6035364]}, "properties": {"osm_id": 3601500899, "osm_type": "nodes", "amenity": "fast_food", "tourism": null, "beds": null, "name": "CRS Fastfood", "opening_hours": null, "shop": null, "rooms": null}},{"type": "Feature", "geometry": {"type":"Point","coordinates":[120.9890098,14.6036009]}, "properties": {"osm_id": 3601558520, "osm_type": "nodes", "amenity": null, "tourism": null, "beds": null, "name": "Sun Beam Laundry Shoppe", "opening_hours": null, "shop": "laundry", "rooms": null}},{"type": "Feature", "geometry": {"type":"Point","coordinates":[120.9890441,14.6036771]}, "properties": {"osm_id": 3601558522, "osm_type": "nodes", "amenity": null, "tourism": null, "beds": null, "name": "Bakery", "opening_hours": null, "shop": "bakery", "rooms": null}},{"type": "Feature", "geometry": {"type":"Point","coordinates":[120.988287,14.6038763]}, "properties": {"osm_id": 3601536660, "osm_type": "nodes", "amenity": null, "tourism": null, "beds": null, "name": "Tam Shop", "opening_hours": null, "shop": "clothes", "rooms": null}},{"type": "Feature", "geometry": {"type":"Point","coordinates":[120.9900433,14.6037944]}, "properties": {"osm_id": 3601502823, "osm_type": "nodes", "amenity": null, "tourism": null, "beds": null, "name": "Morning Star Beauty Salon", "opening_hours": null, "shop": "hairdresser", "rooms": null}},{"type": "Feature", "geometry": {"type":"Point","coordinates":[120.9893824,14.6039468]}, "properties": {"osm_id": 4336564989, "osm_type": "nodes", "amenity": null, "tourism": null, "beds": null, "name": "Starberks", "opening_hours": "24/7", "shop": "computer", "rooms": null}},{"type": "Feature", "geometry": {"type":"Point","coordinates":[120.9882679,14.603797]}, "properties": {"osm_id": 3595628517, "osm_type": "nodes", "amenity": "cafe", "tourism": null, "beds": null, "name": "TAMbayan", "opening_hours": null, "shop": null, "rooms": null}},{"type": "Feature", "geometry": {"type":"Point","coordinates":[120.9881742,14.603648]}, "properties": {"osm_id": 3601536669, "osm_type": "nodes", "amenity": "restaurant", "tourism": null, "beds": null, "name": "Pobi", "opening_hours": null, "shop": null, "rooms": null}},{"type": "Feature", "geometry": {"type":"Point","coordinates":[120.9882093,14.6036012]}, "properties": {"osm_id": 3601536670, "osm_type": "nodes", "amenity": null, "tourism": null, "beds": null, "name": "Tams Eye", "opening_hours": null, "shop": "optician", "rooms": null}},{"type": "Feature", "geometry": {"type":"Point","coordinates":[120.9882449,14.6035635]}, "properties": {"osm_id": 3601536672, "osm_type": "nodes", "amenity": "cafe", "tourism": null, "beds": null, "name": "Frappeetea", "opening_hours": null, "shop": null, "rooms": null}},{"type": "Feature", "geometry": {"type":"Point","coordinates":[120.9864722,14.6037134]}, "properties": {"osm_id": 4798181625, "osm_type": "nodes", "amenity": null, "tourism": "artwork", "beds": null, "name": null, "opening_hours": null, "shop": null, "rooms": null}},{"type": "Feature", "geometry": {"type":"Point","coordinates":[120.9856835,14.6036401]}, "properties": {"osm_id": 4265806999, "osm_type": "nodes", "amenity": "fast_food", "tourism": null, "beds": null, "name": "NRH Cafeteria", "opening_hours": null, "shop": null, "rooms": null}},{"type": "Feature", "geometry": {"type":"Point","coordinates":[120.9858574,14.6035414]}, "properties": {"osm_id": 3604367108, "osm_type": "nodes", "amenity": null, "tourism": null, "beds": null, "name": "Tam Shop", "opening_hours": null, "shop": "books", "rooms": null}},{"type": "Feature", "geometry": {"type":"Point","coordinates":[120.9868262,14.6040534]}, "properties": {"osm_id": 4798181627, "osm_type": "nodes", "amenity": null, "tourism": "artwork", "beds": null, "name": "Tamaraw Statue", "opening_hours": null, "shop": null, "rooms": null}},{"type": "Feature", "geometry": {"type":"Point","coordinates":[120.9874102,14.6041113]}, "properties": {"osm_id": 4265807599, "osm_type": "nodes", "amenity": "fast_food", "tourism": null, "beds": null, "name": "FEU Food Court", "opening_hours": null, "shop": null, "rooms": null}},{"type": "Feature", "geometry": {"type":"Point","coordinates":[120.9878823,14.6044135]}, "properties": {"osm_id": 3601536648, "osm_type": "nodes", "amenity": null, "tourism": null, "beds": null, "name": "JB Mobile Zone", "opening_hours": null, "shop": "convenience", "rooms": null}},{"type": "Feature", "geometry": {"type":"Point","coordinates":[120.9873021,14.6044485]}, "properties": {"osm_id": 3601537228, "osm_type": "nodes", "amenity": null, "tourism": null, "beds": null, "name": "FEU Tech Bookstore", "opening_hours": null, "shop": "books", "rooms": null}},{"type": "Feature", "geometry": {"type":"Point","coordinates":[120.9856275,14.6042629]}, "properties": {"osm_id": 4265752903, "osm_type": "nodes", "amenity": "cafe", "tourism": null, "beds": null, "name": "Cafe Alfredo", "opening_hours": null, "shop": null, "rooms": null}},{"type": "Feature", "geometry": {"type":"Point","coordinates":[120.9862357,14.6047739]}, "properties": {"osm_id": 3600132442, "osm_type": "nodes", "amenity": null, "tourism": "hostel", "beds": null, "name": "Ria's Ladies Dorm", "opening_hours": null, "shop": null, "rooms": null}},{"type": "Feature", "geometry": {"type":"Point","coordinates":[120.9866391,14.6048455]}, "properties": {"osm_id": 3600132445, "osm_type": "nodes", "amenity": "fast_food", "tourism": null, "beds": null, "name": "Taste My Sausage!", "opening_hours": null, "shop": null, "rooms": null}},{"type": "Feature", "geometry": {"type":"Point","coordinates":[120.9865358,14.6048166]}, "properties": {"osm_id": 3600132435, "osm_type": "nodes", "amenity": null, "tourism": "hostel", "beds": null, "name": null, "opening_hours": null, "shop": null, "rooms": null}},{"type": "Feature", "geometry": {"type":"Point","coordinates":[120.9870087,14.60486]}, "properties": {"osm_id": 3600132439, "osm_type": "nodes", "amenity": null, "tourism": "hostel", "beds": null, "name": "Ladies Dorm", "opening_hours": null, "shop": null, "rooms": null}},{"type": "Feature", "geometry": {"type":"Point","coordinates":[120.9877573,14.6049493]}, "properties": {"osm_id": 3601557441, "osm_type": "nodes", "amenity": null, "tourism": null, "beds": null, "name": "Cebuana Lhuillier", "opening_hours": null, "shop": "pawnbroker", "rooms": null}},{"type": "Feature", "geometry": {"type":"Point","coordinates":[120.9881074,14.6048021]}, "properties": {"osm_id": 3601552375, "osm_type": "nodes", "amenity": "fast_food", "tourism": null, "beds": null, "name": "Chef-O", "opening_hours": null, "shop": null, "rooms": null}},{"type": "Feature", "geometry": {"type":"Point","coordinates":[120.9873867,14.6046739]}, "properties": {"osm_id": 3600132446, "osm_type": "nodes", "amenity": "fast_food", "tourism": null, "beds": null, "name": "Joy's PorkChopan", "opening_hours": null, "shop": null, "rooms": null}},{"type": "Feature", "geometry": {"type":"Point","coordinates":[120.987367,14.6046885]}, "properties": {"osm_id": 3598034997, "osm_type": "nodes", "amenity": "fast_food", "tourism": null, "beds": null, "name": "Tita Bey's", "opening_hours": null, "shop": null, "rooms": null}},{"type": "Feature", "geometry": {"type":"Point","coordinates":[120.9883889,14.6045033]}, "properties": {"osm_id": 3600132451, "osm_type": "nodes", "amenity": null, "tourism": null, "beds": null, "name": null, "opening_hours": null, "shop": "photo", "rooms": null}},{"type": "Feature", "geometry": {"type":"Point","coordinates":[120.9883473,14.6045533]}, "properties": {"osm_id": 3600090766, "osm_type": "nodes", "amenity": "fast_food", "tourism": null, "beds": null, "name": "Visayan's Pride Eatery", "opening_hours": null, "shop": null, "rooms": null}},{"type": "Feature", "geometry": {"type":"Point","coordinates":[120.9883138,14.6045927]}, "properties": {"osm_id": 3600098398, "osm_type": "nodes", "amenity": "fast_food", "tourism": null, "beds": null, "name": "Elconal Photo Services;Lugawan ni Carlos", "opening_hours": null, "shop": "photo", "rooms": null}},{"type": "Feature", "geometry": {"type":"Point","coordinates":[120.9894074,14.604703]}, "properties": {"osm_id": 3598036033, "osm_type": "nodes", "amenity": null, "tourism": null, "beds": null, "name": "AIDA STORE", "opening_hours": null, "shop": "convenience", "rooms": null}},{"type": "Feature", "geometry": {"type":"Point","coordinates":[120.9892703,14.6048591]}, "properties": {"osm_id": 3601558547, "osm_type": "nodes", "amenity": "fast_food", "tourism": null, "beds": null, "name": "Johnken Food House", "opening_hours": null, "shop": null, "rooms": null}},{"type": "Feature", "geometry": {"type":"Point","coordinates":[120.9892415,14.6048923]}, "properties": {"osm_id": 3601560771, "osm_type": "nodes", "amenity": null, "tourism": null, "beds": null, "name": "Nails. Glow Hand and foot Spa", "opening_hours": null, "shop": "beauty", "rooms": null}},{"type": "Feature", "geometry": {"type":"Point","coordinates":[120.9872797,14.604813]}, "properties": {"osm_id": 3601558412, "osm_type": "nodes", "amenity": "fast_food", "tourism": null, "beds": null, "name": "Tapsilogan ni Mama Leng", "opening_hours": null, "shop": null, "rooms": null}},{"type": "Feature", "geometry": {"type":"Point","coordinates":[120.9873396,14.6047359]}, "properties": {"osm_id": 3601558413, "osm_type": "nodes", "amenity": null, "tourism": null, "beds": null, "name": "The Net.Com", "opening_hours": null, "shop": "internet_cafe", "rooms": null}},{"type": "Feature", "geometry": {"type":"Point","coordinates":[120.988425,14.6044488]}, "properties": {"osm_id": 3600088754, "osm_type": "nodes", "amenity": null, "tourism": null, "beds": null, "name": null, "opening_hours": null, "shop": null, "rooms": null}},{"type": "Feature", "geometry": {"type":"Point","coordinates":[120.9893729,14.6047652]}, "properties": {"osm_id": 3598044999, "osm_type": "nodes", "amenity": null, "tourism": null, "beds": null, "name": "Big Cup", "opening_hours": null, "shop": "tea", "rooms": null}},{"type": "Feature", "geometry": {"type":"Point","coordinates":[120.9901998,14.6132893]}, "properties": {"osm_id": 6010129886, "osm_type": "nodes", "amenity": null, "tourism": null, "beds": null, "name": "Cebuana Lhuillier", "opening_hours": null, "shop": "pawnbroker", "rooms": null}},{"type": "Feature", "geometry": {"type":"Point","coordinates":[120.9894577,14.6128877]}, "properties": {"osm_id": 1423129470, "osm_type": "nodes", "amenity": "fast_food", "tourism": null, "beds": null, "name": "Jollibee", "opening_hours": null, "shop": null, "rooms": null}},{"type": "Feature", "geometry": {"type":"Point","coordinates":[120.9881694,14.6132318]}, "properties": {"osm_id": 5982569389, "osm_type": "nodes", "amenity": "cafe", "tourism": null, "beds": null, "name": "MaiCafe", "opening_hours": null, "shop": null, "rooms": null}},{"type": "Feature", "geometry": {"type":"Point","coordinates":[120.988067,14.613168]}, "properties": {"osm_id": 5982567898, "osm_type": "nodes", "amenity": null, "tourism": null, "beds": null, "name": "Palawan Express", "opening_hours": null, "shop": "pawnbroker", "rooms": null}},{"type": "Feature", "geometry": {"type":"Point","coordinates":[120.9890553,14.6125249]}, "properties": {"osm_id": 4661785793, "osm_type": "nodes", "amenity": "fast_food", "tourism": null, "beds": null, "name": "Mang Inasal", "opening_hours": "Mo-Su 10:00-22:00", "shop": null, "rooms": null}},{"type": "Feature", "geometry": {"type":"Point","coordinates":[120.989239,14.6127457]}, "properties": {"osm_id": 3832152926, "osm_type": "nodes", "amenity": null, "tourism": null, "beds": null, "name": "C&E Bookshop", "opening_hours": "Mo-Sa 09:00-18:00", "shop": "books", "rooms": null}},{"type": "Feature", "geometry": {"type":"Point","coordinates":[120.9902749,14.6126854]}, "properties": {"osm_id": 5981239996, "osm_type": "nodes", "amenity": "cafe", "tourism": null, "beds": null, "name": "Bo's Coffee", "opening_hours": null, "shop": null, "rooms": null}},{"type": "Feature", "geometry": {"type":"Point","coordinates":[120.9883965,14.6118755]}, "properties": {"osm_id": 4661787195, "osm_type": "nodes", "amenity": "fast_food", "tourism": null, "beds": null, "name": "Wendy's", "opening_hours": null, "shop": null, "rooms": null}},{"type": "Feature", "geometry": {"type":"Point","coordinates":[120.9885475,14.611974]}, "properties": {"osm_id": 4661787194, "osm_type": "nodes", "amenity": "fast_food", "tourism": null, "beds": null, "name": "KFC", "opening_hours": null, "shop": null, "rooms": null}},{"type": "Feature", "geometry": {"type":"Point","coordinates":[120.9923285,14.6106786]}, "properties": {"osm_id": 1427724358, "osm_type": "nodes", "amenity": "fast_food", "tourism": null, "beds": null, "name": "Pizza Hut", "opening_hours": null, "shop": null, "rooms": null}},{"type": "Feature", "geometry": {"type":"Point","coordinates":[120.9945374,14.6103964]}, "properties": {"osm_id": 4516992111, "osm_type": "nodes", "amenity": "restaurant", "tourism": null, "beds": null, "name": "Lucky 8 Garden Bistro", "opening_hours": null, "shop": null, "rooms": null}},{"type": "Feature", "geometry": {"type":"Point","coordinates":[120.9934708,14.609497]}, "properties": {"osm_id": 5158194226, "osm_type": "nodes", "amenity": null, "tourism": "hostel", "beds": null, "name": "Earnshaw Suites", "opening_hours": null, "shop": null, "rooms": null}},{"type": "Feature", "geometry": {"type":"Point","coordinates":[120.9928988,14.6100041]}, "properties": {"osm_id": 9524071471, "osm_type": "nodes", "amenity": null, "tourism": null, "beds": null, "name": "Robwash Self-Service Laundry", "opening_hours": "Mo-Su 06:00-20:00", "shop": "laundry", "rooms": null}},{"type": "Feature", "geometry": {"type":"Point","coordinates":[120.9904379,14.6104356]}, "properties": {"osm_id": 6406937514, "osm_type": "nodes", "amenity": "fast_food", "tourism": null, "beds": null, "name": "Subway", "opening_hours": null, "shop": null, "rooms": null}},{"type": "Feature", "geometry": {"type":"Point","coordinates":[120.9919538,14.6109096]}, "properties": {"osm_id": 5981239993, "osm_type": "nodes", "amenity": null, "tourism": null, "beds": null, "name": "ROBWASH", "opening_hours": null, "shop": "laundry", "rooms": null}},{"type": "Feature", "geometry": {"type":"Point","coordinates":[120.9875744,14.6111183]}, "properties": {"osm_id": 6078608787, "osm_type": "nodes", "amenity": null, "tourism": null, "beds": null, "name": "7-Eleven", "opening_hours": "24/7", "shop": "convenience", "rooms": null}},{"type": "Feature", "geometry": {"type":"Point","coordinates":[120.986139,14.611593]}, "properties": {"osm_id": 1803974363, "osm_type": "nodes", "amenity": null, "tourism": "hotel", "beds": null, "name": "Fersal Hotel", "opening_hours": null, "shop": null, "rooms": null}},{"type": "Feature", "geometry": {"type":"Point","coordinates":[120.9920952,14.5623265]}, "properties": {"osm_id": 4509789096, "osm_type": "nodes", "amenity": null, "tourism": "museum", "beds": null, "name": "Sports Museum", "opening_hours": "Mo-Fr 20:00-05:00", "shop": null, "rooms": null}},{"type": "Feature", "geometry": {"type":"Point","coordinates":[120.9891774,14.559953]}, "properties": {"osm_id": 2013598491, "osm_type": "nodes", "amenity": "fast_food", "tourism": null, "beds": null, "name": "Chowking", "opening_hours": null, "shop": null, "rooms": null}},{"type": "Feature", "geometry": {"type":"Point","coordinates":[120.9879556,14.5592976]}, "properties": {"osm_id": 4267346389, "osm_type": "nodes", "amenity": null, "tourism": null, "beds": null, "name": "PEB Steel Manila", "opening_hours": "Mo-Fr 08:30-17:30", "shop": null, "rooms": null}},{"type": "Feature", "geometry": {"type":"Point","coordinates":[121.0013452,14.5655152]}, "properties": {"osm_id": 6307301085, "osm_type": "nodes", "amenity": null, "tourism": null, "beds": null, "name": "Trans-Phil Land Corporation", "opening_hours": null, "shop": null, "rooms": null}},{"type": "Feature", "geometry": {"type":"Point","coordinates":[121.0023251,14.5656533]}, "properties": {"osm_id": 5598114423, "osm_type": "nodes", "amenity": "cafe", "tourism": null, "beds": null, "name": "Isa Una Kapihan & Atbp", "opening_hours": null, "shop": null, "rooms": null}},{"type": "Feature", "geometry": {"type":"Point","coordinates":[121.0027256,14.5661215]}, "properties": {"osm_id": 1423836482, "osm_type": "nodes", "amenity": "restaurant", "tourism": null, "beds": null, "name": "Aling Nene", "opening_hours": null, "shop": null, "rooms": null}},{"type": "Feature", "geometry": {"type":"Point","coordinates":[120.9940823,14.6207733]}, "properties": {"osm_id": 7010435447, "osm_type": "nodes", "amenity": null, "tourism": null, "beds": null, "name": null, "opening_hours": null, "shop": "water", "rooms": null}},{"type": "Feature", "geometry": {"type":"Point","coordinates":[120.9930502,14.6198192]}, "properties": {"osm_id": 7010435444, "osm_type": "nodes", "amenity": null, "tourism": null, "beds": null, "name": null, "opening_hours": null, "shop": "bakery", "rooms": null}},{"type": "Feature", "geometry": {"type":"Point","coordinates":[120.9941963,14.6194344]}, "properties": {"osm_id": 4335740512, "osm_type": "nodes", "amenity": "restaurant", "tourism": null, "beds": null, "name": "Spice City", "opening_hours": null, "shop": null, "rooms": null}},{"type": "Feature", "geometry": {"type":"Point","coordinates":[120.9932259,14.6192628]}, "properties": {"osm_id": 7780902098, "osm_type": "nodes", "amenity": "restaurant", "tourism": null, "beds": null, "name": "Alas Pares", "opening_hours": null, "shop": null, "rooms": null}},{"type": "Feature", "geometry": {"type":"Point","coordinates":[120.9934507,14.6193512]}, "properties": {"osm_id": 7010435443, "osm_type": "nodes", "amenity": "restaurant", "tourism": null, "beds": null, "name": "Paluto", "opening_hours": null, "shop": null, "rooms": null}},{"type": "Feature", "geometry": {"type":"Point","coordinates":[120.994338,14.6192233]}, "properties": {"osm_id": 4484498293, "osm_type": "nodes", "amenity": "fast_food", "tourism": null, "beds": null, "name": "Angel's Burger", "opening_hours": "24/7", "shop": null, "rooms": null}},{"type": "Feature", "geometry": {"type":"Point","coordinates":[120.9944502,14.619345]}, "properties": {"osm_id": 4661784998, "osm_type": "nodes", "amenity": "restaurant", "tourism": null, "beds": null, "name": null, "opening_hours": null, "shop": null, "rooms": null}},{"type": "Feature", "geometry": {"type":"Point","coordinates":[120.9938908,14.6188626]}, "properties": {"osm_id": 8732496182, "osm_type": "nodes", "amenity": null, "tourism": null, "beds": null, "name": "EMCO Marketing", "opening_hours": null, "shop": "hardware", "rooms": null}},{"type": "Feature", "geometry": {"type":"Point","coordinates":[120.9937311,14.6187609]}, "properties": {"osm_id": 7010435441, "osm_type": "nodes", "amenity": null, "tourism": null, "beds": null, "name": null, "opening_hours": null, "shop": "convenience", "rooms": null}},{"type": "Feature", "geometry": {"type":"Point","coordinates":[120.9942734,14.6189994]}, "properties": {"osm_id": 7010435448, "osm_type": "nodes", "amenity": null, "tourism": null, "beds": null, "name": "montblank", "opening_hours": null, "shop": "water", "rooms": null}},{"type": "Feature", "geometry": {"type":"Point","coordinates":[120.9943596,14.6190352]}, "properties": {"osm_id": 7010435449, "osm_type": "nodes", "amenity": null, "tourism": null, "beds": null, "name": "Bornes", "opening_hours": null, "shop": "convenience", "rooms": null}},{"type": "Feature", "geometry": {"type":"Point","coordinates":[120.9940515,14.6190411]}, "properties": {"osm_id": 7010435440, "osm_type": "nodes", "amenity": null, "tourism": null, "beds": null, "name": "Yanila", "opening_hours": null, "shop": "beauty", "rooms": null}},{"type": "Feature", "geometry": {"type":"Point","coordinates":[120.9890279,14.6183981]}, "properties": {"osm_id": 7535880422, "osm_type": "nodes", "amenity": null, "tourism": null, "beds": null, "name": "RL Gonzalez Meatshop", "opening_hours": null, "shop": "butcher", "rooms": null}},{"type": "Feature", "geometry": {"type":"Point","coordinates":[120.9891897,14.6179705]}, "properties": {"osm_id": 4988137424, "osm_type": "nodes", "amenity": null, "tourism": null, "beds": null, "name": "relaxing laundry", "opening_hours": null, "shop": "laundry", "rooms": null}},{"type": "Feature", "geometry": {"type":"Point","coordinates":[120.9890132,14.6180944]}, "properties": {"osm_id": 5010986227, "osm_type": "nodes", "amenity": "fast_food", "tourism": null, "beds": null, "name": null, "opening_hours": null, "shop": null, "rooms": null}},{"type": "Feature", "geometry": {"type":"Point","coordinates":[120.9887369,14.6173768]}, "properties": {"osm_id": 7535836914, "osm_type": "nodes", "amenity": null, "tourism": null, "beds": null, "name": "MoTech", "opening_hours": null, "shop": "car_repair", "rooms": null}},{"type": "Feature", "geometry": {"type":"Point","coordinates":[120.9920291,14.6176595]}, "properties": {"osm_id": 4972174721, "osm_type": "nodes", "amenity": null, "tourism": "guest_house", "beds": null, "name": null, "opening_hours": null, "shop": null, "rooms": null}},{"type": "Feature", "geometry": {"type":"Point","coordinates":[120.9924115,14.6172859]}, "properties": {"osm_id": 8732496184, "osm_type": "nodes", "amenity": null, "tourism": null, "beds": null, "name": null, "opening_hours": null, "shop": "JM Bakery", "rooms": null}},{"type": "Feature", "geometry": {"type":"Point","coordinates":[120.9943571,14.617271]}, "properties": {"osm_id": 8763766158, "osm_type": "nodes", "amenity": null, "tourism": null, "beds": null, "name": "Mightee Mart", "opening_hours": "24/7", "shop": "convenience", "rooms": null}},{"type": "Feature", "geometry": {"type":"Point","coordinates":[120.9947551,14.6176694]}, "properties": {"osm_id": 8763766159, "osm_type": "nodes", "amenity": null, "tourism": null, "beds": null, "name": "Margesan", "opening_hours": null, "shop": "convenience", "rooms": null}},{"type": "Feature", "geometry": {"type":"Point","coordinates":[120.9926591,14.6154861]}, "properties": {"osm_id": 5981239989, "osm_type": "nodes", "amenity": null, "tourism": null, "beds": null, "name": "7-Eleven", "opening_hours": "24/7", "shop": "convenience", "rooms": null}},{"type": "Feature", "geometry": {"type":"Point","coordinates":[120.9927006,14.6155328]}, "properties": {"osm_id": 5981243988, "osm_type": "nodes", "amenity": null, "tourism": null, "beds": null, "name": "Macho Labandero", "opening_hours": null, "shop": "laundry", "rooms": null}},{"type": "Feature", "geometry": {"type":"Point","coordinates":[120.9924783,14.6156441]}, "properties": {"osm_id": 6320359956, "osm_type": "nodes", "amenity": null, "tourism": null, "beds": null, "name": "RMC Store", "opening_hours": null, "shop": "variety_store", "rooms": null}},{"type": "Feature", "geometry": {"type":"Point","coordinates":[120.9883141,14.6157529]}, "properties": {"osm_id": 5284541421, "osm_type": "nodes", "amenity": null, "tourism": null, "beds": null, "name": "Flower Market", "opening_hours": null, "shop": "florist", "rooms": null}},{"type": "Feature", "geometry": {"type":"Point","coordinates":[120.9906969,14.6156573]}, "properties": {"osm_id": 8732550807, "osm_type": "nodes", "amenity": null, "tourism": null, "beds": null, "name": null, "opening_hours": null, "shop": "convenience", "rooms": null}},{"type": "Feature", "geometry": {"type":"Point","coordinates":[120.9921145,14.6152725]}, "properties": {"osm_id": 8763766155, "osm_type": "nodes", "amenity": null, "tourism": null, "beds": null, "name": "QCredit Corporation", "opening_hours": null, "shop": "money_lender", "rooms": null}},{"type": "Feature", "geometry": {"type":"Point","coordinates":[120.9920159,14.6169336]}, "properties": {"osm_id": 8732496185, "osm_type": "nodes", "amenity": null, "tourism": null, "beds": null, "name": "Mapalad Bakery", "opening_hours": null, "shop": "bakery", "rooms": null}},{"type": "Feature", "geometry": {"type":"Point","coordinates":[120.9904271,14.6136923]}, "properties": {"osm_id": 6010051986, "osm_type": "nodes", "amenity": "cafe", "tourism": null, "beds": null, "name": "Hashi Donburi", "opening_hours": null, "shop": null, "rooms": null}},{"type": "Feature", "geometry": {"type":"Point","coordinates":[120.9906928,14.6137599]}, "properties": {"osm_id": 4580489293, "osm_type": "nodes", "amenity": "fast_food", "tourism": null, "beds": null, "name": "Callows Burger", "opening_hours": null, "shop": null, "rooms": null}},{"type": "Feature", "geometry": {"type":"Point","coordinates":[120.9905897,14.6138384]}, "properties": {"osm_id": 4424595492, "osm_type": "nodes", "amenity": "fast_food", "tourism": null, "beds": null, "name": "Pong's Ihaw Ihaw", "opening_hours": null, "shop": null, "rooms": null}},{"type": "Feature", "geometry": {"type":"Point","coordinates":[120.9908706,14.6141221]}, "properties": {"osm_id": 8763766146, "osm_type": "nodes", "amenity": null, "tourism": null, "beds": null, "name": "RD Pawnshop", "opening_hours": null, "shop": "pawnbroker", "rooms": null}},{"type": "Feature", "geometry": {"type":"Point","coordinates":[120.991163,14.6141792]}, "properties": {"osm_id": 8763766147, "osm_type": "nodes", "amenity": null, "tourism": null, "beds": null, "name": "Palawan Pawnshop", "opening_hours": null, "shop": "pawnbroker", "rooms": null}},{"type": "Feature", "geometry": {"type":"Point","coordinates":[120.9898434,14.6151825]}, "properties": {"osm_id": 5255819122, "osm_type": "nodes", "amenity": null, "tourism": null, "beds": null, "name": "7-Eleven", "opening_hours": "24/7", "shop": "convenience", "rooms": null}},{"type": "Feature", "geometry": {"type":"Point","coordinates":[120.9920827,14.6150016]}, "properties": {"osm_id": 6065233086, "osm_type": "nodes", "amenity": null, "tourism": null, "beds": null, "name": "Zen Tea", "opening_hours": null, "shop": "beverages", "rooms": null}},{"type": "Feature", "geometry": {"type":"Point","coordinates":[120.9906529,14.6147565]}, "properties": {"osm_id": 5724319634, "osm_type": "nodes", "amenity": null, "tourism": null, "beds": null, "name": "DaOnlineSeller", "opening_hours": null, "shop": "motorcycle", "rooms": null}},{"type": "Feature", "geometry": {"type":"Point","coordinates":[120.9916947,14.6146641]}, "properties": {"osm_id": 6010129885, "osm_type": "nodes", "amenity": null, "tourism": null, "beds": null, "name": "Cebuana Lhuillier", "opening_hours": null, "shop": "pawnbroker", "rooms": null}},{"type": "Feature", "geometry": {"type":"Point","coordinates":[120.9912663,14.6144872]}, "properties": {"osm_id": 4576658291, "osm_type": "nodes", "amenity": "bar", "tourism": null, "beds": null, "name": "I ❤ 80s", "opening_hours": null, "shop": null, "rooms": null}},{"type": "Feature", "geometry": {"type":"Point","coordinates":[120.9861839,14.6181842]}, "properties": {"osm_id": 4578647789, "osm_type": "nodes", "amenity": null, "tourism": null, "beds": null, "name": "SM Supermarket", "opening_hours": "Mo-Su 09:00-22:00", "shop": "supermarket", "rooms": null}},{"type": "Feature", "geometry": {"type":"Point","coordinates":[120.9866764,14.6149376]}, "properties": {"osm_id": 5125844322, "osm_type": "nodes", "amenity": null, "tourism": null, "beds": null, "name": "Aguileon Cargo Express Corp.", "opening_hours": null, "shop": null, "rooms": null}},{"type": "Feature", "geometry": {"type":"Point","coordinates":[120.9882534,14.6053179]}, "properties": {"osm_id": 1931786101, "osm_type": "nodes", "amenity": "cafe", "tourism": null, "beds": null, "name": "Dunkin Donuts", "opening_hours": null, "shop": null, "rooms": null}},{"type": "Feature", "geometry": {"type":"Point","coordinates":[121.0125698,14.5797878]}, "properties": {"osm_id": 3074567639, "osm_type": "nodes", "amenity": null, "tourism": null, "beds": null, "name": "Cadey Store", "opening_hours": null, "shop": "convenience", "rooms": null}},{"type": "Feature", "geometry": {"type":"Point","coordinates":[121.0125576,14.5798223]}, "properties": {"osm_id": 3074567635, "osm_type": "nodes", "amenity": null, "tourism": null, "beds": null, "name": "Skhyller Pet Grooming", "opening_hours": null, "shop": "pet_grooming", "rooms": null}},{"type": "Feature", "geometry": {"type":"Point","coordinates":[121.0125412,14.5798631]}, "properties": {"osm_id": 3074567637, "osm_type": "nodes", "amenity": null, "tourism": null, "beds": null, "name": "Humble Store", "opening_hours": null, "shop": "convenience", "rooms": null}},{"type": "Feature", "geometry": {"type":"Point","coordinates":[121.0125925,14.579227]}, "properties": {"osm_id": 9768512154, "osm_type": "nodes", "amenity": null, "tourism": "artwork", "beds": null, "name": null, "opening_hours": null, "shop": null, "rooms": null}},{"type": "Feature", "geometry": {"type":"Point","coordinates":[121.0134317,14.5795729]}, "properties": {"osm_id": 6011752243, "osm_type": "nodes", "amenity": null, "tourism": null, "beds": null, "name": "Goldilocks", "opening_hours": null, "shop": "pastry", "rooms": null}},{"type": "Feature", "geometry": {"type":"Point","coordinates":[121.013004,14.5788909]}, "properties": {"osm_id": 6011447163, "osm_type": "nodes", "amenity": null, "tourism": null, "beds": null, "name": "Goodwill Hardware and Construction Supply", "opening_hours": null, "shop": "hardware", "rooms": null}},{"type": "Feature", "geometry": {"type":"Point","coordinates":[121.0123944,14.5788142]}, "properties": {"osm_id": 6011461674, "osm_type": "nodes", "amenity": null, "tourism": null, "beds": null, "name": "TESHEBY Trading", "opening_hours": null, "shop": null, "rooms": null}},{"type": "Feature", "geometry": {"type":"Point","coordinates":[121.0123882,14.5787486]}, "properties": {"osm_id": 6011461675, "osm_type": "nodes", "amenity": null, "tourism": null, "beds": null, "name": "Hendrick Transport", "opening_hours": null, "shop": null, "rooms": null}},{"type": "Feature", "geometry": {"type":"Point","coordinates":[121.0124221,14.5787888]}, "properties": {"osm_id": 6011461673, "osm_type": "nodes", "amenity": null, "tourism": null, "beds": null, "name": "STIBGAM Corporation", "opening_hours": null, "shop": null, "rooms": null}},{"type": "Feature", "geometry": {"type":"Point","coordinates":[121.0133479,14.5786859]}, "properties": {"osm_id": 6011513868, "osm_type": "nodes", "amenity": null, "tourism": null, "beds": null, "name": "JSFR Information Technology", "opening_hours": null, "shop": null, "rooms": null}},{"type": "Feature", "geometry": {"type":"Point","coordinates":[121.0132327,14.5786476]}, "properties": {"osm_id": 6011508534, "osm_type": "nodes", "amenity": null, "tourism": null, "beds": null, "name": "HNDEDSM Sari Sari Store", "opening_hours": null, "shop": "convenience", "rooms": null}},{"type": "Feature", "geometry": {"type":"Point","coordinates":[121.0132399,14.5786278]}, "properties": {"osm_id": 6011513871, "osm_type": "nodes", "amenity": "restaurant", "tourism": null, "beds": null, "name": "Eastern Cuisine", "opening_hours": null, "shop": null, "rooms": null}},{"type": "Feature", "geometry": {"type":"Point","coordinates":[121.0129268,14.5782069]}, "properties": {"osm_id": 6011461677, "osm_type": "nodes", "amenity": null, "tourism": null, "beds": null, "name": "White Store", "opening_hours": null, "shop": "convenience", "rooms": null}},{"type": "Feature", "geometry": {"type":"Point","coordinates":[121.013256,14.5786085]}, "properties": {"osm_id": 6011487596, "osm_type": "nodes", "amenity": null, "tourism": null, "beds": null, "name": "Real Estate Lessons", "opening_hours": null, "shop": null, "rooms": null}},{"type": "Feature", "geometry": {"type":"Point","coordinates":[121.011622,14.5803535]}, "properties": {"osm_id": 3074523475, "osm_type": "nodes", "amenity": "fast_food", "tourism": null, "beds": null, "name": "Perjan Food House", "opening_hours": null, "shop": null, "rooms": null}},{"type": "Feature", "geometry": {"type":"Point","coordinates":[121.0124429,14.5802069]}, "properties": {"osm_id": 3074567640, "osm_type": "nodes", "amenity": null, "tourism": null, "beds": null, "name": "Joe's Store", "opening_hours": null, "shop": "convenience", "rooms": null}},{"type": "Feature", "geometry": {"type":"Point","coordinates":[121.0117656,14.5805011]}, "properties": {"osm_id": 3074418291, "osm_type": "nodes", "amenity": null, "tourism": null, "beds": null, "name": "Yzy Bubbles", "opening_hours": null, "shop": "laundry", "rooms": null}},{"type": "Feature", "geometry": {"type":"Point","coordinates":[121.0121421,14.5804825]}, "properties": {"osm_id": 3074523467, "osm_type": "nodes", "amenity": null, "tourism": null, "beds": null, "name": "Mar-an Bakery", "opening_hours": null, "shop": "bakery", "rooms": null}},{"type": "Feature", "geometry": {"type":"Point","coordinates":[121.012003,14.5805646]}, "properties": {"osm_id": 3074418268, "osm_type": "nodes", "amenity": null, "tourism": null, "beds": null, "name": "Reyes Haircutters", "opening_hours": null, "shop": "beauty", "rooms": null}},{"type": "Feature", "geometry": {"type":"Point","coordinates":[121.0118078,14.580515]}, "properties": {"osm_id": 3074418281, "osm_type": "nodes", "amenity": "fast_food", "tourism": null, "beds": null, "name": "Quain Na", "opening_hours": null, "shop": null, "rooms": null}},{"type": "Feature", "geometry": {"type":"Point","coordinates":[121.0119268,14.5805374]}, "properties": {"osm_id": 3074418289, "osm_type": "nodes", "amenity": null, "tourism": null, "beds": null, "name": "Cebuana Lhuillier", "opening_hours": null, "shop": "pawnbroker", "rooms": null}},{"type": "Feature", "geometry": {"type":"Point","coordinates":[121.0121766,14.58071]}, "properties": {"osm_id": 3077038028, "osm_type": "nodes", "amenity": "fast_food", "tourism": null, "beds": null, "name": "Andok's", "opening_hours": null, "shop": null, "rooms": null}},{"type": "Feature", "geometry": {"type":"Point","coordinates":[121.0137853,14.580637]}, "properties": {"osm_id": 3074414139, "osm_type": "nodes", "amenity": null, "tourism": null, "beds": null, "name": "Visage Manila", "opening_hours": null, "shop": "hairdresser", "rooms": null}},{"type": "Feature", "geometry": {"type":"Point","coordinates":[121.013357,14.58094]}, "properties": {"osm_id": 3074418265, "osm_type": "nodes", "amenity": null, "tourism": null, "beds": null, "name": "Printhive", "opening_hours": null, "shop": "copyshop", "rooms": null}},{"type": "Feature", "geometry": {"type":"Point","coordinates":[121.011519,14.5811488]}, "properties": {"osm_id": 3074540275, "osm_type": "nodes", "amenity": null, "tourism": null, "beds": null, "name": "Red Ribbon", "opening_hours": null, "shop": "bakery", "rooms": null}},{"type": "Feature", "geometry": {"type":"Point","coordinates":[121.0118054,14.5812786]}, "properties": {"osm_id": 3074541903, "osm_type": "nodes", "amenity": null, "tourism": null, "beds": null, "name": "Gasul", "opening_hours": null, "shop": "gas", "rooms": null}},{"type": "Feature", "geometry": {"type":"Point","coordinates":[121.0133299,14.5811418]}, "properties": {"osm_id": 3076893657, "osm_type": "nodes", "amenity": null, "tourism": null, "beds": null, "name": "Two Angels Laundry", "opening_hours": null, "shop": "laundry", "rooms": null}},{"type": "Feature", "geometry": {"type":"Point","coordinates":[121.0137245,14.5815008]}, "properties": {"osm_id": 7111033526, "osm_type": "nodes", "amenity": "fast_food", "tourism": null, "beds": null, "name": "Kynthia's", "opening_hours": null, "shop": null, "rooms": null}},{"type": "Feature", "geometry": {"type":"Point","coordinates":[121.0136564,14.5814782]}, "properties": {"osm_id": 3074414135, "osm_type": "nodes", "amenity": "cafe", "tourism": null, "beds": null, "name": "Kai Cha Milk Tea", "opening_hours": null, "shop": null, "rooms": null}},{"type": "Feature", "geometry": {"type":"Point","coordinates":[121.013651,14.5814522]}, "properties": {"osm_id": 6601832747, "osm_type": "nodes", "amenity": "fast_food", "tourism": null, "beds": null, "name": "Minute Burger", "opening_hours": null, "shop": null, "rooms": null}},{"type": "Feature", "geometry": {"type":"Point","coordinates":[121.0131783,14.5814131]}, "properties": {"osm_id": 3074408221, "osm_type": "nodes", "amenity": null, "tourism": null, "beds": null, "name": "Santa Ana Enovations", "opening_hours": null, "shop": "computer", "rooms": null}},{"type": "Feature", "geometry": {"type":"Point","coordinates":[121.0124154,14.5814417]}, "properties": {"osm_id": 7880412219, "osm_type": "nodes", "amenity": "cafe", "tourism": null, "beds": null, "name": "Happy Cup", "opening_hours": null, "shop": null, "rooms": null}},{"type": "Feature", "geometry": {"type":"Point","coordinates":[121.0129356,14.5819693]}, "properties": {"osm_id": 6601832761, "osm_type": "nodes", "amenity": "fast_food", "tourism": null, "beds": null, "name": "Mang Inasal", "opening_hours": null, "shop": null, "rooms": null}},{"type": "Feature", "geometry": {"type":"Point","coordinates":[121.0134731,14.5819551]}, "properties": {"osm_id": 10010728429, "osm_type": "nodes", "amenity": null, "tourism": "artwork", "beds": null, "name": null, "opening_hours": null, "shop": null, "rooms": null}},{"type": "Feature", "geometry": {"type":"Point","coordinates":[121.0114073,14.5815786]}, "properties": {"osm_id": 2308348848, "osm_type": "nodes", "amenity": null, "tourism": "yes", "beds": null, "name": null, "opening_hours": null, "shop": null, "rooms": null}},{"type": "Feature", "geometry": {"type":"Point","coordinates":[121.0131027,14.5822385]}, "properties": {"osm_id": 3074408224, "osm_type": "nodes", "amenity": null, "tourism": null, "beds": null, "name": "Index Salon", "opening_hours": null, "shop": "hairdresser", "rooms": null}},{"type": "Feature", "geometry": {"type":"Point","coordinates":[121.0138064,14.5821774]}, "properties": {"osm_id": 3076893681, "osm_type": "nodes", "amenity": null, "tourism": null, "beds": null, "name": "Santa Ana Parish Office", "opening_hours": null, "shop": null, "rooms": null}},{"type": "Feature", "geometry": {"type":"Point","coordinates":[121.0137093,14.5814865]}, "properties": {"osm_id": 3074408208, "osm_type": "nodes", "amenity": null, "tourism": null, "beds": null, "name": "Mary Pauline Salon", "opening_hours": null, "shop": "beauty", "rooms": null}},{"type": "Feature", "geometry": {"type":"Point","coordinates":[121.0126915,14.5818947]}, "properties": {"osm_id": 7878520308, "osm_type": "nodes", "amenity": "cafe", "tourism": null, "beds": null, "name": "Starbucks", "opening_hours": "06:00-23:00", "shop": null, "rooms": null}},{"type": "Feature", "geometry": {"type":"Point","coordinates":[121.0099056,14.5783321]}, "properties": {"osm_id": 10983476720, "osm_type": "nodes", "amenity": null, "tourism": null, "beds": null, "name": null, "opening_hours": null, "shop": "car_repair", "rooms": null}},{"type": "Feature", "geometry": {"type":"Point","coordinates":[121.0095819,14.5785547]}, "properties": {"osm_id": 5312092022, "osm_type": "nodes", "amenity": null, "tourism": null, "beds": null, "name": "Wash and Wait - Laundry Mat", "opening_hours": null, "shop": "laundry", "rooms": null}},{"type": "Feature", "geometry": {"type":"Point","coordinates":[121.0090697,14.5786026]}, "properties": {"osm_id": 5799332865, "osm_type": "nodes", "amenity": "restaurant", "tourism": null, "beds": null, "name": "Shakey's", "opening_hours": null, "shop": null, "rooms": null}},{"type": "Feature", "geometry": {"type":"Point","coordinates":[121.0085796,14.5788206]}, "properties": {"osm_id": 5455490921, "osm_type": "nodes", "amenity": null, "tourism": null, "beds": null, "name": null, "opening_hours": null, "shop": "tyres", "rooms": null}},{"type": "Feature", "geometry": {"type":"Point","coordinates":[121.0090168,14.5786436]}, "properties": {"osm_id": 10931560947, "osm_type": "nodes", "amenity": null, "tourism": null, "beds": null, "name": "ALEX G Beauty and Hair", "opening_hours": null, "shop": "hairdresser", "rooms": null}},{"type": "Feature", "geometry": {"type":"Point","coordinates":[121.01132,14.578714]}, "properties": {"osm_id": 7141597785, "osm_type": "nodes", "amenity": null, "tourism": null, "beds": null, "name": "JC LED", "opening_hours": null, "shop": "variety_store", "rooms": null}},{"type": "Feature", "geometry": {"type":"Point","coordinates":[121.0112063,14.5789577]}, "properties": {"osm_id": 5799337318, "osm_type": "nodes", "amenity": "cafe", "tourism": null, "beds": null, "name": "Swig", "opening_hours": null, "shop": null, "rooms": null}},{"type": "Feature", "geometry": {"type":"Point","coordinates":[121.0006545,14.5786109]}, "properties": {"osm_id": 6009209009, "osm_type": "nodes", "amenity": null, "tourism": null, "beds": null, "name": null, "opening_hours": null, "shop": "tailor", "rooms": null}},{"type": "Feature", "geometry": {"type":"Point","coordinates":[121.0002478,14.5785841]}, "properties": {"osm_id": 3723185966, "osm_type": "nodes", "amenity": null, "tourism": null, "beds": null, "name": "7-Eleven", "opening_hours": null, "shop": "convenience", "rooms": null}},{"type": "Feature", "geometry": {"type":"Point","coordinates":[121.0000805,14.5786239]}, "properties": {"osm_id": 6009209006, "osm_type": "nodes", "amenity": null, "tourism": null, "beds": null, "name": "I-Style Salon", "opening_hours": null, "shop": "beauty", "rooms": null}},{"type": "Feature", "geometry": {"type":"Point","coordinates":[121.0005997,14.5786327]}, "properties": {"osm_id": 5785378761, "osm_type": "nodes", "amenity": null, "tourism": null, "beds": null, "name": "LBC", "opening_hours": null, "shop": null, "rooms": null}},{"type": "Feature", "geometry": {"type":"Point","coordinates":[121.0008305,14.5786479]}, "properties": {"osm_id": 6009209013, "osm_type": "nodes", "amenity": null, "tourism": null, "beds": null, "name": "Motortrade", "opening_hours": null, "shop": "motorcycle", "rooms": null}},{"type": "Feature", "geometry": {"type":"Point","coordinates":[121.0008454,14.5787521]}, "properties": {"osm_id": 10750197907, "osm_type": "nodes", "amenity": null, "tourism": null, "beds": null, "name": "Big Brew", "opening_hours": "Mo-Su 14:00-11:00", "shop": "beverages", "rooms": null}},{"type": "Feature", "geometry": {"type":"Point","coordinates":[121.0013947,14.5786447]}, "properties": {"osm_id": 6009209019, "osm_type": "nodes", "amenity": null, "tourism": null, "beds": null, "name": "M Lhuillier", "opening_hours": null, "shop": "pawnbroker", "rooms": null}},{"type": "Feature", "geometry": {"type":"Point","coordinates":[121.0018464,14.5789434]}, "properties": {"osm_id": 8509860595, "osm_type": "nodes", "amenity": "restaurant", "tourism": null, "beds": null, "name": "Dolora's Hauz of Pancit Malabon", "opening_hours": "Mo-Su 08:00-20:00", "shop": null, "rooms": null}},{"type": "Feature", "geometry": {"type":"Point","coordinates":[121.0001894,14.5794761]}, "properties": {"osm_id": 1293376113, "osm_type": "nodes", "amenity": null, "tourism": null, "beds": null, "name": "7-Eleven", "opening_hours": "24/7", "shop": "convenience", "rooms": null}},{"type": "Feature", "geometry": {"type":"Point","coordinates":[121.0055236,14.5791901]}, "properties": {"osm_id": 10750197906, "osm_type": "nodes", "amenity": null, "tourism": null, "beds": null, "name": null, "opening_hours": "24/7", "shop": "convenience", "rooms": null}},{"type": "Feature", "geometry": {"type":"Point","coordinates":[121.0059385,14.5791556]}, "properties": {"osm_id": 7864567387, "osm_type": "nodes", "amenity": null, "tourism": null, "beds": null, "name": "Margarita House", "opening_hours": null, "shop": "erotic", "rooms": null}},{"type": "Feature", "geometry": {"type":"Point","coordinates":[121.0049618,14.5796843]}, "properties": {"osm_id": 9037313379, "osm_type": "nodes", "amenity": "marketplace", "tourism": null, "beds": null, "name": null, "opening_hours": null, "shop": null, "rooms": null}},{"type": "Feature", "geometry": {"type":"Point","coordinates":[121.0072401,14.5798052]}, "properties": {"osm_id": 10983476727, "osm_type": "nodes", "amenity": null, "tourism": null, "beds": null, "name": null, "opening_hours": null, "shop": "car_repair", "rooms": null}},{"type": "Feature", "geometry": {"type":"Point","coordinates":[121.0065403,14.5800673]}, "properties": {"osm_id": 9037313378, "osm_type": "nodes", "amenity": null, "tourism": null, "beds": null, "name": "Old School Barbershop - Main", "opening_hours": null, "shop": "hairdresser", "rooms": null}},{"type": "Feature", "geometry": {"type":"Point","coordinates":[121.0064248,14.5800295]}, "properties": {"osm_id": 9037313384, "osm_type": "nodes", "amenity": null, "tourism": null, "beds": null, "name": null, "opening_hours": null, "shop": "computer", "rooms": null}},{"type": "Feature", "geometry": {"type":"Point","coordinates":[121.0074232,14.5805687]}, "properties": {"osm_id": 4405821898, "osm_type": "nodes", "amenity": "restaurant", "tourism": null, "beds": null, "name": null, "opening_hours": null, "shop": null, "rooms": null}},{"type": "Feature", "geometry": {"type":"Point","coordinates":[121.0075915,14.5802604]}, "properties": {"osm_id": 10931543542, "osm_type": "nodes", "amenity": null, "tourism": null, "beds": null, "name": "Parmasiyutika Drugstore", "opening_hours": null, "shop": "chemist", "rooms": null}},{"type": "Feature", "geometry": {"type":"Point","coordinates":[121.0075079,14.5802493]}, "properties": {"osm_id": 9037313383, "osm_type": "nodes", "amenity": null, "tourism": null, "beds": null, "name": null, "opening_hours": null, "shop": "optician", "rooms": null}},{"type": "Feature", "geometry": {"type":"Point","coordinates":[121.0073607,14.5802263]}, "properties": {"osm_id": 10750258805, "osm_type": "nodes", "amenity": "fast_food", "tourism": null, "beds": null, "name": "Goto Cantina, Tapsihan at iba pa...", "opening_hours": "24/7", "shop": null, "rooms": null}},{"type": "Feature", "geometry": {"type":"Point","coordinates":[121.0092688,14.5804189]}, "properties": {"osm_id": 4527736595, "osm_type": "nodes", "amenity": null, "tourism": null, "beds": null, "name": null, "opening_hours": null, "shop": "laundry", "rooms": null}},{"type": "Feature", "geometry": {"type":"Point","coordinates":[121.0108382,14.580989]}, "properties": {"osm_id": 3074414134, "osm_type": "nodes", "amenity": "fast_food", "tourism": null, "beds": null, "name": "Mr. Liempo", "opening_hours": null, "shop": null, "rooms": null}},{"type": "Feature", "geometry": {"type":"Point","coordinates":[121.0101739,14.5808174]}, "properties": {"osm_id": 6601832756, "osm_type": "nodes", "amenity": null, "tourism": null, "beds": null, "name": null, "opening_hours": null, "shop": "car_repair", "rooms": null}},{"type": "Feature", "geometry": {"type":"Point","coordinates":[121.0090566,14.580671]}, "properties": {"osm_id": 9823991437, "osm_type": "nodes", "amenity": null, "tourism": null, "beds": null, "name": "Sangguniang Pambarangay ng 880", "opening_hours": "Mo-Fr 08:00-17:00", "shop": null, "rooms": null}},{"type": "Feature", "geometry": {"type":"Point","coordinates":[121.0019155,14.5834812]}, "properties": {"osm_id": 505063790, "osm_type": "nodes", "amenity": "fast_food", "tourism": null, "beds": null, "name": "Burger Machine", "opening_hours": null, "shop": null, "rooms": null}},{"type": "Feature", "geometry": {"type":"Point","coordinates":[121.0067676,14.5836494]}, "properties": {"osm_id": 5424032722, "osm_type": "nodes", "amenity": null, "tourism": null, "beds": null, "name": "Kumar Plastic", "opening_hours": null, "shop": null, "rooms": null}},{"type": "Feature", "geometry": {"type":"Point","coordinates":[121.0090054,14.5786604]}, "properties": {"osm_id": 5799332866, "osm_type": "nodes", "amenity": "fast_food", "tourism": null, "beds": null, "name": "Andok's", "opening_hours": null, "shop": null, "rooms": null}},{"type": "Feature", "geometry": {"type":"Point","coordinates":[121.0113244,14.5815711]}, "properties": {"osm_id": 9998769024, "osm_type": "nodes", "amenity": null, "tourism": "yes", "beds": null, "name": null, "opening_hours": null, "shop": null, "rooms": null}},{"type": "Feature", "geometry": {"type":"Point","coordinates":[121.0053139,14.5795206]}, "properties": {"osm_id": 9037313380, "osm_type": "nodes", "amenity": null, "tourism": null, "beds": null, "name": "Neigborhood Wholesale", "opening_hours": null, "shop": "supermarket", "rooms": null}},{"type": "Feature", "geometry": {"type":"Point","coordinates":[120.9901156,14.5724654]}, "properties": {"osm_id": 8768836789, "osm_type": "nodes", "amenity": null, "tourism": null, "beds": null, "name": "King's Manpower Services, Inc.", "opening_hours": null, "shop": null, "rooms": null}},{"type": "Feature", "geometry": {"type":"Point","coordinates":[120.9901202,14.5726312]}, "properties": {"osm_id": 10543374602, "osm_type": "nodes", "amenity": null, "tourism": null, "beds": null, "name": "Palawan Pawnshop", "opening_hours": null, "shop": "pawnbroker", "rooms": null}},{"type": "Feature", "geometry": {"type":"Point","coordinates":[120.989926,14.5727781]}, "properties": {"osm_id": 4768870837, "osm_type": "nodes", "amenity": null, "tourism": null, "beds": null, "name": "Hanseatic Shipping", "opening_hours": null, "shop": "travel_agency", "rooms": null}},{"type": "Feature", "geometry": {"type":"Point","coordinates":[120.9886534,14.5731517]}, "properties": {"osm_id": 4733398621, "osm_type": "nodes", "amenity": null, "tourism": "hostel", "beds": null, "name": "Mariner's Home Annex III", "opening_hours": "24/7", "shop": null, "rooms": null}},{"type": "Feature", "geometry": {"type":"Point","coordinates":[120.9872569,14.5730485]}, "properties": {"osm_id": 4105445289, "osm_type": "nodes", "amenity": null, "tourism": "hostel", "beds": null, "name": "Sharon Boarding House", "opening_hours": "24/7", "shop": null, "rooms": null}},{"type": "Feature", "geometry": {"type":"Point","coordinates":[120.9903845,14.5740525]}, "properties": {"osm_id": 1540288390, "osm_type": "nodes", "amenity": null, "tourism": null, "beds": null, "name": "7-Eleven", "opening_hours": "24/7", "shop": "convenience", "rooms": null}},{"type": "Feature", "geometry": {"type":"Point","coordinates":[120.9905591,14.5741458]}, "properties": {"osm_id": 1540288387, "osm_type": "nodes", "amenity": "fast_food", "tourism": null, "beds": null, "name": "Nitz Restaurant", "opening_hours": null, "shop": null, "rooms": null}},{"type": "Feature", "geometry": {"type":"Point","coordinates":[120.989525,14.5735786]}, "properties": {"osm_id": 7065069186, "osm_type": "nodes", "amenity": null, "tourism": null, "beds": null, "name": "7-Eleven", "opening_hours": null, "shop": "convenience", "rooms": null}},{"type": "Feature", "geometry": {"type":"Point","coordinates":[120.9902958,14.5720926]}, "properties": {"osm_id": 5004569921, "osm_type": "nodes", "amenity": null, "tourism": null, "beds": null, "name": "Compass Training Center", "opening_hours": null, "shop": null, "rooms": null}},{"type": "Feature", "geometry": {"type":"Point","coordinates":[120.9909229,14.5718605]}, "properties": {"osm_id": 8768836788, "osm_type": "nodes", "amenity": null, "tourism": null, "beds": null, "name": "Honda", "opening_hours": null, "shop": "motorcycle", "rooms": null}},{"type": "Feature", "geometry": {"type":"Point","coordinates":[120.9879645,14.5720811]}, "properties": {"osm_id": 4884589522, "osm_type": "nodes", "amenity": null, "tourism": null, "beds": null, "name": "Daily overland cargo", "opening_hours": "Mo-Sa 09:00-18:00", "shop": null, "rooms": null}},{"type": "Feature", "geometry": {"type":"Point","coordinates":[120.988634,14.5714076]}, "properties": {"osm_id": 5523188921, "osm_type": "nodes", "amenity": null, "tourism": "hotel", "beds": null, "name": null, "opening_hours": null, "shop": null, "rooms": null}},{"type": "Feature", "geometry": {"type":"Point","coordinates":[120.9908012,14.5711996]}, "properties": {"osm_id": 8768836797, "osm_type": "nodes", "amenity": null, "tourism": null, "beds": null, "name": "Natasha", "opening_hours": null, "shop": "clothes", "rooms": null}},{"type": "Feature", "geometry": {"type":"Point","coordinates":[120.9880865,14.5711412]}, "properties": {"osm_id": 3138851429, "osm_type": "nodes", "amenity": null, "tourism": null, "beds": null, "name": "7-Eleven", "opening_hours": "24/7", "shop": "convenience", "rooms": null}},{"type": "Feature", "geometry": {"type":"Point","coordinates":[120.9878972,14.5706851]}, "properties": {"osm_id": 4703409589, "osm_type": "nodes", "amenity": null, "tourism": null, "beds": null, "name": "Master Shia Drinking Water Station", "opening_hours": null, "shop": "water", "rooms": null}},{"type": "Feature", "geometry": {"type":"Point","coordinates":[120.9887027,14.5699019]}, "properties": {"osm_id": 7829904302, "osm_type": "nodes", "amenity": null, "tourism": null, "beds": null, "name": "Tambunting Pawnshop", "opening_hours": null, "shop": "pawnbroker", "rooms": null}},{"type": "Feature", "geometry": {"type":"Point","coordinates":[120.9872933,14.5667772]}, "properties": {"osm_id": 4314530589, "osm_type": "nodes", "amenity": null, "tourism": null, "beds": null, "name": "Morelia Tours and Travel", "opening_hours": null, "shop": "travel_agency", "rooms": null}},{"type": "Feature", "geometry": {"type":"Point","coordinates":[120.989702,14.5683455]}, "properties": {"osm_id": 4919866121, "osm_type": "nodes", "amenity": null, "tourism": "motel", "beds": null, "name": "Wayside", "opening_hours": null, "shop": null, "rooms": null}},{"type": "Feature", "geometry": {"type":"Point","coordinates":[120.9891471,14.5676862]}, "properties": {"osm_id": 4457284289, "osm_type": "nodes", "amenity": null, "tourism": null, "beds": null, "name": "Hartmann Maritime", "opening_hours": null, "shop": "travel_agency", "rooms": null}},{"type": "Feature", "geometry": {"type":"Point","coordinates":[120.9930104,14.5665689]},