{
  "type": "FeatureCollection",
  "features": [
    {
      "type": "Feature",
      "geometry": {
        "type": "Point",
        "coordinates": [
          121.0837967,
          14.6263863
        ]
      },
      "properties": {
        "osm_id": 4420026888,
        "osm_type": "nodes",
        "amenity": "restaurant",
        "tourism": null,
        "beds": null,
        "name": "Max's Restaurant",
        "opening_hours": "Mo-Su 10:00-21:00",
        "shop": null,
        "rooms": null
      }
    },
    {
      "type": "Feature",
      "geometry": {
        "type": "Point",
        "coordinates": [
          121.1014918,
          14.6235931
        ]
      },
      "properties": {
        "osm_id": 12747847800,
        "osm_type": "nodes",
        "amenity": "restaurant",
        "tourism": null,
        "beds": null,
        "name": "24 Chicken",
        "opening_hours": null,
        "shop": null,
        "rooms": null
      }
    },
    {
      "type": "Feature",
      "geometry": {
        "type": "Point",
        "coordinates": [
          121.1023284,
          14.6234869
        ]
      },
      "properties": {
        "osm_id": 670274479,
        "osm_type": "nodes",
        "amenity": "bar",
        "tourism": null,
        "beds": null,
        "name": "Marikina River Gold Grill and Restobar",
        "opening_hours": null,
        "shop": null,
        "rooms": null
      }
    },
    {
      "type": "Feature",
      "geometry": {
        "type": "Point",
        "coordinates": [
          121.1042169,
          14.641397
        ]
      },
      "properties": {
        "osm_id": 6120622250,
        "osm_type": "nodes",
        "amenity": "restaurant",
        "tourism": null,
        "beds": null,
        "name": "Silyo DMiela",
        "opening_hours": null,
        "shop": null,
        "rooms": null
      }
    },
    {
      "type": "Feature",
      "geometry": {
        "type": "Point",
        "coordinates": [
          121.1039209,
          14.6419841
        ]
      },
      "properties": {
        "osm_id": 12741294789,
        "osm_type": "nodes",
        "amenity": "restaurant",
        "tourism": null,
        "beds": null,
        "name": "Tinings",
        "opening_hours": null,
        "shop": null,
        "rooms": null
      }
    },
    {
      "type": "Feature",
      "geometry": {
        "type": "Point",
        "coordinates": [
          121.0979333,
          14.6319716
        ]
      },
      "properties": {
        "osm_id": 12675720306,
        "osm_type": "nodes",
        "amenity": "fast_food",
        "tourism": null,
        "beds": null,
        "name": "Baliwag",
        "opening_hours": null,
        "shop": null,
        "rooms": null
      }
    },
    {
      "type": "Feature",
      "geometry": {
        "type": "Point",
        "coordinates": [
          121.1020396,
          14.6379837
        ]
      },
      "properties": {
        "osm_id": 10983463005,
        "osm_type": "nodes",
        "amenity": "fast_food",
        "tourism": null,
        "beds": null,
        "name": "Gotobox",
        "opening_hours": null,
        "shop": null,
        "rooms": null
      }
    },
    {
      "type": "Feature",
      "geometry": {
        "type": "Point",
        "coordinates": [
          121.0955934,
          14.6326559
        ]
      },
      "properties": {
        "osm_id": 601379192,
        "osm_type": "nodes",
        "amenity": "restaurant",
        "tourism": null,
        "beds": null,
        "name": "Krung Thai",
        "opening_hours": "09:00-20:00",
        "shop": null,
        "rooms": null
      }
    },
    {
      "type": "Feature",
      "geometry": {
        "type": "Point",
        "coordinates": [
          121.0966985,
          14.6471404
        ]
      },
      "properties": {
        "osm_id": 12468132425,
        "osm_type": "nodes",
        "amenity": "place_of_mourning",
        "tourism": null,
        "beds": null,
        "name": "Bonita Memorial Homes",
        "opening_hours": null,
        "shop": "funeral_directors",
        "rooms": null
      }
    },
    {
      "type": "Feature",
      "geometry": {
        "type": "Point",
        "coordinates": [
          121.0968679,
          14.6463172
        ]
      },
      "properties": {
        "osm_id": 12483853033,
        "osm_type": "nodes",
        "amenity": "cafe",
        "tourism": null,
        "beds": null,
        "name": "Bubba Lab",
        "opening_hours": null,
        "shop": null,
        "rooms": null
      }
    },
    {
      "type": "Feature",
      "geometry": {
        "type": "Point",
        "coordinates": [
          121.1027544,
          14.6350865
        ]
      },
      "properties": {
        "osm_id": 12675766398,
        "osm_type": "nodes",
        "amenity": "restaurant",
        "tourism": null,
        "beds": null,
        "name": "R. Lapid's",
        "opening_hours": null,
        "shop": null,
        "rooms": null
      }
    },
    {
      "type": "Feature",
      "geometry": {
        "type": "Point",
        "coordinates": [
          121.1041617,
          14.6415562
        ]
      },
      "properties": {
        "osm_id": 5503190803,
        "osm_type": "nodes",
        "amenity": "restaurant",
        "tourism": null,
        "beds": null,
        "name": "Dong Juan",
        "opening_hours": null,
        "shop": null,
        "rooms": null
      }
    },
    {
      "type": "Feature",
      "geometry": {
        "type": "Point",
        "coordinates": [
          121.1043257,
          14.6415049
        ]
      },
      "properties": {
        "osm_id": 6120622249,
        "osm_type": "nodes",
        "amenity": "restaurant",
        "tourism": null,
        "beds": null,
        "name": "Tongara Ramen",
        "opening_hours": null,
        "shop": null,
        "rooms": null
      }
    },
    {
      "type": "Feature",
      "geometry": {
        "type": "Point",
        "coordinates": [
          121.1042904,
          14.6413671
        ]
      },
      "properties": {
        "osm_id": 6120622251,
        "osm_type": "nodes",
        "amenity": "restaurant",
        "tourism": null,
        "beds": null,
        "name": "Wingfather",
        "opening_hours": null,
        "shop": null,
        "rooms": null
      }
    },
    {
      "type": "Feature",
      "geometry": {
        "type": "Point",
        "coordinates": [
          121.1042567,
          14.6415331
        ]
      },
      "properties": {
        "osm_id": 6120622252,
        "osm_type": "nodes",
        "amenity": "restaurant",
        "tourism": null,
        "beds": null,
        "name": "Ahlee's",
        "opening_hours": null,
        "shop": null,
        "rooms": null
      }
    },
    {
      "type": "Feature",
      "geometry": {
        "type": "Point",
        "coordinates": [
          121.1010911,
          14.6233385
        ]
      },
      "properties": {
        "osm_id": 5142010763,
        "osm_type": "nodes",
        "amenity": "restaurant",
        "tourism": null,
        "beds": null,
        "name": "Delicere",
        "opening_hours": null,
        "shop": null,
        "rooms": null
      }
    },
    {
      "type": "Feature",
      "geometry": {
        "type": "Point",
        "coordinates": [
          121.098092,
          14.6310181
        ]
      },
      "properties": {
        "osm_id": 12675691327,
        "osm_type": "nodes",
        "amenity": "restaurant",
        "tourism": null,
        "beds": null,
        "name": "Chooks-to-Go",
        "opening_hours": null,
        "shop": null,
        "rooms": null
      }
    },
    {
      "type": "Feature",
      "geometry": {
        "type": "Point",
        "coordinates": [
          121.0980103,
          14.6317097
        ]
      },
      "properties": {
        "osm_id": 3283270015,
        "osm_type": "nodes",
        "amenity": "fast_food",
        "tourism": null,
        "beds": null,
        "name": "Murakami",
        "opening_hours": null,
        "shop": null,
        "rooms": null
      }
    },
    {
      "type": "Feature",
      "geometry": {
        "type": "Point",
        "coordinates": [
          121.0971355,
          14.6305025
        ]
      },
      "properties": {
        "osm_id": 8509609358,
        "osm_type": "nodes",
        "amenity": "restaurant",
        "tourism": null,
        "beds": null,
        "name": "Dolora's Hauz of Pancit Malabon",
        "opening_hours": "Mo-Su 08:00-20:00",
        "shop": null,
        "rooms": null
      }
    },
    {
      "type": "Feature",
      "geometry": {
        "type": "Point",
        "coordinates": [
          121.098047,
          14.6312985
        ]
      },
      "properties": {
        "osm_id": 12675720466,
        "osm_type": "nodes",
        "amenity": "restaurant",
        "tourism": null,
        "beds": null,
        "name": "Anapi's Eatery",
        "opening_hours": null,
        "shop": null,
        "rooms": null
      }
    },
    {
      "type": "Feature",
      "geometry": {
        "type": "Point",
        "coordinates": [
          121.1028789,
          14.6412161
        ]
      },
      "properties": {
        "osm_id": 4647249513,
        "osm_type": "nodes",
        "amenity": "restaurant",
        "tourism": null,
        "beds": null,
        "name": "Ikay's Seafood Sutukil",
        "opening_hours": null,
        "shop": null,
        "rooms": null
      }
    },
    {
      "type": "Feature",
      "geometry": {
        "type": "Point",
        "coordinates": [
          121.1044995,
          14.642307
        ]
      },
      "properties": {
        "osm_id": 12741128190,
        "osm_type": "nodes",
        "amenity": "restaurant",
        "tourism": null,
        "beds": null,
        "name": "CHEF HBar & Grill",
        "opening_hours": null,
        "shop": null,
        "rooms": null
      }
    },
    {
      "type": "Feature",
      "geometry": {
        "type": "Point",
        "coordinates": [
          121.1041819,
          14.6425764
        ]
      },
      "properties": {
        "osm_id": 12741242692,
        "osm_type": "nodes",
        "amenity": "restaurant",
        "tourism": null,
        "beds": null,
        "name": "Stax Chicken",
        "opening_hours": null,
        "shop": null,
        "rooms": null
      }
    },
    {
      "type": "Feature",
      "geometry": {
        "type": "Point",
        "coordinates": [
          121.1044144,
          14.6428941
        ]
      },
      "properties": {
        "osm_id": 12631508379,
        "osm_type": "nodes",
        "amenity": "restaurant",
        "tourism": null,
        "beds": null,
        "name": "Pancake House",
        "opening_hours": null,
        "shop": null,
        "rooms": null
      }
    },
    {
      "type": "Feature",
      "geometry": {
        "type": "Point",
        "coordinates": [
          121.0977807,
          14.6336466
        ]
      },
      "properties": {
        "osm_id": 12675824360,
        "osm_type": "nodes",
        "amenity": "fast_food",
        "tourism": null,
        "beds": null,
        "name": "Dunkin'",
        "opening_hours": null,
        "shop": null,
        "rooms": null
      }
    },
    {
      "type": "Feature",
      "geometry": {
        "type": "Point",
        "coordinates": [
          121.1017449,
          14.6365647
        ]
      },
      "properties": {
        "osm_id": 6120622248,
        "osm_type": "nodes",
        "amenity": "fast_food",
        "tourism": null,
        "beds": null,
        "name": "Goto Bob",
        "opening_hours": null,
        "shop": null,
        "rooms": null
      }
    },
    {
      "type": "Feature",
      "geometry": {
        "type": "Point",
        "coordinates": [
          121.0978569,
          14.6331338
        ]
      },
      "properties": {
        "osm_id": 12611635097,
        "osm_type": "nodes",
        "amenity": "cafe",
        "tourism": null,
        "beds": null,
        "name": "Paint and Brew",
        "opening_hours": null,
        "shop": null,
        "rooms": null
      }
    },
    {
      "type": "Feature",
      "geometry": {
        "type": "Point",
        "coordinates": [
          121.099579,
          14.6324746
        ]
      },
      "properties": {
        "osm_id": 12586290465,
        "osm_type": "nodes",
        "amenity": "cafe",
        "tourism": null,
        "beds": null,
        "name": "Czaczacza Cafe",
        "opening_hours": null,
        "shop": null,
        "rooms": null
      }
    },
    {
      "type": "Feature",
      "geometry": {
        "type": "Point",
        "coordinates": [
          121.12641,
          14.6391653
        ]
      },
      "properties": {
        "osm_id": 12642518447,
        "osm_type": "nodes",
        "amenity": "fast_food",
        "tourism": null,
        "beds": null,
        "name": "Goto Bob",
        "opening_hours": "24/7",
        "shop": null,
        "rooms": null
      }
    },
    {
      "type": "Feature",
      "geometry": {
        "type": "Point",
        "coordinates": [
          121.1215434,
          14.6394949
        ]
      },
      "properties": {
        "osm_id": 4188645289,
        "osm_type": "nodes",
        "amenity": "bar",
        "tourism": null,
        "beds": null,
        "name": "88 Tavern",
        "opening_hours": null,
        "shop": null,
        "rooms": null
      }
    },
    {
      "type": "Feature",
      "geometry": {
        "type": "Point",
        "coordinates": [
          121.1213876,
          14.6395118
        ]
      },
      "properties": {
        "osm_id": 6180291048,
        "osm_type": "nodes",
        "amenity": "restaurant",
        "tourism": null,
        "beds": null,
        "name": "Hungry Juan",
        "opening_hours": null,
        "shop": null,
        "rooms": null
      }
    },
    {
      "type": "Feature",
      "geometry": {
        "type": "Point",
        "coordinates": [
          121.120517,
          14.6378523
        ]
      },
      "properties": {
        "osm_id": 12051023791,
        "osm_type": "nodes",
        "amenity": "restaurant",
        "tourism": null,
        "beds": null,
        "name": "Snackerz Bundle",
        "opening_hours": null,
        "shop": null,
        "rooms": null
      }
    },
    {
      "type": "Feature",
      "geometry": {
        "type": "Point",
        "coordinates": [
          121.1210769,
          14.6439806
        ]
      },
      "properties": {
        "osm_id": 5126232939,
        "osm_type": "nodes",
        "amenity": "restaurant",
        "tourism": null,
        "beds": null,
        "name": "Forget Me Not",
        "opening_hours": null,
        "shop": null,
        "rooms": null
      }
    },
    {
      "type": "Feature",
      "geometry": {
        "type": "Point",
        "coordinates": [
          121.1204009,
          14.6445464
        ]
      },
      "properties": {
        "osm_id": 5126219527,
        "osm_type": "nodes",
        "amenity": "restaurant",
        "tourism": null,
        "beds": null,
        "name": "Choobi Choobi",
        "opening_hours": null,
        "shop": null,
        "rooms": null
      }
    },
    {
      "type": "Feature",
      "geometry": {
        "type": "Point",
        "coordinates": [
          121.1201765,
          14.6447593
        ]
      },
      "properties": {
        "osm_id": 5050191422,
        "osm_type": "nodes",
        "amenity": "restaurant",
        "tourism": null,
        "beds": null,
        "name": "Kanzen Sushi Roll",
        "opening_hours": null,
        "shop": null,
        "rooms": null
      }
    },
    {
      "type": "Feature",
      "geometry": {
        "type": "Point",
        "coordinates": [
          121.1200191,
          14.6448707
        ]
      },
      "properties": {
        "osm_id": 6246461013,
        "osm_type": "nodes",
        "amenity": "restaurant",
        "tourism": null,
        "beds": null,
        "name": "Jiyuu",
        "opening_hours": null,
        "shop": null,
        "rooms": null
      }
    },
    {
      "type": "Feature",
      "geometry": {
        "type": "Point",
        "coordinates": [
          121.1218932,
          14.6413056
        ]
      },
      "properties": {
        "osm_id": 12074717579,
        "osm_type": "nodes",
        "amenity": "restaurant",
        "tourism": null,
        "beds": null,
        "name": "Kabigting's Halo-Halo",
        "opening_hours": null,
        "shop": null,
        "rooms": null
      }
    },
    {
      "type": "Feature",
      "geometry": {
        "type": "Point",
        "coordinates": [
          121.1218952,
          14.6419401
        ]
      },
      "properties": {
        "osm_id": 12440436182,
        "osm_type": "nodes",
        "amenity": "restaurant",
        "tourism": null,
        "beds": null,
        "name": "Sajang Chicken",
        "opening_hours": null,
        "shop": null,
        "rooms": null
      }
    },
    {
      "type": "Feature",
      "geometry": {
        "type": "Point",
        "coordinates": [
          121.1104922,
          14.6424377
        ]
      },
      "properties": {
        "osm_id": 12552991771,
        "osm_type": "nodes",
        "amenity": "fast_food",
        "tourism": null,
        "beds": null,
        "name": "McDonald's",
        "opening_hours": null,
        "shop": null,
        "rooms": null
      }
    },
    {
      "type": "Feature",
      "geometry": {
        "type": "Point",
        "coordinates": [
          121.1135071,
          14.650415
        ]
      },
      "properties": {
        "osm_id": 12654220832,
        "osm_type": "nodes",
        "amenity": "restaurant",
        "tourism": null,
        "beds": null,
        "name": "Custaco",
        "opening_hours": null,
        "shop": null,
        "rooms": null
      }
    },
    {
      "type": "Feature",
      "geometry": {
        "type": "Point",
        "coordinates": [
          121.112323,
          14.6512536
        ]
      },
      "properties": {
        "osm_id": 12678224711,
        "osm_type": "nodes",
        "amenity": "fast_food",
        "tourism": null,
        "beds": null,
        "name": "Burger Machine",
        "opening_hours": null,
        "shop": null,
        "rooms": null
      }
    },
    {
      "type": "Feature",
      "geometry": {
        "type": "Point",
        "coordinates": [
          121.1126939,
          14.6482037
        ]
      },
      "properties": {
        "osm_id": 12678240908,
        "osm_type": "nodes",
        "amenity": "restaurant",
        "tourism": null,
        "beds": null,
        "name": "Hidden Vietnam",
        "opening_hours": null,
        "shop": null,
        "rooms": null
      }
    },
    {
      "type": "Feature",
      "geometry": {
        "type": "Point",
        "coordinates": [
          121.1122987,
          14.6478772
        ]
      },
      "properties": {
        "osm_id": 12678060785,
        "osm_type": "nodes",
        "amenity": "cafe",
        "tourism": null,
        "beds": null,
        "name": "O'Kafe",
        "opening_hours": null,
        "shop": null,
        "rooms": null
      }
    },
    {
      "type": "Feature",
      "geometry": {
        "type": "Point",
        "coordinates": [
          121.1048239,
          14.6519283
        ]
      },
      "properties": {
        "osm_id": 12677979532,
        "osm_type": "nodes",
        "amenity": "cafe",
        "tourism": null,
        "beds": null,
        "name": "Mr.Brewsko",
        "opening_hours": null,
        "shop": null,
        "rooms": null
      }
    },
    {
      "type": "Feature",
      "geometry": {
        "type": "Point",
        "coordinates": [
          121.112136,
          14.6492266
        ]
      },
      "properties": {
        "osm_id": 12675655544,
        "osm_type": "nodes",
        "amenity": "cafe",
        "tourism": null,
        "beds": null,
        "name": "Cafe Margarita",
        "opening_hours": null,
        "shop": null,
        "rooms": null
      }
    },
    {
      "type": "Feature",
      "geometry": {
        "type": "Point",
        "coordinates": [
          121.111376,
          14.6502958
        ]
      },
      "properties": {
        "osm_id": 12675662518,
        "osm_type": "nodes",
        "amenity": "restaurant",
        "tourism": null,
        "beds": null,
        "name": "Alonzo's",
        "opening_hours": null,
        "shop": null,
        "rooms": null
      }
    },
    {
      "type": "Feature",
      "geometry": {
        "type": "Point",
        "coordinates": [
          121.1113814,
          14.6503225
        ]
      },
      "properties": {
        "osm_id": 12675662519,
        "osm_type": "nodes",
        "amenity": "restaurant",
        "tourism": null,
        "beds": null,
        "name": "Big Mummy's Express",
        "opening_hours": null,
        "shop": null,
        "rooms": null
      }
    },
    {
      "type": "Feature",
      "geometry": {
        "type": "Point",
        "coordinates": [
          121.112325,
          14.6512536
        ]
      },
      "properties": {
        "osm_id": 12675676452,
        "osm_type": "nodes",
        "amenity": "fast_food",
        "tourism": null,
        "beds": null,
        "name": "Burger Machine",
        "opening_hours": null,
        "shop": null,
        "rooms": null
      }
    },
    {
      "type": "Feature",
      "geometry": {
        "type": "Point",
        "coordinates": [
          121.1095204,
          14.6512088
        ]
      },
      "properties": {
        "osm_id": 12654174171,
        "osm_type": "nodes",
        "amenity": "cafe",
        "tourism": null,
        "beds": null,
        "name": "Chachago",
        "opening_hours": null,
        "shop": null,
        "rooms": null
      }
    },
    {
      "type": "Feature",
      "geometry": {
        "type": "Point",
        "coordinates": [
          121.1079779,
          14.6506196
        ]
      },
      "properties": {
        "osm_id": 12654211621,
        "osm_type": "nodes",
        "amenity": "fast_food",
        "tourism": null,
        "beds": null,
        "name": "Pares 96",
        "opening_hours": null,
        "shop": null,
        "rooms": null
      }
    },
    {
      "type": "Feature",
      "geometry": {
        "type": "Point",
        "coordinates": [
          121.1065281,
          14.6504734
        ]
      },
      "properties": {
        "osm_id": 12654238750,
        "osm_type": "nodes",
        "amenity": "restaurant",
        "tourism": null,
        "beds": null,
        "name": "Maparamen",
        "opening_hours": null,
        "shop": null,
        "rooms": null
      }
    },
    {
      "type": "Feature",
      "geometry": {
        "type": "Point",
        "coordinates": [
          121.1121776,
          14.6505745
        ]
      },
      "properties": {
        "osm_id": 12654174159,
        "osm_type": "nodes",
        "amenity": "cafe",
        "tourism": null,
        "beds": null,
        "name": "Pick Up Coffee",
        "opening_hours": "07:00-22:00",
        "shop": null,
        "rooms": null
      }
    },
    {
      "type": "Feature",
      "geometry": {
        "type": "Point",
        "coordinates": [
          121.1128494,
          14.6462655
        ]
      },
      "properties": {
        "osm_id": 12639987645,
        "osm_type": "nodes",
        "amenity": "fast_food",
        "tourism": null,
        "beds": null,
        "name": "Chooks to Go",
        "opening_hours": null,
        "shop": null,
        "rooms": null
      }
    },
    {
      "type": "Feature",
      "geometry": {
        "type": "Point",
        "coordinates": [
          121.1046841,
          14.642792
        ]
      },
      "properties": {
        "osm_id": 12631508376,
        "osm_type": "nodes",
        "amenity": "restaurant",
        "tourism": null,
        "beds": null,
        "name": "Comedor",
        "opening_hours": "Mo-Su 11:00-22:00",
        "shop": null,
        "rooms": null
      }
    },
    {
      "type": "Feature",
      "geometry": {
        "type": "Point",
        "coordinates": [
          121.1048624,
          14.6524979
        ]
      },
      "properties": {
        "osm_id": 12678169924,
        "osm_type": "nodes",
        "amenity": "restaurant",
        "tourism": null,
        "beds": null,
        "name": "Comet's Eatery",
        "opening_hours": null,
        "shop": null,
        "rooms": null
      }
    },
    {
      "type": "Feature",
      "geometry": {
        "type": "Point",
        "coordinates": [
          121.114816,
          14.6444671
        ]
      },
      "properties": {
        "osm_id": 12397403865,
        "osm_type": "nodes",
        "amenity": "restaurant",
        "tourism": null,
        "beds": null,
        "name": "BingBingCat",
        "opening_hours": null,
        "shop": null,
        "rooms": null
      }
    },
    {
      "type": "Feature",
      "geometry": {
        "type": "Point",
        "coordinates": [
          121.1132712,
          14.6489485
        ]
      },
      "properties": {
        "osm_id": 12675652760,
        "osm_type": "nodes",
        "amenity": "cafe",
        "tourism": null,
        "beds": null,
        "name": "Caffeinated",
        "opening_hours": null,
        "shop": null,
        "rooms": null
      }
    },
    {
      "type": "Feature",
      "geometry": {
        "type": "Point",
        "coordinates": [
          121.115616,
          14.6488045
        ]
      },
      "properties": {
        "osm_id": 12675690432,
        "osm_type": "nodes",
        "amenity": "fast_food",
        "tourism": null,
        "beds": null,
        "name": "Lil Orbits Mini Donuts",
        "opening_hours": null,
        "shop": null,
        "rooms": null
      }
    },
    {
      "type": "Feature",
      "geometry": {
        "type": "Point",
        "coordinates": [
          121.1151978,
          14.6512724
        ]
      },
      "properties": {
        "osm_id": 12675711166,
        "osm_type": "nodes",
        "amenity": "restaurant",
        "tourism": null,
        "beds": null,
        "name": "Angel\u2019s Pizza",
        "opening_hours": null,
        "shop": null,
        "rooms": null
      }
    },
    {
      "type": "Feature",
      "geometry": {
        "type": "Point",
        "coordinates": [
          121.1168006,
          14.6407436
        ]
      },
      "properties": {
        "osm_id": 12052362162,
        "osm_type": "nodes",
        "amenity": "restaurant",
        "tourism": null,
        "beds": null,
        "name": "Amy Snack House",
        "opening_hours": null,
        "shop": null,
        "rooms": null
      }
    },
    {
      "type": "Feature",
      "geometry": {
        "type": "Point",
        "coordinates": [
          121.1152905,
          14.6487531
        ]
      },
      "properties": {
        "osm_id": 12675647713,
        "osm_type": "nodes",
        "amenity": "restaurant",
        "tourism": null,
        "beds": null,
        "name": "KFC",
        "opening_hours": null,
        "shop": null,
        "rooms": null
      }
    },
    {
      "type": "Feature",
      "geometry": {
        "type": "Point",
        "coordinates": [
          121.115607,
          14.6485095
        ]
      },
      "properties": {
        "osm_id": 12678181666,
        "osm_type": "nodes",
        "amenity": "restaurant",
        "tourism": null,
        "beds": null,
        "name": "Chowking",
        "opening_hours": null,
        "shop": null,
        "rooms": null
      }
    },
    {
      "type": "Feature",
      "geometry": {
        "type": "Point",
        "coordinates": [
          121.1157994,
          14.6495293
        ]
      },
      "properties": {
        "osm_id": 12678183953,
        "osm_type": "nodes",
        "amenity": "restaurant",
        "tourism": null,
        "beds": null,
        "name": "Agahan",
        "opening_hours": null,
        "shop": null,
        "rooms": null
      }
    },
    {
      "type": "Feature",
      "geometry": {
        "type": "Point",
        "coordinates": [
          121.1155445,
          14.6493611
        ]
      },
      "properties": {
        "osm_id": 12679523037,
        "osm_type": "nodes",
        "amenity": "fast_food",
        "tourism": null,
        "beds": null,
        "name": "Master Siomai",
        "opening_hours": null,
        "shop": null,
        "rooms": null
      }
    },
    {
      "type": "Feature",
      "geometry": {
        "type": "Point",
        "coordinates": [
          121.1151803,
          14.6490214
        ]
      },
      "properties": {
        "osm_id": 12679526834,
        "osm_type": "nodes",
        "amenity": "fast_food",
        "tourism": null,
        "beds": null,
        "name": "Potato Giant",
        "opening_hours": null,
        "shop": null,
        "rooms": null
      }
    },
    {
      "type": "Feature",
      "geometry": {
        "type": "Point",
        "coordinates": [
          121.1155539,
          14.6490112
        ]
      },
      "properties": {
        "osm_id": 12679527732,
        "osm_type": "nodes",
        "amenity": "fast_food",
        "tourism": null,
        "beds": null,
        "name": "Reyes Barbeque",
        "opening_hours": null,
        "shop": null,
        "rooms": null
      }
    },
    {
      "type": "Feature",
      "geometry": {
        "type": "Point",
        "coordinates": [
          121.1152972,
          14.6491202
        ]
      },
      "properties": {
        "osm_id": 12679532103,
        "osm_type": "nodes",
        "amenity": "fast_food",
        "tourism": null,
        "beds": null,
        "name": "Monster Wings",
        "opening_hours": null,
        "shop": null,
        "rooms": null
      }
    },
    {
      "type": "Feature",
      "geometry": {
        "type": "Point",
        "coordinates": [
          121.1152423,
          14.6490745
        ]
      },
      "properties": {
        "osm_id": 12679532104,
        "osm_type": "nodes",
        "amenity": "fast_food",
        "tourism": null,
        "beds": null,
        "name": "Dip Stix",
        "opening_hours": null,
        "shop": null,
        "rooms": null
      }
    },
    {
      "type": "Feature",
      "geometry": {
        "type": "Point",
        "coordinates": [
          121.1152132,
          14.6485525
        ]
      },
      "properties": {
        "osm_id": 12675781405,
        "osm_type": "nodes",
        "amenity": "restaurant",
        "tourism": null,
        "beds": null,
        "name": "Gerry\u2019s",
        "opening_hours": null,
        "shop": null,
        "rooms": null
      }
    },
    {
      "type": "Feature",
      "geometry": {
        "type": "Point",
        "coordinates": [
          121.1133495,
          14.6487816
        ]
      },
      "properties": {
        "osm_id": 12675651615,
        "osm_type": "nodes",
        "amenity": "cafe",
        "tourism": null,
        "beds": null,
        "name": "Caffeinated",
        "opening_hours": null,
        "shop": null,
        "rooms": null
      }
    },
    {
      "type": "Feature",
      "geometry": {
        "type": "Point",
        "coordinates": [
          121.1153589,
          14.6489811
        ]
      },
      "properties": {
        "osm_id": 12675674987,
        "osm_type": "nodes",
        "amenity": "cafe",
        "tourism": null,
        "beds": null,
        "name": "Gong Cha",
        "opening_hours": null,
        "shop": null,
        "rooms": null
      }
    },
    {
      "type": "Feature",
      "geometry": {
        "type": "Point",
        "coordinates": [
          121.1168078,
          14.648654
        ]
      },
      "properties": {
        "osm_id": 12654230968,
        "osm_type": "nodes",
        "amenity": "restaurant",
        "tourism": null,
        "beds": null,
        "name": "Antonio J",
        "opening_hours": null,
        "shop": null,
        "rooms": null
      }
    },
    {
      "type": "Feature",
      "geometry": {
        "type": "Point",
        "coordinates": [
          121.1172661,
          14.6486894
        ]
      },
      "properties": {
        "osm_id": 12654152287,
        "osm_type": "nodes",
        "amenity": "restaurant",
        "tourism": null,
        "beds": null,
        "name": "Moo Baan Krung Thai",
        "opening_hours": null,
        "shop": null,
        "rooms": null
      }
    },
    {
      "type": "Feature",
      "geometry": {
        "type": "Point",
        "coordinates": [
          121.1169626,
          14.6490414
        ]
      },
      "properties": {
        "osm_id": 12654260102,
        "osm_type": "nodes",
        "amenity": "restaurant",
        "tourism": null,
        "beds": null,
        "name": "Kim Chee Korean Cuisine",
        "opening_hours": null,
        "shop": null,
        "rooms": null
      }
    },
    {
      "type": "Feature",
      "geometry": {
        "type": "Point",
        "coordinates": [
          121.1166365,
          14.6379104
        ]
      },
      "properties": {
        "osm_id": 12578226472,
        "osm_type": "nodes",
        "amenity": "restaurant",
        "tourism": null,
        "beds": null,
        "name": "Troski's Burger",
        "opening_hours": null,
        "shop": null,
        "rooms": null
      }
    },
    {
      "type": "Feature",
      "geometry": {
        "type": "Point",
        "coordinates": [
          121.1165314,
          14.6407529
        ]
      },
      "properties": {
        "osm_id": 12584627420,
        "osm_type": "nodes",
        "amenity": "restaurant",
        "tourism": null,
        "beds": null,
        "name": "Captain Calamares",
        "opening_hours": null,
        "shop": null,
        "rooms": null
      }
    },
    {
      "type": "Feature",
      "geometry": {
        "type": "Point",
        "coordinates": [
          121.1170942,
          14.6405536
        ]
      },
      "properties": {
        "osm_id": 12057104457,
        "osm_type": "nodes",
        "amenity": "restaurant",
        "tourism": null,
        "beds": null,
        "name": "Bagets",
        "opening_hours": null,
        "shop": null,
        "rooms": null
      }
    },
    {
      "type": "Feature",
      "geometry": {
        "type": "Point",
        "coordinates": [
          121.1204184,
          14.6371723
        ]
      },
      "properties": {
        "osm_id": 12051023783,
        "osm_type": "nodes",
        "amenity": "restaurant",
        "tourism": null,
        "beds": null,
        "name": "Virgilo Menor Sari-Sari Store",
        "opening_hours": null,
        "shop": null,
        "rooms": null
      }
    },
    {
      "type": "Feature",
      "geometry": {
        "type": "Point",
        "coordinates": [
          121.0881435,
          14.6229863
        ]
      },
      "properties": {
        "osm_id": 3241973517,
        "osm_type": "nodes",
        "amenity": "restaurant",
        "tourism": null,
        "beds": null,
        "name": "Industriya Marikina",
        "opening_hours": null,
        "shop": null,
        "rooms": null
      }
    },
    {
      "type": "Feature",
      "geometry": {
        "type": "Point",
        "coordinates": [
          121.0939835,
          14.6393786
        ]
      },
      "properties": {
        "osm_id": 4391527490,
        "osm_type": "nodes",
        "amenity": "cafe",
        "tourism": null,
        "beds": null,
        "name": "Kape Aroma",
        "opening_hours": null,
        "shop": null,
        "rooms": null
      }
    },
    {
      "type": "Feature",
      "geometry": {
        "type": "Point",
        "coordinates": [
          121.1166724,
          14.6443288
        ]
      },
      "properties": {
        "osm_id": 12054070719,
        "osm_type": "nodes",
        "amenity": "restaurant",
        "tourism": null,
        "beds": null,
        "name": "K-Egg",
        "opening_hours": null,
        "shop": null,
        "rooms": null
      }
    },
    {
      "type": "Feature",
      "geometry": {
        "type": "Point",
        "coordinates": [
          121.0946833,
          14.6332806
        ]
      },
      "properties": {
        "osm_id": 974309738,
        "osm_type": "nodes",
        "amenity": "bar",
        "tourism": null,
        "beds": null,
        "name": "Bonchalet",
        "opening_hours": null,
        "shop": null,
        "rooms": null
      }
    },
    {
      "type": "Feature",
      "geometry": {
        "type": "Point",
        "coordinates": [
          121.1168144,
          14.6407917
        ]
      },
      "properties": {
        "osm_id": 12052362164,
        "osm_type": "nodes",
        "amenity": "restaurant",
        "tourism": null,
        "beds": null,
        "name": null,
        "opening_hours": null,
        "shop": null,
        "rooms": null
      }
    },
    {
      "type": "Feature",
      "geometry": {
        "type": "Point",
        "coordinates": [
          121.0975109,
          14.633226
        ]
      },
      "properties": {
        "osm_id": 12675835075,
        "osm_type": "nodes",
        "amenity": "fast_food",
        "tourism": null,
        "beds": null,
        "name": "P. Donuts",
        "opening_hours": null,
        "shop": null,
        "rooms": null
      }
    },
    {
      "type": "Feature",
      "geometry": {
        "type": "Point",
        "coordinates": [
          121.0887453,
          14.6347188
        ]
      },
      "properties": {
        "osm_id": 1985424416,
        "osm_type": "nodes",
        "amenity": "fast_food",
        "tourism": null,
        "beds": null,
        "name": "Angel's Burger",
        "opening_hours": null,
        "shop": null,
        "rooms": null
      }
    },
    {
      "type": "Feature",
      "geometry": {
        "type": "Point",
        "coordinates": [
          121.0968318,
          14.6267518
        ]
      },
      "properties": {
        "osm_id": 600643330,
        "osm_type": "nodes",
        "amenity": "restaurant",
        "tourism": null,
        "beds": null,
        "name": "Salud Panciteria",
        "opening_hours": null,
        "shop": null,
        "rooms": null
      }
    },
    {
      "type": "Feature",
      "geometry": {
        "type": "Point",
        "coordinates": [
          121.0967559,
          14.6287246
        ]
      },
      "properties": {
        "osm_id": 600643333,
        "osm_type": "nodes",
        "amenity": "fast_food",
        "tourism": null,
        "beds": null,
        "name": "D' Original Aling Remy's Special Puto Kutsinta",
        "opening_hours": null,
        "shop": null,
        "rooms": null
      }
    },
    {
      "type": "Feature",
      "geometry": {
        "type": "Point",
        "coordinates": [
          121.0975122,
          14.633186
        ]
      },
      "properties": {
        "osm_id": 2112289714,
        "osm_type": "nodes",
        "amenity": "fast_food",
        "tourism": null,
        "beds": null,
        "name": "Chowking",
        "opening_hours": null,
        "shop": null,
        "rooms": null
      }
    },
    {
      "type": "Feature",
      "geometry": {
        "type": "Point",
        "coordinates": [
          121.0941599,
          14.6416565
        ]
      },
      "properties": {
        "osm_id": 3593960997,
        "osm_type": "nodes",
        "amenity": "fast_food",
        "tourism": null,
        "beds": null,
        "name": "Mateo's",
        "opening_hours": null,
        "shop": null,
        "rooms": null
      }
    },
    {
      "type": "Feature",
      "geometry": {
        "type": "Point",
        "coordinates": [
          121.094281,
          14.6354651
        ]
      },
      "properties": {
        "osm_id": 2661521848,
        "osm_type": "nodes",
        "amenity": "restaurant",
        "tourism": null,
        "beds": null,
        "name": "New China Panciteria",
        "opening_hours": null,
        "shop": null,
        "rooms": null
      }
    },
    {
      "type": "Feature",
      "geometry": {
        "type": "Point",
        "coordinates": [
          121.093919,
          14.6341313
        ]
      },
      "properties": {
        "osm_id": 671855700,
        "osm_type": "nodes",
        "amenity": "bar",
        "tourism": null,
        "beds": null,
        "name": "Okavango",
        "opening_hours": null,
        "shop": null,
        "rooms": null
      }
    },
    {
      "type": "Feature",
      "geometry": {
        "type": "Point",
        "coordinates": [
          121.0889308,
          14.6299088
        ]
      },
      "properties": {
        "osm_id": 11549852369,
        "osm_type": "nodes",
        "amenity": "bar",
        "tourism": null,
        "beds": null,
        "name": "Utoys Inuman",
        "opening_hours": null,
        "shop": null,
        "rooms": null
      }
    },
    {
      "type": "Feature",
      "geometry": {
        "type": "Point",
        "coordinates": [
          121.0955777,
          14.631246
        ]
      },
      "properties": {
        "osm_id": 331119873,
        "osm_type": "nodes",
        "amenity": "fast_food",
        "tourism": null,
        "beds": null,
        "name": "Macky's Goto",
        "opening_hours": null,
        "shop": null,
        "rooms": null
      }
    },
    {
      "type": "Feature",
      "geometry": {
        "type": "Point",
        "coordinates": [
          121.0948545,
          14.6359619
        ]
      },
      "properties": {
        "osm_id": 9425867736,
        "osm_type": "nodes",
        "amenity": "fast_food",
        "tourism": null,
        "beds": null,
        "name": "Sokiro",
        "opening_hours": null,
        "shop": null,
        "rooms": null
      }
    },
    {
      "type": "Feature",
      "geometry": {
        "type": "Point",
        "coordinates": [
          121.1172425,
          14.6572148
        ]
      },
      "properties": {
        "osm_id": 2956609439,
        "osm_type": "nodes",
        "amenity": "restaurant",
        "tourism": null,
        "beds": null,
        "name": "Butcher's Kitchen",
        "opening_hours": null,
        "shop": null,
        "rooms": null
      }
    },
    {
      "type": "Feature",
      "geometry": {
        "type": "Point",
        "coordinates": [
          121.1086074,
          14.6567649
        ]
      },
      "properties": {
        "osm_id": 11161114908,
        "osm_type": "nodes",
        "amenity": "fast_food",
        "tourism": null,
        "beds": null,
        "name": "Kalma UNLTD & Grill",
        "opening_hours": null,
        "shop": null,
        "rooms": null
      }
    },
    {
      "type": "Feature",
      "geometry": {
        "type": "Point",
        "coordinates": [
          121.1045377,
          14.6582837
        ]
      },
      "properties": {
        "osm_id": 11084162339,
        "osm_type": "nodes",
        "amenity": "restaurant",
        "tourism": null,
        "beds": null,
        "name": "BoZz. T Barbeque House",
        "opening_hours": null,
        "shop": null,
        "rooms": null
      }
    },
    {
      "type": "Feature",
      "geometry": {
        "type": "Point",
        "coordinates": [
          121.1034979,
          14.6576082
        ]
      },
      "properties": {
        "osm_id": 9241015602,
        "osm_type": "nodes",
        "amenity": "fast_food",
        "tourism": null,
        "beds": null,
        "name": "Chick 'n Juicy",
        "opening_hours": null,
        "shop": null,
        "rooms": null
      }
    },
    {
      "type": "Feature",
      "geometry": {
        "type": "Point",
        "coordinates": [
          121.1164289,
          14.6485979
        ]
      },
      "properties": {
        "osm_id": 7801362144,
        "osm_type": "nodes",
        "amenity": "fast_food",
        "tourism": null,
        "beds": null,
        "name": "S&R New York Style Pizza",
        "opening_hours": null,
        "shop": null,
        "rooms": null
      }
    },
    {
      "type": "Feature",
      "geometry": {
        "type": "Point",
        "coordinates": [
          121.1155879,
          14.6492265
        ]
      },
      "properties": {
        "osm_id": 12678083237,
        "osm_type": "nodes",
        "amenity": "restaurant",
        "tourism": null,
        "beds": null,
        "name": "Bacsilog",
        "opening_hours": null,
        "shop": null,
        "rooms": null
      }
    },
    {
      "type": "Feature",
      "geometry": {
        "type": "Point",
        "coordinates": [
          121.115613,
          14.6492578
        ]
      },
      "properties": {
        "osm_id": 12678083238,
        "osm_type": "nodes",
        "amenity": "restaurant",
        "tourism": null,
        "beds": null,
        "name": "Plato Wraps",
        "opening_hours": null,
        "shop": null,
        "rooms": null
      }
    },
    {
      "type": "Feature",
      "geometry": {
        "type": "Point",
        "coordinates": [
          121.1155673,
          14.6487765
        ]
      },
      "properties": {
        "osm_id": 12679513292,
        "osm_type": "nodes",
        "amenity": "fast_food",
        "tourism": null,
        "beds": null,
        "name": "Siomai House",
        "opening_hours": null,
        "shop": null,
        "rooms": null
      }
    },
    {
      "type": "Feature",
      "geometry": {
        "type": "Point",
        "coordinates": [
          121.1172854,
          14.6493586
        ]
      },
      "properties": {
        "osm_id": 4043172846,
        "osm_type": "nodes",
        "amenity": "fast_food",
        "tourism": null,
        "beds": null,
        "name": "Chooks to Go",
        "opening_hours": null,
        "shop": null,
        "rooms": null
      }
    },
    {
      "type": "Feature",
      "geometry": {
        "type": "Point",
        "coordinates": [
          121.1159663,
          14.648213
        ]
      },
      "properties": {
        "osm_id": 7801362139,
        "osm_type": "nodes",
        "amenity": "cafe",
        "tourism": null,
        "beds": null,
        "name": "Starbucks",
        "opening_hours": null,
        "shop": null,
        "rooms": null
      }
    },
    {
      "type": "Feature",
      "geometry": {
        "type": "Point",
        "coordinates": [
          121.102429,
          14.6211414
        ]
      },
      "properties": {
        "osm_id": 671857482,
        "osm_type": "nodes",
        "amenity": "fast_food",
        "tourism": null,
        "beds": null,
        "name": "Yellow Cab Pizza",
        "opening_hours": null,
        "shop": null,
        "rooms": null
      }
    },
    {
      "type": "Feature",
      "geometry": {
        "type": "Point",
        "coordinates": [
          121.1028606,
          14.6206317
        ]
      },
      "properties": {
        "osm_id": 696288918,
        "osm_type": "nodes",
        "amenity": "restaurant",
        "tourism": null,
        "beds": null,
        "name": "Pizza Hut",
        "opening_hours": null,
        "shop": null,
        "rooms": null
      }
    },
    {
      "type": "Feature",
      "geometry": {
        "type": "Point",
        "coordinates": [
          121.1035375,
          14.620785
        ]
      },
      "properties": {
        "osm_id": 696288930,
        "osm_type": "nodes",
        "amenity": "restaurant",
        "tourism": null,
        "beds": null,
        "name": "Abel's Lechon Pinoy Deli",
        "opening_hours": null,
        "shop": null,
        "rooms": null
      }
    },
    {
      "type": "Feature",
      "geometry": {
        "type": "Point",
        "coordinates": [
          121.095504,
          14.6216134
        ]
      },
      "properties": {
        "osm_id": 1160643667,
        "osm_type": "nodes",
        "amenity": "restaurant",
        "tourism": null,
        "beds": null,
        "name": "Caf\u00e9 Lidia",
        "opening_hours": "Mo-Su 11:00-21:00",
        "shop": null,
        "rooms": null
      }
    },
    {
      "type": "Feature",
      "geometry": {
        "type": "Point",
        "coordinates": [
          121.0819745,
          14.6378444
        ]
      },
      "properties": {
        "osm_id": 7709052385,
        "osm_type": "nodes",
        "amenity": "restaurant",
        "tourism": null,
        "beds": null,
        "name": "Saku Sushi",
        "opening_hours": null,
        "shop": null,
        "rooms": null
      }
    },
    {
      "type": "Feature",
      "geometry": {
        "type": "Point",
        "coordinates": [
          121.1081649,
          14.6689366
        ]
      },
      "properties": {
        "osm_id": 9241193661,
        "osm_type": "nodes",
        "amenity": "fast_food",
        "tourism": null,
        "beds": null,
        "name": "Kowloon House",
        "opening_hours": null,
        "shop": null,
        "rooms": null
      }
    },
    {
      "type": "Feature",
      "geometry": {
        "type": "Point",
        "coordinates": [
          121.1087413,
          14.6708722
        ]
      },
      "properties": {
        "osm_id": 5235438922,
        "osm_type": "nodes",
        "amenity": "bar",
        "tourism": null,
        "beds": null,
        "name": "eGrill",
        "opening_hours": null,
        "shop": null,
        "rooms": null
      }
    },
    {
      "type": "Feature",
      "geometry": {
        "type": "Point",
        "coordinates": [
          121.1086484,
          14.6703553
        ]
      },
      "properties": {
        "osm_id": 5761635909,
        "osm_type": "nodes",
        "amenity": "restaurant",
        "tourism": null,
        "beds": null,
        "name": "Tolits Marikina",
        "opening_hours": null,
        "shop": null,
        "rooms": null
      }
    },
    {
      "type": "Feature",
      "geometry": {
        "type": "Point",
        "coordinates": [
          121.1130449,
          14.6606361
        ]
      },
      "properties": {
        "osm_id": 7069606515,
        "osm_type": "nodes",
        "amenity": "fast_food",
        "tourism": null,
        "beds": null,
        "name": "Acapulco Panciteria",
        "opening_hours": null,
        "shop": null,
        "rooms": null
      }
    },
    {
      "type": "Feature",
      "geometry": {
        "type": "Point",
        "coordinates": [
          121.1220914,
          14.640658
        ]
      },
      "properties": {
        "osm_id": 3578952591,
        "osm_type": "nodes",
        "amenity": "cafe",
        "tourism": null,
        "beds": null,
        "name": "Chubbies Qcina Cafe",
        "opening_hours": null,
        "shop": null,
        "rooms": null
      }
    },
    {
      "type": "Feature",
      "geometry": {
        "type": "Point",
        "coordinates": [
          121.1218405,
          14.6420909
        ]
      },
      "properties": {
        "osm_id": 6982070515,
        "osm_type": "nodes",
        "amenity": "restaurant",
        "tourism": null,
        "beds": null,
        "name": "Octoboy",
        "opening_hours": null,
        "shop": null,
        "rooms": null
      }
    },
    {
      "type": "Feature",
      "geometry": {
        "type": "Point",
        "coordinates": [
          121.1219448,
          14.6430379
        ]
      },
      "properties": {
        "osm_id": 6240891134,
        "osm_type": "nodes",
        "amenity": "fast_food",
        "tourism": null,
        "beds": null,
        "name": "Balamban Liempo",
        "opening_hours": null,
        "shop": null,
        "rooms": null
      }
    },
    {
      "type": "Feature",
      "geometry": {
        "type": "Point",
        "coordinates": [
          121.1203567,
          14.6447449
        ]
      },
      "properties": {
        "osm_id": 5126219528,
        "osm_type": "nodes",
        "amenity": "bar",
        "tourism": null,
        "beds": null,
        "name": "Tobitos",
        "opening_hours": null,
        "shop": null,
        "rooms": null
      }
    },
    {
      "type": "Feature",
      "geometry": {
        "type": "Point",
        "coordinates": [
          121.1202322,
          14.6451107
        ]
      },
      "properties": {
        "osm_id": 6246461009,
        "osm_type": "nodes",
        "amenity": "restaurant",
        "tourism": null,
        "beds": null,
        "name": "Guigui",
        "opening_hours": null,
        "shop": null,
        "rooms": null
      }
    },
    {
      "type": "Feature",
      "geometry": {
        "type": "Point",
        "coordinates": [
          121.1219101,
          14.6419968
        ]
      },
      "properties": {
        "osm_id": 6982070516,
        "osm_type": "nodes",
        "amenity": "cafe",
        "tourism": null,
        "beds": null,
        "name": "Moonleaf Cafe",
        "opening_hours": null,
        "shop": null,
        "rooms": null
      }
    },
    {
      "type": "Feature",
      "geometry": {
        "type": "Point",
        "coordinates": [
          121.1217807,
          14.6426714
        ]
      },
      "properties": {
        "osm_id": 12079176423,
        "osm_type": "nodes",
        "amenity": "restaurant",
        "tourism": null,
        "beds": null,
        "name": "Kapares",
        "opening_hours": null,
        "shop": null,
        "rooms": null
      }
    },
    {
      "type": "Feature",
      "geometry": {
        "type": "Point",
        "coordinates": [
          121.1218975,
          14.6413866
        ]
      },
      "properties": {
        "osm_id": 12074717575,
        "osm_type": "nodes",
        "amenity": "restaurant",
        "tourism": null,
        "beds": null,
        "name": "Chicken Studio",
        "opening_hours": null,
        "shop": null,
        "rooms": null
      }
    },
    {
      "type": "Feature",
      "geometry": {
        "type": "Point",
        "coordinates": [
          121.122149,
          14.6424398
        ]
      },
      "properties": {
        "osm_id": 3578952919,
        "osm_type": "nodes",
        "amenity": "restaurant",
        "tourism": null,
        "beds": null,
        "name": "Red's",
        "opening_hours": null,
        "shop": null,
        "rooms": null
      }
    },
    {
      "type": "Feature",
      "geometry": {
        "type": "Point",
        "coordinates": [
          121.1221584,
          14.6423943
        ]
      },
      "properties": {
        "osm_id": 3578952920,
        "osm_type": "nodes",
        "amenity": "restaurant",
        "tourism": null,
        "beds": null,
        "name": "Crazy Katsu",
        "opening_hours": null,
        "shop": null,
        "rooms": null
      }
    },
    {
      "type": "Feature",
      "geometry": {
        "type": "Point",
        "coordinates": [
          121.1215402,
          14.6433662
        ]
      },
      "properties": {
        "osm_id": 3578952930,
        "osm_type": "nodes",
        "amenity": "fast_food",
        "tourism": null,
        "beds": null,
        "name": "Linda's Carinderia",
        "opening_hours": null,
        "shop": null,
        "rooms": null
      }
    },
    {
      "type": "Feature",
      "geometry": {
        "type": "Point",
        "coordinates": [
          121.121804,
          14.6433467
        ]
      },
      "properties": {
        "osm_id": 6240891137,
        "osm_type": "nodes",
        "amenity": "fast_food",
        "tourism": null,
        "beds": null,
        "name": "MeoBel",
        "opening_hours": null,
        "shop": null,
        "rooms": null
      }
    },
    {
      "type": "Feature",
      "geometry": {
        "type": "Point",
        "coordinates": [
          121.1218507,
          14.6408743
        ]
      },
      "properties": {
        "osm_id": 12072570925,
        "osm_type": "nodes",
        "amenity": "restaurant",
        "tourism": null,
        "beds": null,
        "name": "Chipori",
        "opening_hours": null,
        "shop": null,
        "rooms": null
      }
    },
    {
      "type": "Feature",
      "geometry": {
        "type": "Point",
        "coordinates": [
          121.1153573,
          14.6461353
        ]
      },
      "properties": {
        "osm_id": 10764860906,
        "osm_type": "nodes",
        "amenity": "restaurant",
        "tourism": null,
        "beds": null,
        "name": "Daddy's Food & Resto",
        "opening_hours": null,
        "shop": null,
        "rooms": null
      }
    },
    {
      "type": "Feature",
      "geometry": {
        "type": "Point",
        "coordinates": [
          121.1131869,
          14.646247
        ]
      },
      "properties": {
        "osm_id": 10915219174,
        "osm_type": "nodes",
        "amenity": "cafe",
        "tourism": null,
        "beds": null,
        "name": "Relax & Brew",
        "opening_hours": "Mo-Su 09:00-00:00",
        "shop": null,
        "rooms": null
      }
    },
    {
      "type": "Feature",
      "geometry": {
        "type": "Point",
        "coordinates": [
          121.1165,
          14.6407637
        ]
      },
      "properties": {
        "osm_id": 12584627421,
        "osm_type": "nodes",
        "amenity": "restaurant",
        "tourism": null,
        "beds": null,
        "name": "Soljer Grill",
        "opening_hours": null,
        "shop": null,
        "rooms": null
      }
    },
    {
      "type": "Feature",
      "geometry": {
        "type": "Point",
        "coordinates": [
          121.1166094,
          14.640726
        ]
      },
      "properties": {
        "osm_id": 12625333278,
        "osm_type": "nodes",
        "amenity": "cafe",
        "tourism": null,
        "beds": null,
        "name": "Pawzone",
        "opening_hours": null,
        "shop": null,
        "rooms": null
      }
    },
    {
      "type": "Feature",
      "geometry": {
        "type": "Point",
        "coordinates": [
          121.116464,
          14.644297
        ]
      },
      "properties": {
        "osm_id": 12065656569,
        "osm_type": "nodes",
        "amenity": "restaurant",
        "tourism": null,
        "beds": null,
        "name": "Abet",
        "opening_hours": null,
        "shop": null,
        "rooms": null
      }
    },
    {
      "type": "Feature",
      "geometry": {
        "type": "Point",
        "coordinates": [
          121.1142169,
          14.644403
        ]
      },
      "properties": {
        "osm_id": 325136789,
        "osm_type": "nodes",
        "amenity": "restaurant",
        "tourism": null,
        "beds": null,
        "name": "Pan de Amerikana",
        "opening_hours": "Tu-Su 06:00-21:00",
        "shop": "bakery",
        "rooms": null
      }
    },
    {
      "type": "Feature",
      "geometry": {
        "type": "Point",
        "coordinates": [
          121.1146417,
          14.6445161
        ]
      },
      "properties": {
        "osm_id": 12397403862,
        "osm_type": "nodes",
        "amenity": "restaurant",
        "tourism": null,
        "beds": null,
        "name": "Sabila's Kitchenette",
        "opening_hours": null,
        "shop": null,
        "rooms": null
      }
    },
    {
      "type": "Feature",
      "geometry": {
        "type": "Point",
        "coordinates": [
          121.1173192,
          14.642975
        ]
      },
      "properties": {
        "osm_id": 12052362148,
        "osm_type": "nodes",
        "amenity": "restaurant",
        "tourism": null,
        "beds": null,
        "name": "EJ's Kainan Sa Kubo",
        "opening_hours": null,
        "shop": null,
        "rooms": null
      }
    },
    {
      "type": "Feature",
      "geometry": {
        "type": "Point",
        "coordinates": [
          121.1026508,
          14.6384437
        ]
      },
      "properties": {
        "osm_id": 4328943490,
        "osm_type": "nodes",
        "amenity": "restaurant",
        "tourism": null,
        "beds": null,
        "name": "Alexei's Diner & Caf\u00e9",
        "opening_hours": "Mo-Su 10:00-23:30",
        "shop": null,
        "rooms": null
      }
    },
    {
      "type": "Feature",
      "geometry": {
        "type": "Point",
        "coordinates": [
          121.0972279,
          14.6374829
        ]
      },
      "properties": {
        "osm_id": 2620953341,
        "osm_type": "nodes",
        "amenity": "fast_food",
        "tourism": null,
        "beds": null,
        "name": "Chooks To Go",
        "opening_hours": null,
        "shop": null,
        "rooms": null
      }
    },
    {
      "type": "Feature",
      "geometry": {
        "type": "Point",
        "coordinates": [
          121.0975571,
          14.637529
        ]
      },
      "properties": {
        "osm_id": 6120629341,
        "osm_type": "nodes",
        "amenity": "fast_food",
        "tourism": null,
        "beds": null,
        "name": "Andok's",
        "opening_hours": null,
        "shop": null,
        "rooms": null
      }
    },
    {
      "type": "Feature",
      "geometry": {
        "type": "Point",
        "coordinates": [
          121.0975909,
          14.6379186
        ]
      },
      "properties": {
        "osm_id": 2619870845,
        "osm_type": "nodes",
        "amenity": "fast_food",
        "tourism": null,
        "beds": null,
        "name": "Angel's Burger",
        "opening_hours": null,
        "shop": null,
        "rooms": null
      }
    },
    {
      "type": "Feature",
      "geometry": {
        "type": "Point",
        "coordinates": [
          121.0977339,
          14.6378969
        ]
      },
      "properties": {
        "osm_id": 2620953272,
        "osm_type": "nodes",
        "amenity": "restaurant",
        "tourism": null,
        "beds": null,
        "name": "Efren's Panciteria",
        "opening_hours": null,
        "shop": null,
        "rooms": null
      }
    },
    {
      "type": "Feature",
      "geometry": {
        "type": "Point",
        "coordinates": [
          121.0994793,
          14.639861
        ]
      },
      "properties": {
        "osm_id": 2946224762,
        "osm_type": "nodes",
        "amenity": "fast_food",
        "tourism": null,
        "beds": null,
        "name": "Melinda's Goto",
        "opening_hours": null,
        "shop": null,
        "rooms": null
      }
    },
    {
      "type": "Feature",
      "geometry": {
        "type": "Point",
        "coordinates": [
          121.102757,
          14.6385684
        ]
      },
      "properties": {
        "osm_id": 11602351269,
        "osm_type": "nodes",
        "amenity": "restaurant",
        "tourism": null,
        "beds": null,
        "name": "Dampa sa Cogeo",
        "opening_hours": null,
        "shop": null,
        "rooms": null
      }
    },
    {
      "type": "Feature",
      "geometry": {
        "type": "Point",
        "coordinates": [
          121.0985469,
          14.6336382
        ]
      },
      "properties": {
        "osm_id": 2466190731,
        "osm_type": "nodes",
        "amenity": "cafe",
        "tourism": null,
        "beds": null,
        "name": "Romelyn's Coffee Shop",
        "opening_hours": null,
        "shop": null,
        "rooms": null
      }
    },
    {
      "type": "Feature",
      "geometry": {
        "type": "Point",
        "coordinates": [
          121.1009444,
          14.6354531
        ]
      },
      "properties": {
        "osm_id": 3602069033,
        "osm_type": "nodes",
        "amenity": "restaurant",
        "tourism": null,
        "beds": null,
        "name": "Yellow Cab",
        "opening_hours": null,
        "shop": null,
        "rooms": null
      }
    },
    {
      "type": "Feature",
      "geometry": {
        "type": "Point",
        "coordinates": [
          121.1009671,
          14.635796
        ]
      },
      "properties": {
        "osm_id": 7683189036,
        "osm_type": "nodes",
        "amenity": "restaurant",
        "tourism": null,
        "beds": null,
        "name": null,
        "opening_hours": null,
        "shop": null,
        "rooms": null
      }
    },
    {
      "type": "Feature",
      "geometry": {
        "type": "Point",
        "coordinates": [
          121.1008267,
          14.6354694
        ]
      },
      "properties": {
        "osm_id": 603599853,
        "osm_type": "nodes",
        "amenity": "fast_food",
        "tourism": null,
        "beds": null,
        "name": "KFC",
        "opening_hours": null,
        "shop": null,
        "rooms": null
      }
    },
    {
      "type": "Feature",
      "geometry": {
        "type": "Point",
        "coordinates": [
          121.1117141,
          14.6500868
        ]
      },
      "properties": {
        "osm_id": 12654174165,
        "osm_type": "nodes",
        "amenity": "cafe",
        "tourism": null,
        "beds": null,
        "name": "Bamboo CAFE",
        "opening_hours": null,
        "shop": null,
        "rooms": null
      }
    },
    {
      "type": "Feature",
      "geometry": {
        "type": "Point",
        "coordinates": [
          121.1166704,
          14.6541502
        ]
      },
      "properties": {
        "osm_id": 12675759519,
        "osm_type": "nodes",
        "amenity": "cafe",
        "tourism": null,
        "beds": null,
        "name": "Kalinaw",
        "opening_hours": null,
        "shop": null,
        "rooms": null
      }
    },
    {
      "type": "Feature",
      "geometry": {
        "type": "Point",
        "coordinates": [
          121.0961443,
          14.6236535
        ]
      },
      "properties": {
        "osm_id": 3125368878,
        "osm_type": "nodes",
        "amenity": "fast_food",
        "tourism": null,
        "beds": null,
        "name": "Andok's",
        "opening_hours": null,
        "shop": null,
        "rooms": null
      }
    },
    {
      "type": "Feature",
      "geometry": {
        "type": "Point",
        "coordinates": [
          121.0940249,
          14.6333709
        ]
      },
      "properties": {
        "osm_id": 671855679,
        "osm_type": "nodes",
        "amenity": "bar",
        "tourism": null,
        "beds": null,
        "name": "Junior KTV",
        "opening_hours": null,
        "shop": null,
        "rooms": null
      }
    },
    {
      "type": "Feature",
      "geometry": {
        "type": "Point",
        "coordinates": [
          121.09397,
          14.6337209
        ]
      },
      "properties": {
        "osm_id": 671855686,
        "osm_type": "nodes",
        "amenity": "bar",
        "tourism": null,
        "beds": null,
        "name": "Enzimone",
        "opening_hours": null,
        "shop": null,
        "rooms": null
      }
    },
    {
      "type": "Feature",
      "geometry": {
        "type": "Point",
        "coordinates": [
          121.09395,
          14.633885
        ]
      },
      "properties": {
        "osm_id": 671855698,
        "osm_type": "nodes",
        "amenity": "bar",
        "tourism": null,
        "beds": null,
        "name": "Pondahan ni Pugo",
        "opening_hours": null,
        "shop": null,
        "rooms": null
      }
    },
    {
      "type": "Feature",
      "geometry": {
        "type": "Point",
        "coordinates": [
          121.093907,
          14.6342321
        ]
      },
      "properties": {
        "osm_id": 671855702,
        "osm_type": "nodes",
        "amenity": "bar",
        "tourism": null,
        "beds": null,
        "name": "BoraFire",
        "opening_hours": null,
        "shop": null,
        "rooms": null
      }
    },
    {
      "type": "Feature",
      "geometry": {
        "type": "Point",
        "coordinates": [
          121.093901,
          14.6342819
        ]
      },
      "properties": {
        "osm_id": 671855701,
        "osm_type": "nodes",
        "amenity": "bar",
        "tourism": null,
        "beds": null,
        "name": null,
        "opening_hours": null,
        "shop": null,
        "rooms": null
      }
    },
    {
      "type": "Feature",
      "geometry": {
        "type": "Point",
        "coordinates": [
          121.0947862,
          14.6347392
        ]
      },
      "properties": {
        "osm_id": 2661562777,
        "osm_type": "nodes",
        "amenity": "bar",
        "tourism": null,
        "beds": null,
        "name": "Street Bar",
        "opening_hours": null,
        "shop": null,
        "rooms": null
      }
    },
    {
      "type": "Feature",
      "geometry": {
        "type": "Point",
        "coordinates": [
          121.0938022,
          14.6348349
        ]
      },
      "properties": {
        "osm_id": 937560596,
        "osm_type": "nodes",
        "amenity": "restaurant",
        "tourism": null,
        "beds": null,
        "name": "Jobet'sGrill Restobar",
        "opening_hours": null,
        "shop": null,
        "rooms": null
      }
    },
    {
      "type": "Feature",
      "geometry": {
        "type": "Point",
        "coordinates": [
          121.0947648,
          14.6347801
        ]
      },
      "properties": {
        "osm_id": 2661562776,
        "osm_type": "nodes",
        "amenity": "bar",
        "tourism": null,
        "beds": null,
        "name": "KBG",
        "opening_hours": null,
        "shop": null,
        "rooms": null
      }
    },
    {
      "type": "Feature",
      "geometry": {
        "type": "Point",
        "coordinates": [
          121.0942749,
          14.6353402
        ]
      },
      "properties": {
        "osm_id": 2661521849,
        "osm_type": "nodes",
        "amenity": "fast_food",
        "tourism": null,
        "beds": null,
        "name": "Shenie's Panciteria",
        "opening_hours": null,
        "shop": null,
        "rooms": null
      }
    },
    {
      "type": "Feature",
      "geometry": {
        "type": "Point",
        "coordinates": [
          121.0942464,
          14.635293
        ]
      },
      "properties": {
        "osm_id": 2661521851,
        "osm_type": "nodes",
        "amenity": "fast_food",
        "tourism": null,
        "beds": null,
        "name": "Kahit Ano Kainan",
        "opening_hours": null,
        "shop": null,
        "rooms": null
      }
    },
    {
      "type": "Feature",
      "geometry": {
        "type": "Point",
        "coordinates": [
          121.0943402,
          14.6357151
        ]
      },
      "properties": {
        "osm_id": 11050441399,
        "osm_type": "nodes",
        "amenity": "fast_food",
        "tourism": null,
        "beds": null,
        "name": "Mark's Inasal",
        "opening_hours": null,
        "shop": null,
        "rooms": null
      }
    },
    {
      "type": "Feature",
      "geometry": {
        "type": "Point",
        "coordinates": [
          121.0962055,
          14.6362278
        ]
      },
      "properties": {
        "osm_id": 2620953475,
        "osm_type": "nodes",
        "amenity": "restaurant",
        "tourism": null,
        "beds": null,
        "name": "Jara's Bar and Restaurant",
        "opening_hours": null,
        "shop": null,
        "rooms": null
      }
    },
    {
      "type": "Feature",
      "geometry": {
        "type": "Point",
        "coordinates": [
          121.0948462,
          14.6360637
        ]
      },
      "properties": {
        "osm_id": 2619870797,
        "osm_type": "nodes",
        "amenity": "fast_food",
        "tourism": null,
        "beds": null,
        "name": "Angel's Burger",
        "opening_hours": null,
        "shop": null,
        "rooms": null
      }
    },
    {
      "type": "Feature",
      "geometry": {
        "type": "Point",
        "coordinates": [
          121.0943241,
          14.6360196
        ]
      },
      "properties": {
        "osm_id": 11143364413,
        "osm_type": "nodes",
        "amenity": "bar",
        "tourism": null,
        "beds": null,
        "name": "80's Grill and RestoBar",
        "opening_hours": null,
        "shop": null,
        "rooms": null
      }
    },
    {
      "type": "Feature",
      "geometry": {
        "type": "Point",
        "coordinates": [
          121.094759,
          14.6363257
        ]
      },
      "properties": {
        "osm_id": 2620953427,
        "osm_type": "nodes",
        "amenity": "restaurant",
        "tourism": null,
        "beds": null,
        "name": null,
        "opening_hours": null,
        "shop": null,
        "rooms": null
      }
    },
    {
      "type": "Feature",
      "geometry": {
        "type": "Point",
        "coordinates": [
          121.0962093,
          14.6364124
        ]
      },
      "properties": {
        "osm_id": 2620953459,
        "osm_type": "nodes",
        "amenity": "pub",
        "tourism": null,
        "beds": null,
        "name": "Wild Fox",
        "opening_hours": null,
        "shop": null,
        "rooms": null
      }
    },
    {
      "type": "Feature",
      "geometry": {
        "type": "Point",
        "coordinates": [
          121.0961916,
          14.6363493
        ]
      },
      "properties": {
        "osm_id": 2620953470,
        "osm_type": "nodes",
        "amenity": "pub",
        "tourism": null,
        "beds": null,
        "name": "Fox'ies",
        "opening_hours": null,
        "shop": null,
        "rooms": null
      }
    },
    {
      "type": "Feature",
      "geometry": {
        "type": "Point",
        "coordinates": [
          121.095931,
          14.6362648
        ]
      },
      "properties": {
        "osm_id": 6120622272,
        "osm_type": "nodes",
        "amenity": "restaurant",
        "tourism": null,
        "beds": null,
        "name": "Goto Bob",
        "opening_hours": null,
        "shop": null,
        "rooms": null
      }
    },
    {
      "type": "Feature",
      "geometry": {
        "type": "Point",
        "coordinates": [
          121.0942362,
          14.6366183
        ]
      },
      "properties": {
        "osm_id": 5126259523,
        "osm_type": "nodes",
        "amenity": "fast_food",
        "tourism": null,
        "beds": null,
        "name": "McDonald's",
        "opening_hours": null,
        "shop": null,
        "rooms": null
      }
    },
    {
      "type": "Feature",
      "geometry": {
        "type": "Point",
        "coordinates": [
          121.084803,
          14.6336504
        ]
      },
      "properties": {
        "osm_id": 681253924,
        "osm_type": "nodes",
        "amenity": "restaurant",
        "tourism": null,
        "beds": null,
        "name": "Red Paint Bar & Grill",
        "opening_hours": null,
        "shop": null,
        "rooms": null
      }
    },
    {
      "type": "Feature",
      "geometry": {
        "type": "Point",
        "coordinates": [
          121.0859903,
          14.6339139
        ]
      },
      "properties": {
        "osm_id": 949366017,
        "osm_type": "nodes",
        "amenity": "fast_food",
        "tourism": null,
        "beds": null,
        "name": "Burger Machine",
        "opening_hours": null,
        "shop": null,
        "rooms": null
      }
    },
    {
      "type": "Feature",
      "geometry": {
        "type": "Point",
        "coordinates": [
          121.0893323,
          14.6346102
        ]
      },
      "properties": {
        "osm_id": 1985424417,
        "osm_type": "nodes",
        "amenity": "marketplace",
        "tourism": null,
        "beds": null,
        "name": "Sylvia's Wet Market",
        "opening_hours": null,
        "shop": null,
        "rooms": null
      }
    },
    {
      "type": "Feature",
      "geometry": {
        "type": "Point",
        "coordinates": [
          121.0937017,
          14.6353432
        ]
      },
      "properties": {
        "osm_id": 670243824,
        "osm_type": "nodes",
        "amenity": "bar",
        "tourism": null,
        "beds": null,
        "name": "Riverfront Bar and Grill",
        "opening_hours": null,
        "shop": null,
        "rooms": null
      }
    },
    {
      "type": "Feature",
      "geometry": {
        "type": "Point",
        "coordinates": [
          121.0943159,
          14.6356556
        ]
      },
      "properties": {
        "osm_id": 600643350,
        "osm_type": "nodes",
        "amenity": "restaurant",
        "tourism": null,
        "beds": null,
        "name": "Lola Helen Panciteria",
        "opening_hours": null,
        "shop": null,
        "rooms": null
      }
    },
    {
      "type": "Feature",
      "geometry": {
        "type": "Point",
        "coordinates": [
          121.0946866,
          14.6224771
        ]
      },
      "properties": {
        "osm_id": 8509572946,
        "osm_type": "nodes",
        "amenity": "fast_food",
        "tourism": null,
        "beds": null,
        "name": "Dolora's Hauz of Pancit Malabon",
        "opening_hours": "Mo-Su 08:00-20:00",
        "shop": null,
        "rooms": null
      }
    },
    {
      "type": "Feature",
      "geometry": {
        "type": "Point",
        "coordinates": [
          121.1217932,
          14.6426217
        ]
      },
      "properties": {
        "osm_id": 12079176424,
        "osm_type": "nodes",
        "amenity": "restaurant",
        "tourism": null,
        "beds": null,
        "name": "MeoBel Chubuon",
        "opening_hours": null,
        "shop": null,
        "rooms": null
      }
    },
    {
      "type": "Feature",
      "geometry": {
        "type": "Point",
        "coordinates": [
          121.12192,
          14.6386171
        ]
      },
      "properties": {
        "osm_id": 12639901902,
        "osm_type": "nodes",
        "amenity": "cafe",
        "tourism": null,
        "beds": null,
        "name": "Palpitate Coffee",
        "opening_hours": null,
        "shop": null,
        "rooms": null
      }
    },
    {
      "type": "Feature",
      "geometry": {
        "type": "Point",
        "coordinates": [
          121.1029051,
          14.6490571
        ]
      },
      "properties": {
        "osm_id": 3583190238,
        "osm_type": "nodes",
        "amenity": "fast_food",
        "tourism": null,
        "beds": null,
        "name": "Estudiante",
        "opening_hours": null,
        "shop": null,
        "rooms": null
      }
    },
    {
      "type": "Feature",
      "geometry": {
        "type": "Point",
        "coordinates": [
          121.1022557,
          14.6677355
        ]
      },
      "properties": {
        "osm_id": 8137812132,
        "osm_type": "nodes",
        "amenity": "fast_food",
        "tourism": null,
        "beds": null,
        "name": "Aling Nene's Eatery",
        "opening_hours": null,
        "shop": null,
        "rooms": null
      }
    },
    {
      "type": "Feature",
      "geometry": {
        "type": "Point",
        "coordinates": [
          121.1021904,
          14.6286742
        ]
      },
      "properties": {
        "osm_id": 7118841169,
        "osm_type": "nodes",
        "amenity": "restaurant",
        "tourism": null,
        "beds": null,
        "name": "Over Easy",
        "opening_hours": "Mo-Th 10:00-21:00; Fr-Su 09:00-22:00",
        "shop": null,
        "rooms": null
      }
    },
    {
      "type": "Feature",
      "geometry": {
        "type": "Point",
        "coordinates": [
          121.1043066,
          14.6426778
        ]
      },
      "properties": {
        "osm_id": 12743596900,
        "osm_type": "nodes",
        "amenity": "restaurant",
        "tourism": null,
        "beds": null,
        "name": "Beeffalo",
        "opening_hours": null,
        "shop": null,
        "rooms": null
      }
    },
    {
      "type": "Feature",
      "geometry": {
        "type": "Point",
        "coordinates": [
          121.1041053,
          14.6414239
        ]
      },
      "properties": {
        "osm_id": 5503190802,
        "osm_type": "nodes",
        "amenity": "cafe",
        "tourism": null,
        "beds": null,
        "name": "Bubba Lab",
        "opening_hours": null,
        "shop": null,
        "rooms": null
      }
    },
    {
      "type": "Feature",
      "geometry": {
        "type": "Point",
        "coordinates": [
          121.0945779,
          14.6362292
        ]
      },
      "properties": {
        "osm_id": 2619883392,
        "osm_type": "nodes",
        "amenity": "fast_food",
        "tourism": null,
        "beds": null,
        "name": "Baliwag",
        "opening_hours": null,
        "shop": "food",
        "rooms": null
      }
    },
    {
      "type": "Feature",
      "geometry": {
        "type": "Point",
        "coordinates": [
          121.103079,
          14.6415286
        ]
      },
      "properties": {
        "osm_id": 6673900686,
        "osm_type": "nodes",
        "amenity": "restaurant",
        "tourism": null,
        "beds": null,
        "name": "Treehouse Village",
        "opening_hours": "Fr-Sa 16:00-01:00; Su-Th 16:00-23:00",
        "shop": null,
        "rooms": null
      }
    },
    {
      "type": "Feature",
      "geometry": {
        "type": "Point",
        "coordinates": [
          121.1041712,
          14.6507684
        ]
      },
      "properties": {
        "osm_id": 12678070945,
        "osm_type": "nodes",
        "amenity": "restaurant",
        "tourism": null,
        "beds": null,
        "name": "Mang Inasal",
        "opening_hours": null,
        "shop": null,
        "rooms": null
      }
    },
    {
      "type": "Feature",
      "geometry": {
        "type": "Point",
        "coordinates": [
          121.0956985,
          14.6441631
        ]
      },
      "properties": {
        "osm_id": 3594000841,
        "osm_type": "nodes",
        "amenity": "fast_food",
        "tourism": null,
        "beds": null,
        "name": "Amy's Lutong Bahay",
        "opening_hours": null,
        "shop": null,
        "rooms": null
      }
    },
    {
      "type": "Feature",
      "geometry": {
        "type": "Point",
        "coordinates": [
          121.0958685,
          14.6445265
        ]
      },
      "properties": {
        "osm_id": 3594000867,
        "osm_type": "nodes",
        "amenity": "fast_food",
        "tourism": null,
        "beds": null,
        "name": "Comets Eatery",
        "opening_hours": null,
        "shop": null,
        "rooms": null
      }
    },
    {
      "type": "Feature",
      "geometry": {
        "type": "Point",
        "coordinates": [
          121.0963397,
          14.6454221
        ]
      },
      "properties": {
        "osm_id": 10586833557,
        "osm_type": "nodes",
        "amenity": "pharmacy",
        "tourism": null,
        "beds": null,
        "name": "Watsons",
        "opening_hours": null,
        "shop": "chemist",
        "rooms": null
      }
    },
    {
      "type": "Feature",
      "geometry": {
        "type": "Point",
        "coordinates": [
          121.0952021,
          14.6429909
        ]
      },
      "properties": {
        "osm_id": 11993417348,
        "osm_type": "nodes",
        "amenity": "fast_food",
        "tourism": null,
        "beds": null,
        "name": "Dunkin'",
        "opening_hours": null,
        "shop": null,
        "rooms": null
      }
    },
    {
      "type": "Feature",
      "geometry": {
        "type": "Point",
        "coordinates": [
          121.1028709,
          14.6530732
        ]
      },
      "properties": {
        "osm_id": 4192886606,
        "osm_type": "nodes",
        "amenity": "fast_food",
        "tourism": null,
        "beds": null,
        "name": "Mang Boks",
        "opening_hours": null,
        "shop": null,
        "rooms": null
      }
    },
    {
      "type": "Feature",
      "geometry": {
        "type": "Point",
        "coordinates": [
          121.1039423,
          14.6507677
        ]
      },
      "properties": {
        "osm_id": 974331452,
        "osm_type": "nodes",
        "amenity": "fast_food",
        "tourism": null,
        "beds": null,
        "name": "Dunkin'",
        "opening_hours": null,
        "shop": null,
        "rooms": null
      }
    },
    {
      "type": "Feature",
      "geometry": {
        "type": "Point",
        "coordinates": [
          121.0943234,
          14.6357151
        ]
      },
      "properties": {
        "osm_id": 11050441400,
        "osm_type": "nodes",
        "amenity": "fast_food",
        "tourism": null,
        "beds": null,
        "name": "Pares Hilton",
        "opening_hours": null,
        "shop": null,
        "rooms": null
      }
    },
    {
      "type": "Feature",
      "geometry": {
        "type": "Point",
        "coordinates": [
          121.0974127,
          14.634281
        ]
      },
      "properties": {
        "osm_id": 2620997930,
        "osm_type": "nodes",
        "amenity": "money_transfer",
        "tourism": null,
        "beds": null,
        "name": "Cebuana Lhuillier",
        "opening_hours": null,
        "shop": "pawnbroker",
        "rooms": null
      }
    },
    {
      "type": "Feature",
      "geometry": {
        "type": "Point",
        "coordinates": [
          121.1025723,
          14.6463725
        ]
      },
      "properties": {
        "osm_id": 4666508736,
        "osm_type": "nodes",
        "amenity": "fast_food",
        "tourism": null,
        "beds": null,
        "name": "Merre Diner's Lounge",
        "opening_hours": "24/7",
        "shop": null,
        "rooms": null
      }
    },
    {
      "type": "Feature",
      "geometry": {
        "type": "Point",
        "coordinates": [
          121.1031442,
          14.6497248
        ]
      },
      "properties": {
        "osm_id": 3583190230,
        "osm_type": "nodes",
        "amenity": "cafe",
        "tourism": null,
        "beds": null,
        "name": "Pan de Guzman",
        "opening_hours": null,
        "shop": null,
        "rooms": null
      }
    },
    {
      "type": "Feature",
      "geometry": {
        "type": "Point",
        "coordinates": [
          121.095947,
          14.6310441
        ]
      },
      "properties": {
        "osm_id": 2755304625,
        "osm_type": "nodes",
        "amenity": "fast_food",
        "tourism": null,
        "beds": null,
        "name": "Lafyuks",
        "opening_hours": null,
        "shop": null,
        "rooms": null
      }
    },
    {
      "type": "Feature",
      "geometry": {
        "type": "Point",
        "coordinates": [
          121.1005189,
          14.6324323
        ]
      },
      "properties": {
        "osm_id": 4880940125,
        "osm_type": "nodes",
        "amenity": "restaurant",
        "tourism": null,
        "beds": null,
        "name": "CVJ Food Catering",
        "opening_hours": null,
        "shop": null,
        "rooms": null
      }
    },
    {
      "type": "Feature",
      "geometry": {
        "type": "Point",
        "coordinates": [
          121.0941952,
          14.6409877
        ]
      },
      "properties": {
        "osm_id": 3593959648,
        "osm_type": "nodes",
        "amenity": "fast_food",
        "tourism": null,
        "beds": null,
        "name": "Dondi's Kitchen",
        "opening_hours": null,
        "shop": null,
        "rooms": null
      }
    },
    {
      "type": "Feature",
      "geometry": {
        "type": "Point",
        "coordinates": [
          121.1129988,
          14.6502386
        ]
      },
      "properties": {
        "osm_id": 12654220545,
        "osm_type": "nodes",
        "amenity": "restaurant",
        "tourism": null,
        "beds": null,
        "name": "Pepetons",
        "opening_hours": null,
        "shop": null,
        "rooms": null
      }
    },
    {
      "type": "Feature",
      "geometry": {
        "type": "Point",
        "coordinates": [
          121.1154208,
          14.6493401
        ]
      },
      "properties": {
        "osm_id": 12675718102,
        "osm_type": "nodes",
        "amenity": "fast_food",
        "tourism": null,
        "beds": null,
        "name": "Sulit Chicken",
        "opening_hours": null,
        "shop": null,
        "rooms": null
      }
    },
    {
      "type": "Feature",
      "geometry": {
        "type": "Point",
        "coordinates": [
          121.1157811,
          14.649377
        ]
      },
      "properties": {
        "osm_id": 12678170261,
        "osm_type": "nodes",
        "amenity": "restaurant",
        "tourism": null,
        "beds": null,
        "name": "Potato Giant",
        "opening_hours": null,
        "shop": null,
        "rooms": null
      }
    },
    {
      "type": "Feature",
      "geometry": {
        "type": "Point",
        "coordinates": [
          121.1113814,
          14.6503709
        ]
      },
      "properties": {
        "osm_id": 12675662520,
        "osm_type": "nodes",
        "amenity": "cafe",
        "tourism": null,
        "beds": null,
        "name": "But First Coffee",
        "opening_hours": null,
        "shop": null,
        "rooms": null
      }
    },
    {
      "type": "Feature",
      "geometry": {
        "type": "Point",
        "coordinates": [
          121.113447,
          14.6592886
        ]
      },
      "properties": {
        "osm_id": 12082904038,
        "osm_type": "nodes",
        "amenity": "fast_food",
        "tourism": null,
        "beds": null,
        "name": "Zagu",
        "opening_hours": null,
        "shop": null,
        "rooms": null
      }
    },
    {
      "type": "Feature",
      "geometry": {
        "type": "Point",
        "coordinates": [
          121.1138637,
          14.6520849
        ]
      },
      "properties": {
        "osm_id": 10796144869,
        "osm_type": "nodes",
        "amenity": "money_transfer",
        "tourism": null,
        "beds": null,
        "name": "Cebuana Lhuillier",
        "opening_hours": null,
        "shop": "pawnbroker",
        "rooms": null
      }
    },
    {
      "type": "Feature",
      "geometry": {
        "type": "Point",
        "coordinates": [
          121.1108247,
          14.6596907
        ]
      },
      "properties": {
        "osm_id": 11288583766,
        "osm_type": "nodes",
        "amenity": "cafe",
        "tourism": null,
        "beds": null,
        "name": "Do G\u00fcd Cafe",
        "opening_hours": "Mo,We-Su 10:00-22:00",
        "shop": null,
        "rooms": null
      }
    },
    {
      "type": "Feature",
      "geometry": {
        "type": "Point",
        "coordinates": [
          121.1079388,
          14.649801
        ]
      },
      "properties": {
        "osm_id": 11149457688,
        "osm_type": "nodes",
        "amenity": "cafe",
        "tourism": null,
        "beds": null,
        "name": "Inarawan Coffee",
        "opening_hours": null,
        "shop": null,
        "rooms": null
      }
    },
    {
      "type": "Feature",
      "geometry": {
        "type": "Point",
        "coordinates": [
          121.1100035,
          14.6558227
        ]
      },
      "properties": {
        "osm_id": 10799196647,
        "osm_type": "nodes",
        "amenity": "restaurant",
        "tourism": null,
        "beds": null,
        "name": "Joseph\u2019s Grill",
        "opening_hours": null,
        "shop": null,
        "rooms": null
      }
    },
    {
      "type": "Feature",
      "geometry": {
        "type": "Point",
        "coordinates": [
          121.1118089,
          14.6493146
        ]
      },
      "properties": {
        "osm_id": 6471206085,
        "osm_type": "nodes",
        "amenity": "restaurant",
        "tourism": null,
        "beds": null,
        "name": "Bugis Singaporean Streetfood",
        "opening_hours": null,
        "shop": null,
        "rooms": null
      }
    },
    {
      "type": "Feature",
      "geometry": {
        "type": "Point",
        "coordinates": [
          121.1122995,
          14.6478769
        ]
      },
      "properties": {
        "osm_id": 10796103881,
        "osm_type": "nodes",
        "amenity": "restaurant",
        "tourism": null,
        "beds": null,
        "name": "O\u2019Kafe",
        "opening_hours": null,
        "shop": null,
        "rooms": null
      }
    },
    {
      "type": "Feature",
      "geometry": {
        "type": "Point",
        "coordinates": [
          121.1161969,
          14.6481922
        ]
      },
      "properties": {
        "osm_id": 12896045293,
        "osm_type": "nodes",
        "amenity": "restaurant",
        "tourism": null,
        "beds": null,
        "name": "Lumpiang Sariwa",
        "opening_hours": null,
        "shop": null,
        "rooms": null
      }
    },
    {
      "type": "Feature",
      "geometry": {
        "type": "Point",
        "coordinates": [
          121.1157432,
          14.6503417
        ]
      },
      "properties": {
        "osm_id": 1360075650,
        "osm_type": "nodes",
        "amenity": "fast_food",
        "tourism": null,
        "beds": null,
        "name": "McDonald's",
        "opening_hours": "24/7",
        "shop": null,
        "rooms": null
      }
    },
    {
      "type": "Feature",
      "geometry": {
        "type": "Point",
        "coordinates": [
          121.097057,
          14.6294729
        ]
      },
      "properties": {
        "osm_id": 2755292194,
        "osm_type": "nodes",
        "amenity": "fast_food",
        "tourism": null,
        "beds": null,
        "name": "Dimple's BBQ",
        "opening_hours": null,
        "shop": null,
        "rooms": null
      }
    },
    {
      "type": "Feature",
      "geometry": {
        "type": "Point",
        "coordinates": [
          121.0970628,
          14.6271126
        ]
      },
      "properties": {
        "osm_id": 696289148,
        "osm_type": "nodes",
        "amenity": "restaurant",
        "tourism": null,
        "beds": null,
        "name": "Chacha's Lutong Bahay",
        "opening_hours": null,
        "shop": null,
        "rooms": null
      }
    },
    {
      "type": "Feature",
      "geometry": {
        "type": "Point",
        "coordinates": [
          121.0924759,
          14.6223124
        ]
      },
      "properties": {
        "osm_id": 2832908460,
        "osm_type": "nodes",
        "amenity": "fast_food",
        "tourism": null,
        "beds": null,
        "name": "Kainan sa Banda Rito",
        "opening_hours": null,
        "shop": null,
        "rooms": null
      }
    },
    {
      "type": "Feature",
      "geometry": {
        "type": "Point",
        "coordinates": [
          121.0975052,
          14.6332752
        ]
      },
      "properties": {
        "osm_id": 440200809,
        "osm_type": "nodes",
        "amenity": "fast_food",
        "tourism": null,
        "beds": null,
        "name": "Jollibee",
        "opening_hours": null,
        "shop": null,
        "rooms": null
      }
    },
    {
      "type": "Feature",
      "geometry": {
        "type": "Point",
        "coordinates": [
          121.0972162,
          14.6360657
        ]
      },
      "properties": {
        "osm_id": 9425825706,
        "osm_type": "nodes",
        "amenity": "fast_food",
        "tourism": null,
        "beds": null,
        "name": "Baa Baa",
        "opening_hours": null,
        "shop": null,
        "rooms": null
      }
    },
    {
      "type": "Feature",
      "geometry": {
        "type": "Point",
        "coordinates": [
          121.0978773,
          14.6325698
        ]
      },
      "properties": {
        "osm_id": 2620961317,
        "osm_type": "nodes",
        "amenity": "fast_food",
        "tourism": null,
        "beds": null,
        "name": "Sisig Hooray",
        "opening_hours": null,
        "shop": null,
        "rooms": null
      }
    },
    {
      "type": "Feature",
      "geometry": {
        "type": "Point",
        "coordinates": [
          121.0975114,
          14.6335777
        ]
      },
      "properties": {
        "osm_id": 2620997846,
        "osm_type": "nodes",
        "amenity": "fast_food",
        "tourism": null,
        "beds": null,
        "name": "Angel's Burger",
        "opening_hours": null,
        "shop": null,
        "rooms": null
      }
    },
    {
      "type": "Feature",
      "geometry": {
        "type": "Point",
        "coordinates": [
          121.1220548,
          14.6400528
        ]
      },
      "properties": {
        "osm_id": 6240916392,
        "osm_type": "nodes",
        "amenity": "fast_food",
        "tourism": null,
        "beds": null,
        "name": "One Foodhub",
        "opening_hours": null,
        "shop": null,
        "rooms": null
      }
    },
    {
      "type": "Feature",
      "geometry": {
        "type": "Point",
        "coordinates": [
          121.1220494,
          14.6400204
        ]
      },
      "properties": {
        "osm_id": 6240916391,
        "osm_type": "nodes",
        "amenity": "fast_food",
        "tourism": null,
        "beds": null,
        "name": "Christian's Hamburger",
        "opening_hours": null,
        "shop": null,
        "rooms": null
      }
    },
    {
      "type": "Feature",
      "geometry": {
        "type": "Point",
        "coordinates": [
          121.1205302,
          14.6395588
        ]
      },
      "properties": {
        "osm_id": 4188644384,
        "osm_type": "nodes",
        "amenity": "fast_food",
        "tourism": null,
        "beds": null,
        "name": "Mad Mustard: Hotdogs and Fries Joint",
        "opening_hours": null,
        "shop": null,
        "rooms": null
      }
    },
    {
      "type": "Feature",
      "geometry": {
        "type": "Point",
        "coordinates": [
          121.120646,
          14.6395228
        ]
      },
      "properties": {
        "osm_id": 4188644382,
        "osm_type": "nodes",
        "amenity": "restaurant",
        "tourism": null,
        "beds": null,
        "name": "Chopped Unwind and Dine",
        "opening_hours": null,
        "shop": null,
        "rooms": null
      }
    },
    {
      "type": "Feature",
      "geometry": {
        "type": "Point",
        "coordinates": [
          121.1170581,
          14.6404106
        ]
      },
      "properties": {
        "osm_id": 12204690947,
        "osm_type": "nodes",
        "amenity": "restaurant",
        "tourism": null,
        "beds": null,
        "name": "Takusa",
        "opening_hours": null,
        "shop": null,
        "rooms": null
      }
    },
    {
      "type": "Feature",
      "geometry": {
        "type": "Point",
        "coordinates": [
          121.1214398,
          14.6395082
        ]
      },
      "properties": {
        "osm_id": 4188644381,
        "osm_type": "nodes",
        "amenity": "restaurant",
        "tourism": null,
        "beds": null,
        "name": "Breaks and Shakes",
        "opening_hours": null,
        "shop": null,
        "rooms": null
      }
    },
    {
      "type": "Feature",
      "geometry": {
        "type": "Point",
        "coordinates": [
          121.1217069,
          14.6371131
        ]
      },
      "properties": {
        "osm_id": 3578952571,
        "osm_type": "nodes",
        "amenity": "fast_food",
        "tourism": null,
        "beds": null,
        "name": "Ka Rene's Goto Atbp",
        "opening_hours": null,
        "shop": null,
        "rooms": null
      }
    },