{
  "type": "FeatureCollection",
  "features": [
    {
      "type": "Feature",
      "geometry": {
        "type": "Point",
        "coordinates": [
          121.0363767,
          14.5646374
        ]
      },
      "properties": {
        "osm_id": 255058579,
        "osm_type": "nodes",
        "amenity": "restaurant",
        "tourism": null,
        "beds": null,
        "name": "Pho 24",
        "opening_hours": null,
        "shop": null,
        "rooms": null
      }
    },
    {
      "type": "Feature",
      "geometry": {
        "type": "Point",
        "coordinates": [
          121.0276077,
          14.551103
        ]
      },
      "properties": {
        "osm_id": 13025998106,
        "osm_type": "nodes",
        "amenity": "restaurant",
        "tourism": null,
        "beds": null,
        "name": "Tim Ho Wan",
        "opening_hours": null,
        "shop": null,
        "rooms": null
      }
    },
    {
      "type": "Feature",
      "geometry": {
        "type": "Point",
        "coordinates": [
          121.0367544,
          14.565194
        ]
      },
      "properties": {
        "osm_id": 255070192,
        "osm_type": "nodes",
        "amenity": "restaurant",
        "tourism": null,
        "beds": null,
        "name": "SumoSam",
        "opening_hours": null,
        "shop": null,
        "rooms": null
      }
    },
    {
      "type": "Feature",
      "geometry": {
        "type": "Point",
        "coordinates": [
          121.0206059,
          14.5709516
        ]
      },
      "properties": {
        "osm_id": 3595790856,
        "osm_type": "nodes",
        "amenity": "fast_food",
        "tourism": null,
        "beds": null,
        "name": "Filmari's Bakery",
        "opening_hours": null,
        "shop": null,
        "rooms": null
      }
    },
    {
      "type": "Feature",
      "geometry": {
        "type": "Point",
        "coordinates": [
          121.0190096,
          14.5627362
        ]
      },
      "properties": {
        "osm_id": 1110054637,
        "osm_type": "nodes",
        "amenity": "restaurant",
        "tourism": null,
        "beds": null,
        "name": "JT's Manukan",
        "opening_hours": null,
        "shop": null,
        "rooms": null
      }
    },
    {
      "type": "Feature",
      "geometry": {
        "type": "Point",
        "coordinates": [
          121.017168,
          14.5676582
        ]
      },
      "properties": {
        "osm_id": 8416153165,
        "osm_type": "nodes",
        "amenity": "restaurant",
        "tourism": null,
        "beds": null,
        "name": "Attack-O-Yaki",
        "opening_hours": "Tu-Sa 15:00-21:00",
        "shop": null,
        "rooms": null
      }
    },
    {
      "type": "Feature",
      "geometry": {
        "type": "Point",
        "coordinates": [
          121.0220159,
          14.5545695
        ]
      },
      "properties": {
        "osm_id": 1602094680,
        "osm_type": "nodes",
        "amenity": "restaurant",
        "tourism": null,
        "beds": null,
        "name": "Mom & Tina's",
        "opening_hours": "Mo-Su 07:00-22:00",
        "shop": null,
        "rooms": null
      }
    },
    {
      "type": "Feature",
      "geometry": {
        "type": "Point",
        "coordinates": [
          121.0203107,
          14.5517758
        ]
      },
      "properties": {
        "osm_id": 2597472132,
        "osm_type": "nodes",
        "amenity": "restaurant",
        "tourism": null,
        "beds": null,
        "name": "Casa Armas",
        "opening_hours": null,
        "shop": null,
        "rooms": null
      }
    },
    {
      "type": "Feature",
      "geometry": {
        "type": "Point",
        "coordinates": [
          121.0251115,
          14.558974
        ]
      },
      "properties": {
        "osm_id": 1145089941,
        "osm_type": "nodes",
        "amenity": "restaurant",
        "tourism": null,
        "beds": null,
        "name": "Top of the Citi",
        "opening_hours": null,
        "shop": null,
        "rooms": null
      }
    },
    {
      "type": "Feature",
      "geometry": {
        "type": "Point",
        "coordinates": [
          121.0195409,
          14.5627102
        ]
      },
      "properties": {
        "osm_id": 1110054636,
        "osm_type": "nodes",
        "amenity": "restaurant",
        "tourism": null,
        "beds": null,
        "name": "Heaven's Barbeque",
        "opening_hours": null,
        "shop": null,
        "rooms": null
      }
    },
    {
      "type": "Feature",
      "geometry": {
        "type": "Point",
        "coordinates": [
          121.0079718,
          14.5669278
        ]
      },
      "properties": {
        "osm_id": 12335988401,
        "osm_type": "nodes",
        "amenity": "bar",
        "tourism": null,
        "beds": null,
        "name": "Palm Tree Abbey",
        "opening_hours": "Tu-Su 16:00-23:00",
        "shop": null,
        "rooms": null
      }
    },
    {
      "type": "Feature",
      "geometry": {
        "type": "Point",
        "coordinates": [
          121.0002194,
          14.5631494
        ]
      },
      "properties": {
        "osm_id": 12828485965,
        "osm_type": "nodes",
        "amenity": "cafe",
        "tourism": null,
        "beds": null,
        "name": "Feliza Cafe",
        "opening_hours": null,
        "shop": null,
        "rooms": null
      }
    },
    {
      "type": "Feature",
      "geometry": {
        "type": "Point",
        "coordinates": [
          121.0072098,
          14.5611673
        ]
      },
      "properties": {
        "osm_id": 12509121533,
        "osm_type": "nodes",
        "amenity": "bar",
        "tourism": null,
        "beds": null,
        "name": "Kalye Kuisinero",
        "opening_hours": null,
        "shop": null,
        "rooms": null
      }
    },
    {
      "type": "Feature",
      "geometry": {
        "type": "Point",
        "coordinates": [
          121.0177002,
          14.5602268
        ]
      },
      "properties": {
        "osm_id": 12452965634,
        "osm_type": "nodes",
        "amenity": "fast_food",
        "tourism": null,
        "beds": null,
        "name": "Burger King - Two Central",
        "opening_hours": null,
        "shop": null,
        "rooms": null
      }
    },
    {
      "type": "Feature",
      "geometry": {
        "type": "Point",
        "coordinates": [
          121.0152136,
          14.5606487
        ]
      },
      "properties": {
        "osm_id": 394571083,
        "osm_type": "nodes",
        "amenity": "restaurant",
        "tourism": null,
        "beds": null,
        "name": "Tokyo Tokyo",
        "opening_hours": null,
        "shop": null,
        "rooms": null
      }
    },
    {
      "type": "Feature",
      "geometry": {
        "type": "Point",
        "coordinates": [
          121.0453477,
          14.5641357
        ]
      },
      "properties": {
        "osm_id": 383398047,
        "osm_type": "nodes",
        "amenity": "fast_food",
        "tourism": null,
        "beds": null,
        "name": "Andok's",
        "opening_hours": null,
        "shop": null,
        "rooms": null
      }
    },
    {
      "type": "Feature",
      "geometry": {
        "type": "Point",
        "coordinates": [
          121.021366,
          14.5612214
        ]
      },
      "properties": {
        "osm_id": 12206425501,
        "osm_type": "nodes",
        "amenity": "restaurant",
        "tourism": null,
        "beds": null,
        "name": "Trattoria Altrov\u00e9",
        "opening_hours": null,
        "shop": null,
        "rooms": null
      }
    },
    {
      "type": "Feature",
      "geometry": {
        "type": "Point",
        "coordinates": [
          121.0467598,
          14.5654085
        ]
      },
      "properties": {
        "osm_id": 12228585701,
        "osm_type": "nodes",
        "amenity": "marketplace",
        "tourism": null,
        "beds": null,
        "name": null,
        "opening_hours": null,
        "shop": null,
        "rooms": null
      }
    },
    {
      "type": "Feature",
      "geometry": {
        "type": "Point",
        "coordinates": [
          121.03342,
          14.5581468
        ]
      },
      "properties": {
        "osm_id": 7077965478,
        "osm_type": "nodes",
        "amenity": "restaurant",
        "tourism": null,
        "beds": null,
        "name": "Mitsuyado Seimen",
        "opening_hours": null,
        "shop": null,
        "rooms": null
      }
    },
    {
      "type": "Feature",
      "geometry": {
        "type": "Point",
        "coordinates": [
          121.009147,
          14.5671082
        ]
      },
      "properties": {
        "osm_id": 11495428473,
        "osm_type": "nodes",
        "amenity": "fast_food",
        "tourism": null,
        "beds": null,
        "name": "Dodoys Grill House",
        "opening_hours": null,
        "shop": null,
        "rooms": null
      }
    },
    {
      "type": "Feature",
      "geometry": {
        "type": "Point",
        "coordinates": [
          121.0196813,
          14.5742916
        ]
      },
      "properties": {
        "osm_id": 9406991117,
        "osm_type": "nodes",
        "amenity": "restaurant",
        "tourism": null,
        "beds": null,
        "name": "David's Tea House Classic",
        "opening_hours": null,
        "shop": null,
        "rooms": null
      }
    },
    {
      "type": "Feature",
      "geometry": {
        "type": "Point",
        "coordinates": [
          121.0192127,
          14.572977
        ]
      },
      "properties": {
        "osm_id": 5863182556,
        "osm_type": "nodes",
        "amenity": "restaurant",
        "tourism": null,
        "beds": null,
        "name": "Shi Lin",
        "opening_hours": null,
        "shop": null,
        "rooms": null
      }
    },
    {
      "type": "Feature",
      "geometry": {
        "type": "Point",
        "coordinates": [
          121.0198486,
          14.5756777
        ]
      },
      "properties": {
        "osm_id": 4177666489,
        "osm_type": "nodes",
        "amenity": "cafe",
        "tourism": null,
        "beds": null,
        "name": "Coffee Bean and Tea Leaf",
        "opening_hours": null,
        "shop": null,
        "rooms": null
      }
    },
    {
      "type": "Feature",
      "geometry": {
        "type": "Point",
        "coordinates": [
          121.0132013,
          14.5665822
        ]
      },
      "properties": {
        "osm_id": 25583800,
        "osm_type": "nodes",
        "amenity": "fast_food",
        "tourism": null,
        "beds": null,
        "name": "Chowking",
        "opening_hours": null,
        "shop": null,
        "rooms": null
      }
    },
    {
      "type": "Feature",
      "geometry": {
        "type": "Point",
        "coordinates": [
          121.014955,
          14.5601316
        ]
      },
      "properties": {
        "osm_id": 427576875,
        "osm_type": "nodes",
        "amenity": "fast_food",
        "tourism": null,
        "beds": null,
        "name": "McDonald's",
        "opening_hours": "24/7",
        "shop": null,
        "rooms": null
      }
    },
    {
      "type": "Feature",
      "geometry": {
        "type": "Point",
        "coordinates": [
          121.0180917,
          14.5557068
        ]
      },
      "properties": {
        "osm_id": 5297693375,
        "osm_type": "nodes",
        "amenity": "restaurant",
        "tourism": null,
        "beds": null,
        "name": "Wildflour",
        "opening_hours": null,
        "shop": null,
        "rooms": null
      }
    },
    {
      "type": "Feature",
      "geometry": {
        "type": "Point",
        "coordinates": [
          121.025514,
          14.5610565
        ]
      },
      "properties": {
        "osm_id": 255067433,
        "osm_type": "nodes",
        "amenity": "restaurant",
        "tourism": null,
        "beds": null,
        "name": "Elbert's Steak Room",
        "opening_hours": null,
        "shop": null,
        "rooms": null
      }
    },
    {
      "type": "Feature",
      "geometry": {
        "type": "Point",
        "coordinates": [
          121.015965,
          14.5616692
        ]
      },
      "properties": {
        "osm_id": 453023115,
        "osm_type": "nodes",
        "amenity": "restaurant",
        "tourism": null,
        "beds": null,
        "name": "New Bombay",
        "opening_hours": null,
        "shop": null,
        "rooms": null
      }
    },
    {
      "type": "Feature",
      "geometry": {
        "type": "Point",
        "coordinates": [
          121.022018,
          14.5592284
        ]
      },
      "properties": {
        "osm_id": 1110117078,
        "osm_type": "nodes",
        "amenity": "restaurant",
        "tourism": null,
        "beds": null,
        "name": "Terry's Selection",
        "opening_hours": null,
        "shop": null,
        "rooms": null
      }
    },
    {
      "type": "Feature",
      "geometry": {
        "type": "Point",
        "coordinates": [
          121.025025,
          14.560359
        ]
      },
      "properties": {
        "osm_id": 2763409345,
        "osm_type": "nodes",
        "amenity": "cafe",
        "tourism": null,
        "beds": null,
        "name": "Toby's Estate",
        "opening_hours": null,
        "shop": null,
        "rooms": null
      }
    },
    {
      "type": "Feature",
      "geometry": {
        "type": "Point",
        "coordinates": [
          121.0201652,
          14.5590472
        ]
      },
      "properties": {
        "osm_id": 12247840314,
        "osm_type": "nodes",
        "amenity": "restaurant",
        "tourism": null,
        "beds": null,
        "name": "Whistlestop",
        "opening_hours": "24/7",
        "shop": null,
        "rooms": null
      }
    },
    {
      "type": "Feature",
      "geometry": {
        "type": "Point",
        "coordinates": [
          121.0155567,
          14.5582878
        ]
      },
      "properties": {
        "osm_id": 10120048414,
        "osm_type": "nodes",
        "amenity": "restaurant",
        "tourism": null,
        "beds": null,
        "name": "Garuda",
        "opening_hours": "Mo-Su 10:00-21:00",
        "shop": null,
        "rooms": null
      }
    },
    {
      "type": "Feature",
      "geometry": {
        "type": "Point",
        "coordinates": [
          121.0198181,
          14.5599667
        ]
      },
      "properties": {
        "osm_id": 676425276,
        "osm_type": "nodes",
        "amenity": "restaurant",
        "tourism": null,
        "beds": null,
        "name": "Chocolate Fire",
        "opening_hours": null,
        "shop": null,
        "rooms": null
      }
    },
    {
      "type": "Feature",
      "geometry": {
        "type": "Point",
        "coordinates": [
          121.0324562,
          14.5592758
        ]
      },
      "properties": {
        "osm_id": 6579490127,
        "osm_type": "nodes",
        "amenity": "restaurant",
        "tourism": null,
        "beds": null,
        "name": "Tong Yang",
        "opening_hours": null,
        "shop": null,
        "rooms": null
      }
    },
    {
      "type": "Feature",
      "geometry": {
        "type": "Point",
        "coordinates": [
          121.0305017,
          14.5623111
        ]
      },
      "properties": {
        "osm_id": 255067138,
        "osm_type": "nodes",
        "amenity": "pub",
        "tourism": null,
        "beds": null,
        "name": "Handlebar Bar & Grill",
        "opening_hours": null,
        "shop": null,
        "rooms": null
      }
    },
    {
      "type": "Feature",
      "geometry": {
        "type": "Point",
        "coordinates": [
          121.0272122,
          14.561171
        ]
      },
      "properties": {
        "osm_id": 444395107,
        "osm_type": "nodes",
        "amenity": "cafe",
        "tourism": null,
        "beds": null,
        "name": "Starbucks",
        "opening_hours": null,
        "shop": null,
        "rooms": null
      }
    },
    {
      "type": "Feature",
      "geometry": {
        "type": "Point",
        "coordinates": [
          121.0220055,
          14.558183
        ]
      },
      "properties": {
        "osm_id": 4438082046,
        "osm_type": "nodes",
        "amenity": "restaurant",
        "tourism": null,
        "beds": null,
        "name": "Pancake House",
        "opening_hours": null,
        "shop": null,
        "rooms": null
      }
    },
    {
      "type": "Feature",
      "geometry": {
        "type": "Point",
        "coordinates": [
          121.0248932,
          14.563037
        ]
      },
      "properties": {
        "osm_id": 3781246162,
        "osm_type": "nodes",
        "amenity": "restaurant",
        "tourism": null,
        "beds": null,
        "name": "Mey Lin Bistro",
        "opening_hours": null,
        "shop": null,
        "rooms": null
      }
    },
    {
      "type": "Feature",
      "geometry": {
        "type": "Point",
        "coordinates": [
          121.0125431,
          14.563041
        ]
      },
      "properties": {
        "osm_id": 5783070154,
        "osm_type": "nodes",
        "amenity": "fast_food",
        "tourism": null,
        "beds": null,
        "name": "New Bistro Deli",
        "opening_hours": null,
        "shop": null,
        "rooms": null
      }
    },
    {
      "type": "Feature",
      "geometry": {
        "type": "Point",
        "coordinates": [
          121.0209888,
          14.561715
        ]
      },
      "properties": {
        "osm_id": 5285588022,
        "osm_type": "nodes",
        "amenity": "restaurant",
        "tourism": null,
        "beds": null,
        "name": "Takashi",
        "opening_hours": null,
        "shop": null,
        "rooms": null
      }
    },
    {
      "type": "Feature",
      "geometry": {
        "type": "Point",
        "coordinates": [
          121.0280007,
          14.5623167
        ]
      },
      "properties": {
        "osm_id": 1973321746,
        "osm_type": "nodes",
        "amenity": "fast_food",
        "tourism": null,
        "beds": null,
        "name": "McDonald's",
        "opening_hours": "24/7",
        "shop": null,
        "rooms": null
      }
    },
    {
      "type": "Feature",
      "geometry": {
        "type": "Point",
        "coordinates": [
          121.0151705,
          14.5607193
        ]
      },
      "properties": {
        "osm_id": 427576894,
        "osm_type": "nodes",
        "amenity": "restaurant",
        "tourism": null,
        "beds": null,
        "name": "Yellow Cab Pizza Co.",
        "opening_hours": null,
        "shop": null,
        "rooms": null
      }
    },
    {
      "type": "Feature",
      "geometry": {
        "type": "Point",
        "coordinates": [
          121.0126301,
          14.5594048
        ]
      },
      "properties": {
        "osm_id": 2523058479,
        "osm_type": "nodes",
        "amenity": "restaurant",
        "tourism": null,
        "beds": null,
        "name": "Ladera Culinary Services",
        "opening_hours": null,
        "shop": null,
        "rooms": null
      }
    },
    {
      "type": "Feature",
      "geometry": {
        "type": "Point",
        "coordinates": [
          121.030496,
          14.5631622
        ]
      },
      "properties": {
        "osm_id": 5550228473,
        "osm_type": "nodes",
        "amenity": "restaurant",
        "tourism": null,
        "beds": null,
        "name": "Kashmir",
        "opening_hours": null,
        "shop": null,
        "rooms": null
      }
    },
    {
      "type": "Feature",
      "geometry": {
        "type": "Point",
        "coordinates": [
          121.0190887,
          14.5592893
        ]
      },
      "properties": {
        "osm_id": 3709486129,
        "osm_type": "nodes",
        "amenity": "restaurant",
        "tourism": null,
        "beds": null,
        "name": "Poly Incense",
        "opening_hours": null,
        "shop": null,
        "rooms": null
      }
    },
    {
      "type": "Feature",
      "geometry": {
        "type": "Point",
        "coordinates": [
          121.0199085,
          14.5589294
        ]
      },
      "properties": {
        "osm_id": 3149117029,
        "osm_type": "nodes",
        "amenity": "cafe",
        "tourism": null,
        "beds": null,
        "name": "Teaberi",
        "opening_hours": null,
        "shop": null,
        "rooms": null
      }
    },
    {
      "type": "Feature",
      "geometry": {
        "type": "Point",
        "coordinates": [
          121.0249747,
          14.5553557
        ]
      },
      "properties": {
        "osm_id": 3813660182,
        "osm_type": "nodes",
        "amenity": "bar",
        "tourism": null,
        "beds": null,
        "name": "The Bar",
        "opening_hours": "15:00 - 2:00",
        "shop": null,
        "rooms": null
      }
    },
    {
      "type": "Feature",
      "geometry": {
        "type": "Point",
        "coordinates": [
          121.0191222,
          14.5627206
        ]
      },
      "properties": {
        "osm_id": 1110054638,
        "osm_type": "nodes",
        "amenity": "restaurant",
        "tourism": null,
        "beds": null,
        "name": "Stoops",
        "opening_hours": null,
        "shop": null,
        "rooms": null
      }
    },
    {
      "type": "Feature",
      "geometry": {
        "type": "Point",
        "coordinates": [
          121.0165963,
          14.5569095
        ]
      },
      "properties": {
        "osm_id": 9776136462,
        "osm_type": "nodes",
        "amenity": "restaurant",
        "tourism": null,
        "beds": null,
        "name": "Mantra",
        "opening_hours": "Tu-Su 11:00-14:00,17:30-22:00, Mo off",
        "shop": null,
        "rooms": null
      }
    },
    {
      "type": "Feature",
      "geometry": {
        "type": "Point",
        "coordinates": [
          121.0242643,
          14.5513277
        ]
      },
      "properties": {
        "osm_id": 12823260201,
        "osm_type": "nodes",
        "amenity": "restaurant",
        "tourism": null,
        "beds": null,
        "name": "Buffet 101",
        "opening_hours": null,
        "shop": null,
        "rooms": null
      }
    },
    {
      "type": "Feature",
      "geometry": {
        "type": "Point",
        "coordinates": [
          121.0115558,
          14.5443011
        ]
      },
      "properties": {
        "osm_id": 7100161783,
        "osm_type": "nodes",
        "amenity": "fast_food",
        "tourism": null,
        "beds": null,
        "name": "Angel's Burger",
        "opening_hours": null,
        "shop": null,
        "rooms": null
      }
    },
    {
      "type": "Feature",
      "geometry": {
        "type": "Point",
        "coordinates": [
          121.0146476,
          14.5528312
        ]
      },
      "properties": {
        "osm_id": 1599531264,
        "osm_type": "nodes",
        "amenity": "fast_food",
        "tourism": null,
        "beds": null,
        "name": "KFC",
        "opening_hours": null,
        "shop": null,
        "rooms": null
      }
    },
    {
      "type": "Feature",
      "geometry": {
        "type": "Point",
        "coordinates": [
          121.0190082,
          14.5587722
        ]
      },
      "properties": {
        "osm_id": 3709496025,
        "osm_type": "nodes",
        "amenity": "fast_food",
        "tourism": null,
        "beds": null,
        "name": "KFC",
        "opening_hours": "24/7",
        "shop": null,
        "rooms": null
      }
    },
    {
      "type": "Feature",
      "geometry": {
        "type": "Point",
        "coordinates": [
          121.0163941,
          14.5617043
        ]
      },
      "properties": {
        "osm_id": 453023114,
        "osm_type": "nodes",
        "amenity": "restaurant",
        "tourism": null,
        "beds": null,
        "name": "Earl's Deli",
        "opening_hours": null,
        "shop": null,
        "rooms": null
      }
    },
    {
      "type": "Feature",
      "geometry": {
        "type": "Point",
        "coordinates": [
          121.0058177,
          14.5575997
        ]
      },
      "properties": {
        "osm_id": 11215500836,
        "osm_type": "nodes",
        "amenity": "restaurant",
        "tourism": null,
        "beds": null,
        "name": "Ultimate Liempo",
        "opening_hours": null,
        "shop": null,
        "rooms": null
      }
    },
    {
      "type": "Feature",
      "geometry": {
        "type": "Point",
        "coordinates": [
          121.0151272,
          14.5702853
        ]
      },
      "properties": {
        "osm_id": 11520118869,
        "osm_type": "nodes",
        "amenity": "fast_food",
        "tourism": null,
        "beds": null,
        "name": "Dunkin'",
        "opening_hours": null,
        "shop": null,
        "rooms": null
      }
    },
    {
      "type": "Feature",
      "geometry": {
        "type": "Point",
        "coordinates": [
          121.005445,
          14.5561338
        ]
      },
      "properties": {
        "osm_id": 7550344329,
        "osm_type": "nodes",
        "amenity": "restaurant",
        "tourism": null,
        "beds": null,
        "name": "Oishi Bachoi",
        "opening_hours": null,
        "shop": null,
        "rooms": null
      }
    },
    {
      "type": "Feature",
      "geometry": {
        "type": "Point",
        "coordinates": [
          121.0121865,
          14.5614363
        ]
      },
      "properties": {
        "osm_id": 255058838,
        "osm_type": "nodes",
        "amenity": "fast_food",
        "tourism": null,
        "beds": null,
        "name": "Tropical Hut",
        "opening_hours": "24/7",
        "shop": null,
        "rooms": null
      }
    },
    {
      "type": "Feature",
      "geometry": {
        "type": "Point",
        "coordinates": [
          121.0143275,
          14.5536254
        ]
      },
      "properties": {
        "osm_id": 2799564168,
        "osm_type": "nodes",
        "amenity": "restaurant",
        "tourism": null,
        "beds": null,
        "name": "Nodasyo",
        "opening_hours": null,
        "shop": null,
        "rooms": null
      }
    },
    {
      "type": "Feature",
      "geometry": {
        "type": "Point",
        "coordinates": [
          121.013076,
          14.55689
        ]
      },
      "properties": {
        "osm_id": 255072694,
        "osm_type": "nodes",
        "amenity": "restaurant",
        "tourism": null,
        "beds": null,
        "name": "Makati Chef Garden Restaurant",
        "opening_hours": null,
        "shop": null,
        "rooms": null
      }
    },
    {
      "type": "Feature",
      "geometry": {
        "type": "Point",
        "coordinates": [
          121.012103,
          14.5397076
        ]
      },
      "properties": {
        "osm_id": 7102182578,
        "osm_type": "nodes",
        "amenity": "fast_food",
        "tourism": null,
        "beds": null,
        "name": "Dunkin'",
        "opening_hours": null,
        "shop": null,
        "rooms": null
      }
    },
    {
      "type": "Feature",
      "geometry": {
        "type": "Point",
        "coordinates": [
          121.0171361,
          14.5388631
        ]
      },
      "properties": {
        "osm_id": 2523072551,
        "osm_type": "nodes",
        "amenity": "pub",
        "tourism": null,
        "beds": null,
        "name": "Global Beer Exchange",
        "opening_hours": null,
        "shop": null,
        "rooms": null
      }
    },
    {
      "type": "Feature",
      "geometry": {
        "type": "Point",
        "coordinates": [
          121.012731,
          14.565225
        ]
      },
      "properties": {
        "osm_id": 3697013225,
        "osm_type": "nodes",
        "amenity": "cafe",
        "tourism": null,
        "beds": null,
        "name": "Restock",
        "opening_hours": null,
        "shop": null,
        "rooms": null
      }
    },
    {
      "type": "Feature",
      "geometry": {
        "type": "Point",
        "coordinates": [
          121.0140003,
          14.5538123
        ]
      },
      "properties": {
        "osm_id": 2799562241,
        "osm_type": "nodes",
        "amenity": "restaurant",
        "tourism": null,
        "beds": null,
        "name": "Sekitori",
        "opening_hours": null,
        "shop": null,
        "rooms": null
      }
    },
    {
      "type": "Feature",
      "geometry": {
        "type": "Point",
        "coordinates": [
          121.0185841,
          14.5560005
        ]
      },
      "properties": {
        "osm_id": 13043887553,
        "osm_type": "nodes",
        "amenity": "cafe",
        "tourism": null,
        "beds": null,
        "name": "Koh Cafe + Roasters",
        "opening_hours": "Mo-Su 10:00-22:00",
        "shop": null,
        "rooms": null
      }
    },
    {
      "type": "Feature",
      "geometry": {
        "type": "Point",
        "coordinates": [
          121.0181983,
          14.5543777
        ]
      },
      "properties": {
        "osm_id": 3678117064,
        "osm_type": "nodes",
        "amenity": "cafe",
        "tourism": null,
        "beds": null,
        "name": "The Curator",
        "opening_hours": "Mo-Sa 07:00-02:00, Su 07:00-19:00",
        "shop": null,
        "rooms": null
      }
    },
    {
      "type": "Feature",
      "geometry": {
        "type": "Point",
        "coordinates": [
          121.0202643,
          14.5363367
        ]
      },
      "properties": {
        "osm_id": 5741183467,
        "osm_type": "nodes",
        "amenity": "restaurant",
        "tourism": null,
        "beds": null,
        "name": "121",
        "opening_hours": null,
        "shop": null,
        "rooms": null
      }
    },
    {
      "type": "Feature",
      "geometry": {
        "type": "Point",
        "coordinates": [
          121.0174195,
          14.5447425
        ]
      },
      "properties": {
        "osm_id": 5188806023,
        "osm_type": "nodes",
        "amenity": "bar",
        "tourism": null,
        "beds": null,
        "name": "Finders Keepers",
        "opening_hours": "Mo-Sa",
        "shop": null,
        "rooms": null
      }
    },
    {
      "type": "Feature",
      "geometry": {
        "type": "Point",
        "coordinates": [
          121.0124852,
          14.5454421
        ]
      },
      "properties": {
        "osm_id": 11851801918,
        "osm_type": "nodes",
        "amenity": "cafe",
        "tourism": null,
        "beds": null,
        "name": "Convenience Coffee",
        "opening_hours": "We-Su,Mo 09:00-19:00",
        "shop": null,
        "rooms": null
      }
    },
    {
      "type": "Feature",
      "geometry": {
        "type": "Point",
        "coordinates": [
          121.0097509,
          14.5485749
        ]
      },
      "properties": {
        "osm_id": 11578155569,
        "osm_type": "nodes",
        "amenity": "cafe",
        "tourism": null,
        "beds": null,
        "name": "Beans n Brew",
        "opening_hours": null,
        "shop": null,
        "rooms": null
      }
    },
    {
      "type": "Feature",
      "geometry": {
        "type": "Point",
        "coordinates": [
          121.0201228,
          14.5526455
        ]
      },
      "properties": {
        "osm_id": 10796586969,
        "osm_type": "nodes",
        "amenity": "restaurant",
        "tourism": null,
        "beds": null,
        "name": "Soybean",
        "opening_hours": null,
        "shop": null,
        "rooms": null
      }
    },
    {
      "type": "Feature",
      "geometry": {
        "type": "Point",
        "coordinates": [
          121.0295077,
          14.5496279
        ]
      },
      "properties": {
        "osm_id": 3778738909,
        "osm_type": "nodes",
        "amenity": "cafe",
        "tourism": null,
        "beds": null,
        "name": "Starbucks",
        "opening_hours": null,
        "shop": null,
        "rooms": null
      }
    },
    {
      "type": "Feature",
      "geometry": {
        "type": "Point",
        "coordinates": [
          121.0193379,
          14.5507761
        ]
      },
      "properties": {
        "osm_id": 255065872,
        "osm_type": "nodes",
        "amenity": "restaurant",
        "tourism": null,
        "beds": null,
        "name": "Milky Way Caf\u00e9",
        "opening_hours": null,
        "shop": null,
        "rooms": null
      }
    },
    {
      "type": "Feature",
      "geometry": {
        "type": "Point",
        "coordinates": [
          121.0197127,
          14.5534919
        ]
      },
      "properties": {
        "osm_id": 1750310914,
        "osm_type": "nodes",
        "amenity": "fast_food",
        "tourism": null,
        "beds": null,
        "name": "BonChon",
        "opening_hours": null,
        "shop": null,
        "rooms": null
      }
    },
    {
      "type": "Feature",
      "geometry": {
        "type": "Point",
        "coordinates": [
          121.0199436,
          14.5521248
        ]
      },
      "properties": {
        "osm_id": 1110174232,
        "osm_type": "nodes",
        "amenity": "restaurant",
        "tourism": null,
        "beds": null,
        "name": "Italianni's",
        "opening_hours": null,
        "shop": null,
        "rooms": null
      }
    },
    {
      "type": "Feature",
      "geometry": {
        "type": "Point",
        "coordinates": [
          121.0171191,
          14.5389202
        ]
      },
      "properties": {
        "osm_id": 1346621381,
        "osm_type": "nodes",
        "amenity": "cafe",
        "tourism": null,
        "beds": null,
        "name": "Park Avenue Dessert",
        "opening_hours": null,
        "shop": null,
        "rooms": null
      }
    },
    {
      "type": "Feature",
      "geometry": {
        "type": "Point",
        "coordinates": [
          121.0227626,
          14.5332496
        ]
      },
      "properties": {
        "osm_id": 2832392696,
        "osm_type": "nodes",
        "amenity": "restaurant",
        "tourism": null,
        "beds": null,
        "name": "Persian Grill",
        "opening_hours": null,
        "shop": null,
        "rooms": null
      }
    },
    {
      "type": "Feature",
      "geometry": {
        "type": "Point",
        "coordinates": [
          121.0144214,
          14.5537344
        ]
      },
      "properties": {
        "osm_id": 2799564577,
        "osm_type": "nodes",
        "amenity": "restaurant",
        "tourism": null,
        "beds": null,
        "name": "Urameshiya",
        "opening_hours": null,
        "shop": null,
        "rooms": null
      }
    },
    {
      "type": "Feature",
      "geometry": {
        "type": "Point",
        "coordinates": [
          121.0267146,
          14.5473541
        ]
      },
      "properties": {
        "osm_id": 2242494535,
        "osm_type": "nodes",
        "amenity": "fast_food",
        "tourism": null,
        "beds": null,
        "name": "BonChon Chicken",
        "opening_hours": null,
        "shop": null,
        "rooms": null
      }
    },
    {
      "type": "Feature",
      "geometry": {
        "type": "Point",
        "coordinates": [
          121.013916,
          14.5527013
        ]
      },
      "properties": {
        "osm_id": 1599531265,
        "osm_type": "nodes",
        "amenity": "restaurant",
        "tourism": null,
        "beds": null,
        "name": "Mang Inasal",
        "opening_hours": null,
        "shop": null,
        "rooms": null
      }
    },
    {
      "type": "Feature",
      "geometry": {
        "type": "Point",
        "coordinates": [
          121.006062,
          14.5583268
        ]
      },
      "properties": {
        "osm_id": 10603830054,
        "osm_type": "nodes",
        "amenity": "fast_food",
        "tourism": null,
        "beds": null,
        "name": "Belgian Waffle",
        "opening_hours": null,
        "shop": null,
        "rooms": null
      }
    },
    {
      "type": "Feature",
      "geometry": {
        "type": "Point",
        "coordinates": [
          121.0238059,
          14.5670035
        ]
      },
      "properties": {
        "osm_id": 255052689,
        "osm_type": "nodes",
        "amenity": "pub",
        "tourism": null,
        "beds": null,
        "name": "J&w Lounge",
        "opening_hours": null,
        "shop": null,
        "rooms": null
      }
    },
    {
      "type": "Feature",
      "geometry": {
        "type": "Point",
        "coordinates": [
          121.025419,
          14.5719733
        ]
      },
      "properties": {
        "osm_id": 5882150808,
        "osm_type": "nodes",
        "amenity": "bar",
        "tourism": null,
        "beds": null,
        "name": "1018",
        "opening_hours": null,
        "shop": null,
        "rooms": null
      }
    },
    {
      "type": "Feature",
      "geometry": {
        "type": "Point",
        "coordinates": [
          121.03387,
          14.5681191
        ]
      },
      "properties": {
        "osm_id": 8629628644,
        "osm_type": "nodes",
        "amenity": "fast_food",
        "tourism": null,
        "beds": null,
        "name": null,
        "opening_hours": null,
        "shop": null,
        "rooms": null
      }
    },
    {
      "type": "Feature",
      "geometry": {
        "type": "Point",
        "coordinates": [
          121.0449698,
          14.5582116
        ]
      },
      "properties": {
        "osm_id": 255050244,
        "osm_type": "nodes",
        "amenity": "fast_food",
        "tourism": null,
        "beds": null,
        "name": "Chooks to Go",
        "opening_hours": null,
        "shop": null,
        "rooms": null
      }
    },
    {
      "type": "Feature",
      "geometry": {
        "type": "Point",
        "coordinates": [
          121.0290172,
          14.5637638
        ]
      },
      "properties": {
        "osm_id": 255070485,
        "osm_type": "nodes",
        "amenity": "restaurant",
        "tourism": null,
        "beds": null,
        "name": "Next Door",
        "opening_hours": null,
        "shop": null,
        "rooms": null
      }
    },
    {
      "type": "Feature",
      "geometry": {
        "type": "Point",
        "coordinates": [
          121.0287327,
          14.5625411
        ]
      },
      "properties": {
        "osm_id": 1192297878,
        "osm_type": "nodes",
        "amenity": "restaurant",
        "tourism": null,
        "beds": null,
        "name": "Yoohoo",
        "opening_hours": null,
        "shop": null,
        "rooms": null
      }
    },
    {
      "type": "Feature",
      "geometry": {
        "type": "Point",
        "coordinates": [
          121.0161826,
          14.5563295
        ]
      },
      "properties": {
        "osm_id": 12968980402,
        "osm_type": "nodes",
        "amenity": "restaurant",
        "tourism": null,
        "beds": null,
        "name": "Tandem",
        "opening_hours": null,
        "shop": null,
        "rooms": null
      }
    },
    {
      "type": "Feature",
      "geometry": {
        "type": "Point",
        "coordinates": [
          121.0275342,
          14.5510288
        ]
      },
      "properties": {
        "osm_id": 13025998107,
        "osm_type": "nodes",
        "amenity": "restaurant",
        "tourism": null,
        "beds": null,
        "name": "Genki Sushi",
        "opening_hours": null,
        "shop": null,
        "rooms": null
      }
    },
    {
      "type": "Feature",
      "geometry": {
        "type": "Point",
        "coordinates": [
          121.0190253,
          14.5555011
        ]
      },
      "properties": {
        "osm_id": 10603835353,
        "osm_type": "nodes",
        "amenity": "cafe",
        "tourism": null,
        "beds": null,
        "name": "Brunch Bureau",
        "opening_hours": "Mo-Su 07:00-24:00",
        "shop": null,
        "rooms": null
      }
    },
    {
      "type": "Feature",
      "geometry": {
        "type": "Point",
        "coordinates": [
          121.032593,
          14.562162
        ]
      },
      "properties": {
        "osm_id": 1841383763,
        "osm_type": "nodes",
        "amenity": "restaurant",
        "tourism": null,
        "beds": null,
        "name": "Grilla",
        "opening_hours": null,
        "shop": null,
        "rooms": null
      }
    },
    {
      "type": "Feature",
      "geometry": {
        "type": "Point",
        "coordinates": [
          121.0254742,
          14.560611
        ]
      },
      "properties": {
        "osm_id": 422442069,
        "osm_type": "nodes",
        "amenity": "cafe",
        "tourism": null,
        "beds": null,
        "name": "Figaro",
        "opening_hours": null,
        "shop": null,
        "rooms": null
      }
    },
    {
      "type": "Feature",
      "geometry": {
        "type": "Point",
        "coordinates": [
          121.0251318,
          14.5605211
        ]
      },
      "properties": {
        "osm_id": 3266635262,
        "osm_type": "nodes",
        "amenity": "restaurant",
        "tourism": null,
        "beds": null,
        "name": "tai koo hk roast",
        "opening_hours": "Mo-Fr 11:00-15:00, 18:00-23:00; Sa 18:00-23:00; Su 18:00-22:00",
        "shop": null,
        "rooms": null
      }
    },
    {
      "type": "Feature",
      "geometry": {
        "type": "Point",
        "coordinates": [
          121.0210969,
          14.5631558
        ]
      },
      "properties": {
        "osm_id": 3306913170,
        "osm_type": "nodes",
        "amenity": "restaurant",
        "tourism": null,
        "beds": null,
        "name": "Namaya",
        "opening_hours": null,
        "shop": null,
        "rooms": null
      }
    },
    {
      "type": "Feature",
      "geometry": {
        "type": "Point",
        "coordinates": [
          121.0203531,
          14.559165
        ]
      },
      "properties": {
        "osm_id": 1764306392,
        "osm_type": "nodes",
        "amenity": "restaurant",
        "tourism": null,
        "beds": null,
        "name": "Sultan",
        "opening_hours": null,
        "shop": null,
        "rooms": null
      }
    },
    {
      "type": "Feature",
      "geometry": {
        "type": "Point",
        "coordinates": [
          121.0298214,
          14.5651836
        ]
      },
      "properties": {
        "osm_id": 1141642560,
        "osm_type": "nodes",
        "amenity": "fast_food",
        "tourism": null,
        "beds": null,
        "name": "Wendy's",
        "opening_hours": null,
        "shop": null,
        "rooms": null
      }
    },
    {
      "type": "Feature",
      "geometry": {
        "type": "Point",
        "coordinates": [
          121.0307691,
          14.5627303
        ]
      },
      "properties": {
        "osm_id": 13020712746,
        "osm_type": "nodes",
        "amenity": "restaurant",
        "tourism": null,
        "beds": null,
        "name": "Corner Tree Cafe",
        "opening_hours": "Mo 11:00-21:00, Tu-Su 11:00-22:00",
        "shop": null,
        "rooms": null
      }
    },
    {
      "type": "Feature",
      "geometry": {
        "type": "Point",
        "coordinates": [
          121.0217158,
          14.5560907
        ]
      },
      "properties": {
        "osm_id": 4304858792,
        "osm_type": "nodes",
        "amenity": "fast_food",
        "tourism": null,
        "beds": null,
        "name": "Greenwich",
        "opening_hours": null,
        "shop": null,
        "rooms": null
      }
    },
    {
      "type": "Feature",
      "geometry": {
        "type": "Point",
        "coordinates": [
          121.0221378,
          14.554886
        ]
      },
      "properties": {
        "osm_id": 4507869188,
        "osm_type": "nodes",
        "amenity": "restaurant",
        "tourism": null,
        "beds": null,
        "name": "Sizzlin' Steak",
        "opening_hours": null,
        "shop": null,
        "rooms": null
      }
    },
    {
      "type": "Feature",
      "geometry": {
        "type": "Point",
        "coordinates": [
          121.0225684,
          14.5548683
        ]
      },
      "properties": {
        "osm_id": 4507869293,
        "osm_type": "nodes",
        "amenity": "fast_food",
        "tourism": null,
        "beds": null,
        "name": "The Sandwich Guy",
        "opening_hours": null,
        "shop": null,
        "rooms": null
      }
    },
    {
      "type": "Feature",
      "geometry": {
        "type": "Point",
        "coordinates": [
          121.0190152,
          14.5615311
        ]
      },
      "properties": {
        "osm_id": 12452989517,
        "osm_type": "nodes",
        "amenity": "cafe",
        "tourism": null,
        "beds": null,
        "name": "The Strand Cafe",
        "opening_hours": "Mo-Su,PH 06:00-22:00",
        "shop": null,
        "rooms": null
      }
    },
    {
      "type": "Feature",
      "geometry": {
        "type": "Point",
        "coordinates": [
          121.0099793,
          14.5562925
        ]
      },
      "properties": {
        "osm_id": 441249612,
        "osm_type": "nodes",
        "amenity": "restaurant",
        "tourism": null,
        "beds": null,
        "name": "Lucky Rainbow",
        "opening_hours": null,
        "shop": null,
        "rooms": null
      }
    },
    {
      "type": "Feature",
      "geometry": {
        "type": "Point",
        "coordinates": [
          121.0301646,
          14.5499522
        ]
      },
      "properties": {
        "osm_id": 2532994579,
        "osm_type": "nodes",
        "amenity": "cafe",
        "tourism": null,
        "beds": null,
        "name": "Dunkin' Donuts",
        "opening_hours": null,
        "shop": null,
        "rooms": null
      }
    },
    {
      "type": "Feature",
      "geometry": {
        "type": "Point",
        "coordinates": [
          121.0282744,
          14.5617341
        ]
      },
      "properties": {
        "osm_id": 4428454693,
        "osm_type": "nodes",
        "amenity": "restaurant",
        "tourism": null,
        "beds": null,
        "name": "K-Bob Korean BBQ",
        "opening_hours": null,
        "shop": null,
        "rooms": null
      }
    },
    {
      "type": "Feature",
      "geometry": {
        "type": "Point",
        "coordinates": [
          121.0220895,
          14.5582036
        ]
      },
      "properties": {
        "osm_id": 1000832606,
        "osm_type": "nodes",
        "amenity": "restaurant",
        "tourism": null,
        "beds": null,
        "name": "Shakey's",
        "opening_hours": null,
        "shop": null,
        "rooms": null
      }
    },
    {
      "type": "Feature",
      "geometry": {
        "type": "Point",
        "coordinates": [
          121.0208487,
          14.5586659
        ]
      },
      "properties": {
        "osm_id": 3253244580,
        "osm_type": "nodes",
        "amenity": "cafe",
        "tourism": null,
        "beds": null,
        "name": "Chatime",
        "opening_hours": null,
        "shop": null,
        "rooms": null
      }
    },
    {
      "type": "Feature",
      "geometry": {
        "type": "Point",
        "coordinates": [
          121.024457,
          14.5528047
        ]
      },
      "properties": {
        "osm_id": 1290578726,
        "osm_type": "nodes",
        "amenity": "cafe",
        "tourism": null,
        "beds": null,
        "name": "Tim Hortons",
        "opening_hours": null,
        "shop": null,
        "rooms": null
      }
    },
    {
      "type": "Feature",
      "geometry": {
        "type": "Point",
        "coordinates": [
          121.0091732,
          14.5671312
        ]
      },
      "properties": {
        "osm_id": 3431107822,
        "osm_type": "nodes",
        "amenity": "fast_food",
        "tourism": null,
        "beds": null,
        "name": "Goto Monster",
        "opening_hours": null,
        "shop": null,
        "rooms": null
      }
    },
    {
      "type": "Feature",
      "geometry": {
        "type": "Point",
        "coordinates": [
          121.0172153,
          14.5581328
        ]
      },
      "properties": {
        "osm_id": 1317139357,
        "osm_type": "nodes",
        "amenity": "fast_food",
        "tourism": null,
        "beds": null,
        "name": "Mang Inasal",
        "opening_hours": null,
        "shop": null,
        "rooms": null
      }
    },
    {
      "type": "Feature",
      "geometry": {
        "type": "Point",
        "coordinates": [
          121.0329857,
          14.5587062
        ]
      },
      "properties": {
        "osm_id": 953667271,
        "osm_type": "nodes",
        "amenity": "restaurant",
        "tourism": null,
        "beds": null,
        "name": "Whistlestop",
        "opening_hours": null,
        "shop": null,
        "rooms": null
      }
    },
    {
      "type": "Feature",
      "geometry": {
        "type": "Point",
        "coordinates": [
          121.0258682,
          14.556327
        ]
      },
      "properties": {
        "osm_id": 678987853,
        "osm_type": "nodes",
        "amenity": "restaurant",
        "tourism": null,
        "beds": null,
        "name": "Old Swiss Inn",
        "opening_hours": null,
        "shop": null,
        "rooms": null
      }
    },
    {
      "type": "Feature",
      "geometry": {
        "type": "Point",
        "coordinates": [
          121.0266674,
          14.5494474
        ]
      },
      "properties": {
        "osm_id": 12311594594,
        "osm_type": "nodes",
        "amenity": "cafe",
        "tourism": null,
        "beds": null,
        "name": "Starbucks",
        "opening_hours": null,
        "shop": null,
        "rooms": null
      }
    },
    {
      "type": "Feature",
      "geometry": {
        "type": "Point",
        "coordinates": [
          121.0258632,
          14.5500302
        ]
      },
      "properties": {
        "osm_id": 2384533209,
        "osm_type": "nodes",
        "amenity": "cafe",
        "tourism": null,
        "beds": null,
        "name": "J.Co Donuts & Coffee",
        "opening_hours": null,
        "shop": null,
        "rooms": null
      }
    },
    {
      "type": "Feature",
      "geometry": {
        "type": "Point",
        "coordinates": [
          121.0264027,
          14.5504437
        ]
      },
      "properties": {
        "osm_id": 2389007515,
        "osm_type": "nodes",
        "amenity": "cafe",
        "tourism": null,
        "beds": null,
        "name": "Happy Lemon",
        "opening_hours": null,
        "shop": null,
        "rooms": null
      }
    },
    {
      "type": "Feature",
      "geometry": {
        "type": "Point",
        "coordinates": [
          121.026563,
          14.5505843
        ]
      },
      "properties": {
        "osm_id": 2785958709,
        "osm_type": "nodes",
        "amenity": "cafe",
        "tourism": null,
        "beds": null,
        "name": "MochiCream Caf\u00e9",
        "opening_hours": null,
        "shop": null,
        "rooms": null
      }
    },
    {
      "type": "Feature",
      "geometry": {
        "type": "Point",
        "coordinates": [
          121.0259262,
          14.5494016
        ]
      },
      "properties": {
        "osm_id": 2785958704,
        "osm_type": "nodes",
        "amenity": "restaurant",
        "tourism": null,
        "beds": null,
        "name": "Shakey's",
        "opening_hours": null,
        "shop": null,
        "rooms": null
      }
    },
    {
      "type": "Feature",
      "geometry": {
        "type": "Point",
        "coordinates": [
          121.0268814,
          14.54763
        ]
      },
      "properties": {
        "osm_id": 1750312014,
        "osm_type": "nodes",
        "amenity": "fast_food",
        "tourism": null,
        "beds": null,
        "name": "Frutti Froyo",
        "opening_hours": null,
        "shop": null,
        "rooms": null
      }
    },
    {
      "type": "Feature",
      "geometry": {
        "type": "Point",
        "coordinates": [
          121.0275535,
          14.5510225
        ]
      },
      "properties": {
        "osm_id": 13025998108,
        "osm_type": "nodes",
        "amenity": "restaurant",
        "tourism": null,
        "beds": null,
        "name": "Musashi Tei",
        "opening_hours": null,
        "shop": null,
        "rooms": null
      }
    },
    {
      "type": "Feature",
      "geometry": {
        "type": "Point",
        "coordinates": [
          121.0139211,
          14.5488611
        ]
      },
      "properties": {
        "osm_id": 4476205706,
        "osm_type": "nodes",
        "amenity": "cafe",
        "tourism": null,
        "beds": null,
        "name": "Coffee Project",
        "opening_hours": null,
        "shop": null,
        "rooms": null
      }
    },
    {
      "type": "Feature",
      "geometry": {
        "type": "Point",
        "coordinates": [
          121.0130987,
          14.5512636
        ]
      },
      "properties": {
        "osm_id": 2589534127,
        "osm_type": "nodes",
        "amenity": "fast_food",
        "tourism": null,
        "beds": null,
        "name": "Jollibee",
        "opening_hours": null,
        "shop": null,
        "rooms": null
      }
    },
    {
      "type": "Feature",
      "geometry": {
        "type": "Point",
        "coordinates": [
          121.0130768,
          14.5511439
        ]
      },
      "properties": {
        "osm_id": 2589534931,
        "osm_type": "nodes",
        "amenity": "fast_food",
        "tourism": null,
        "beds": null,
        "name": "Chowking",
        "opening_hours": null,
        "shop": null,
        "rooms": null
      }
    },
    {
      "type": "Feature",
      "geometry": {
        "type": "Point",
        "coordinates": [
          121.014132,
          14.5512808
        ]
      },
      "properties": {
        "osm_id": 426934472,
        "osm_type": "nodes",
        "amenity": "restaurant",
        "tourism": null,
        "beds": null,
        "name": "Amici",
        "opening_hours": null,
        "shop": null,
        "rooms": null
      }
    },
    {
      "type": "Feature",
      "geometry": {
        "type": "Point",
        "coordinates": [
          121.0155636,
          14.5521894
        ]
      },
      "properties": {
        "osm_id": 9331297756,
        "osm_type": "nodes",
        "amenity": "bar",
        "tourism": null,
        "beds": null,
        "name": "Seltsam Rooftop Bar",
        "opening_hours": null,
        "shop": null,
        "rooms": null
      }
    },
    {
      "type": "Feature",
      "geometry": {
        "type": "Point",
        "coordinates": [
          121.0135379,
          14.5524546
        ]
      },
      "properties": {
        "osm_id": 2832466485,
        "osm_type": "nodes",
        "amenity": "restaurant",
        "tourism": null,
        "beds": null,
        "name": "Old Beijing Restaurant",
        "opening_hours": null,
        "shop": null,
        "rooms": null
      }
    },
    {
      "type": "Feature",
      "geometry": {
        "type": "Point",
        "coordinates": [
          121.0139058,
          14.5523362
        ]
      },
      "properties": {
        "osm_id": 426699774,
        "osm_type": "nodes",
        "amenity": "restaurant",
        "tourism": null,
        "beds": null,
        "name": "Sinangag Express",
        "opening_hours": null,
        "shop": null,
        "rooms": null
      }
    },
    {
      "type": "Feature",
      "geometry": {
        "type": "Point",
        "coordinates": [
          121.0147543,
          14.5525976
        ]
      },
      "properties": {
        "osm_id": 255064132,
        "osm_type": "nodes",
        "amenity": "restaurant",
        "tourism": null,
        "beds": null,
        "name": "Unakichi",
        "opening_hours": null,
        "shop": null,
        "rooms": null
      }
    },
    {
      "type": "Feature",
      "geometry": {
        "type": "Point",
        "coordinates": [
          121.0163489,
          14.5519151
        ]
      },
      "properties": {
        "osm_id": 6615700274,
        "osm_type": "nodes",
        "amenity": "restaurant",
        "tourism": null,
        "beds": null,
        "name": "Oneway Restaurant",
        "opening_hours": null,
        "shop": null,
        "rooms": null
      }
    },
    {
      "type": "Feature",
      "geometry": {
        "type": "Point",
        "coordinates": [
          121.0139075,
          14.552587
        ]
      },
      "properties": {
        "osm_id": 7077953457,
        "osm_type": "nodes",
        "amenity": "restaurant",
        "tourism": null,
        "beds": null,
        "name": "Yokohama Meat Kitchen",
        "opening_hours": null,
        "shop": null,
        "rooms": null
      }
    },
    {
      "type": "Feature",
      "geometry": {
        "type": "Point",
        "coordinates": [
          121.0146763,
          14.5516
        ]
      },
      "properties": {
        "osm_id": 12205928801,
        "osm_type": "nodes",
        "amenity": "restaurant",
        "tourism": null,
        "beds": null,
        "name": "Kenshin",
        "opening_hours": null,
        "shop": null,
        "rooms": null
      }
    },
    {
      "type": "Feature",
      "geometry": {
        "type": "Point",
        "coordinates": [
          121.0134925,
          14.5519386
        ]
      },
      "properties": {
        "osm_id": 425702265,
        "osm_type": "nodes",
        "amenity": "fast_food",
        "tourism": null,
        "beds": null,
        "name": "Andoks",
        "opening_hours": null,
        "shop": null,
        "rooms": null
      }
    },
    {
      "type": "Feature",
      "geometry": {
        "type": "Point",
        "coordinates": [
          121.0133413,
          14.5501814
        ]
      },
      "properties": {
        "osm_id": 5267494232,
        "osm_type": "nodes",
        "amenity": "fast_food",
        "tourism": null,
        "beds": null,
        "name": "Yellow Cab Pizza",
        "opening_hours": null,
        "shop": null,
        "rooms": null
      }
    },
    {
      "type": "Feature",
      "geometry": {
        "type": "Point",
        "coordinates": [
          121.0138615,
          14.5528499
        ]
      },
      "properties": {
        "osm_id": 12147274402,
        "osm_type": "nodes",
        "amenity": "cafe",
        "tourism": null,
        "beds": null,
        "name": "Pickup Coffee",
        "opening_hours": null,
        "shop": null,
        "rooms": null
      }
    },
    {
      "type": "Feature",
      "geometry": {
        "type": "Point",
        "coordinates": [
          121.0138417,
          14.5516534
        ]
      },
      "properties": {
        "osm_id": 11747395869,
        "osm_type": "nodes",
        "amenity": "cafe",
        "tourism": null,
        "beds": null,
        "name": "Brioso Coffee",
        "opening_hours": "Mo-Su 08:30-00:30",
        "shop": null,
        "rooms": null
      }
    },
    {
      "type": "Feature",
      "geometry": {
        "type": "Point",
        "coordinates": [
          121.0133296,
          14.5464909
        ]
      },
      "properties": {
        "osm_id": 10068028061,
        "osm_type": "nodes",
        "amenity": "restaurant",
        "tourism": null,
        "beds": null,
        "name": "Indian Masala Curry House",
        "opening_hours": "Mo-Su 10:30-22:30",
        "shop": null,
        "rooms": null
      }
    },
    {
      "type": "Feature",
      "geometry": {
        "type": "Point",
        "coordinates": [
          121.009726,
          14.5486527
        ]
      },
      "properties": {
        "osm_id": 11578152069,
        "osm_type": "nodes",
        "amenity": "fast_food",
        "tourism": null,
        "beds": null,
        "name": "Manilas Creamiest Lasagne",
        "opening_hours": null,
        "shop": null,
        "rooms": null
      }
    },
    {
      "type": "Feature",
      "geometry": {
        "type": "Point",
        "coordinates": [
          121.0139412,
          14.5529174
        ]
      },
      "properties": {
        "osm_id": 429843715,
        "osm_type": "nodes",
        "amenity": "restaurant",
        "tourism": null,
        "beds": null,
        "name": "Shakey's",
        "opening_hours": null,
        "shop": null,
        "rooms": null
      }
    },
    {
      "type": "Feature",
      "geometry": {
        "type": "Point",
        "coordinates": [
          121.0156042,
          14.5515933
        ]
      },
      "properties": {
        "osm_id": 11738038670,
        "osm_type": "nodes",
        "amenity": "restaurant",
        "tourism": null,
        "beds": null,
        "name": "Swagat",
        "opening_hours": "Mo-Su 11:00-23:00",
        "shop": null,
        "rooms": null
      }
    },
    {
      "type": "Feature",
      "geometry": {
        "type": "Point",
        "coordinates": [
          121.0145723,
          14.5421832
        ]
      },
      "properties": {
        "osm_id": 6222412087,
        "osm_type": "nodes",
        "amenity": "fast_food",
        "tourism": null,
        "beds": null,
        "name": "Burger Garage",
        "opening_hours": null,
        "shop": null,
        "rooms": null
      }
    },
    {
      "type": "Feature",
      "geometry": {
        "type": "Point",
        "coordinates": [
          121.0189166,
          14.5410324
        ]
      },
      "properties": {
        "osm_id": 1285074509,
        "osm_type": "nodes",
        "amenity": "fast_food",
        "tourism": null,
        "beds": null,
        "name": "Gotobox",
        "opening_hours": "24/7",
        "shop": null,
        "rooms": null
      }
    },
    {
      "type": "Feature",
      "geometry": {
        "type": "Point",
        "coordinates": [
          121.0188549,
          14.5408196
        ]
      },
      "properties": {
        "osm_id": 1298567253,
        "osm_type": "nodes",
        "amenity": "fast_food",
        "tourism": null,
        "beds": null,
        "name": "Chowking",
        "opening_hours": "24/7",
        "shop": null,
        "rooms": null
      }
    },
    {
      "type": "Feature",
      "geometry": {
        "type": "Point",
        "coordinates": [
          121.0187833,
          14.5419891
        ]
      },
      "properties": {
        "osm_id": 5133317922,
        "osm_type": "nodes",
        "amenity": "fast_food",
        "tourism": null,
        "beds": null,
        "name": "McDonald's",
        "opening_hours": "24/7",
        "shop": null,
        "rooms": null
      }
    },
    {
      "type": "Feature",
      "geometry": {
        "type": "Point",
        "coordinates": [
          121.0143711,
          14.5423783
        ]
      },
      "properties": {
        "osm_id": 5679325701,
        "osm_type": "nodes",
        "amenity": "restaurant",
        "tourism": null,
        "beds": null,
        "name": "Rakhi Ka Dhabha",
        "opening_hours": null,
        "shop": null,
        "rooms": null
      }
    },
    {
      "type": "Feature",
      "geometry": {
        "type": "Point",
        "coordinates": [
          121.0119834,
          14.5403662
        ]
      },
      "properties": {
        "osm_id": 928048487,
        "osm_type": "nodes",
        "amenity": "fast_food",
        "tourism": null,
        "beds": null,
        "name": "Andok's",
        "opening_hours": null,
        "shop": null,
        "rooms": null
      }
    },
    {
      "type": "Feature",
      "geometry": {
        "type": "Point",
        "coordinates": [
          121.0190702,
          14.5407738
        ]
      },
      "properties": {
        "osm_id": 10274553813,
        "osm_type": "nodes",
        "amenity": "fast_food",
        "tourism": null,
        "beds": null,
        "name": "S&R New York Style Pizza",
        "opening_hours": null,
        "shop": null,
        "rooms": null
      }
    },
    {
      "type": "Feature",
      "geometry": {
        "type": "Point",
        "coordinates": [
          121.0400258,
          14.5588877
        ]
      },
      "properties": {
        "osm_id": 11893339294,
        "osm_type": "nodes",
        "amenity": "fast_food",
        "tourism": null,
        "beds": null,
        "name": "Dunkin'",
        "opening_hours": null,
        "shop": null,
        "rooms": null
      }
    },
    {
      "type": "Feature",
      "geometry": {
        "type": "Point",
        "coordinates": [
          121.0142363,
          14.5537292
        ]
      },
      "properties": {
        "osm_id": 2799574780,
        "osm_type": "nodes",
        "amenity": "restaurant",
        "tourism": null,
        "beds": null,
        "name": "Hana",
        "opening_hours": null,
        "shop": null,
        "rooms": null
      }
    },
    {
      "type": "Feature",
      "geometry": {
        "type": "Point",
        "coordinates": [
          121.0145152,
          14.5536877
        ]
      },
      "properties": {
        "osm_id": 2799564578,
        "osm_type": "nodes",
        "amenity": "restaurant",
        "tourism": null,
        "beds": null,
        "name": "Oishinbo",
        "opening_hours": null,
        "shop": null,
        "rooms": null
      }
    },
    {
      "type": "Feature",
      "geometry": {
        "type": "Point",
        "coordinates": [
          121.0140003,
          14.5535838
        ]
      },
      "properties": {
        "osm_id": 429820730,
        "osm_type": "nodes",
        "amenity": "restaurant",
        "tourism": null,
        "beds": null,
        "name": "Kikufuji",
        "opening_hours": null,
        "shop": null,
        "rooms": null
      }
    },
    {
      "type": "Feature",
      "geometry": {
        "type": "Point",
        "coordinates": [
          121.0158678,
          14.5534372
        ]
      },
      "properties": {
        "osm_id": 7140449586,
        "osm_type": "nodes",
        "amenity": "bar",
        "tourism": null,
        "beds": null,
        "name": "Blind Pig",
        "opening_hours": null,
        "shop": null,
        "rooms": null
      }
    },
    {
      "type": "Feature",
      "geometry": {
        "type": "Point",
        "coordinates": [
          121.0143285,
          14.5534903
        ]
      },
      "properties": {
        "osm_id": 429820728,
        "osm_type": "nodes",
        "amenity": "restaurant",
        "tourism": null,
        "beds": null,
        "name": "Hoka Hoka Bento Ramen",
        "opening_hours": null,
        "shop": null,
        "rooms": null
      }
    },
    {
      "type": "Feature",
      "geometry": {
        "type": "Point",
        "coordinates": [
          121.0136263,
          14.5536928
        ]
      },
      "properties": {
        "osm_id": 4281399190,
        "osm_type": "nodes",
        "amenity": "restaurant",
        "tourism": null,
        "beds": null,
        "name": "Hatsu Hana Tei",
        "opening_hours": null,
        "shop": null,
        "rooms": null
      }
    },
    {
      "type": "Feature",
      "geometry": {
        "type": "Point",
        "coordinates": [
          121.0158611,
          14.553493
        ]
      },
      "properties": {
        "osm_id": 2591347222,
        "osm_type": "nodes",
        "amenity": "restaurant",
        "tourism": null,
        "beds": null,
        "name": "Stockton Place",
        "opening_hours": null,
        "shop": null,
        "rooms": null
      }
    },
    {
      "type": "Feature",
      "geometry": {
        "type": "Point",
        "coordinates": [
          121.0137601,
          14.5554955
        ]
      },
      "properties": {
        "osm_id": 10975922973,
        "osm_type": "nodes",
        "amenity": "restaurant",
        "tourism": null,
        "beds": null,
        "name": "Wagyu Manila",
        "opening_hours": null,
        "shop": null,
        "rooms": null
      }
    },
    {
      "type": "Feature",
      "geometry": {
        "type": "Point",
        "coordinates": [
          121.0139411,
          14.5531538
        ]
      },
      "properties": {
        "osm_id": 1599531263,
        "osm_type": "nodes",
        "amenity": "bar",
        "tourism": null,
        "beds": null,
        "name": "Cartier Music Lounge",
        "opening_hours": null,
        "shop": null,
        "rooms": null
      }
    },
    {
      "type": "Feature",
      "geometry": {
        "type": "Point",
        "coordinates": [
          121.0214354,
          14.5520834
        ]
      },
      "properties": {
        "osm_id": 1268358505,
        "osm_type": "nodes",
        "amenity": "cafe",
        "tourism": null,
        "beds": null,
        "name": "Caf\u00e9 Breton",
        "opening_hours": null,
        "shop": null,
        "rooms": null
      }
    },
    {
      "type": "Feature",
      "geometry": {
        "type": "Point",
        "coordinates": [
          121.0284746,
          14.5625456
        ]
      },
      "properties": {
        "osm_id": 3859937281,
        "osm_type": "nodes",
        "amenity": "fast_food",
        "tourism": null,
        "beds": null,
        "name": "Kenny Rogers",
        "opening_hours": null,
        "shop": null,
        "rooms": null
      }
    },
    {
      "type": "Feature",
      "geometry": {
        "type": "Point",
        "coordinates": [
          121.0167492,
          14.5510779
        ]
      },
      "properties": {
        "osm_id": 7016175494,
        "osm_type": "nodes",
        "amenity": "restaurant",
        "tourism": null,
        "beds": null,
        "name": "Azami",
        "opening_hours": null,
        "shop": null,
        "rooms": null
      }
    },
    {
      "type": "Feature",
      "geometry": {
        "type": "Point",
        "coordinates": [
          121.0179198,
          14.5509045
        ]
      },
      "properties": {
        "osm_id": 8498860061,
        "osm_type": "nodes",
        "amenity": "bar",
        "tourism": null,
        "beds": null,
        "name": "Cragen's",
        "opening_hours": null,
        "shop": null,
        "rooms": null
      }
    },
    {
      "type": "Feature",
      "geometry": {
        "type": "Point",
        "coordinates": [
          121.0214536,
          14.5520016
        ]
      },
      "properties": {
        "osm_id": 2785958712,
        "osm_type": "nodes",
        "amenity": "cafe",
        "tourism": null,
        "beds": null,
        "name": "Single Origin",
        "opening_hours": null,
        "shop": null,
        "rooms": null
      }
    },
    {
      "type": "Feature",
      "geometry": {
        "type": "Point",
        "coordinates": [
          121.0159515,
          14.5526376
        ]
      },
      "properties": {
        "osm_id": 3716173614,
        "osm_type": "nodes",
        "amenity": "restaurant",
        "tourism": null,
        "beds": null,
        "name": "Bondi and Bourke",
        "opening_hours": null,
        "shop": null,
        "rooms": null
      }
    },
    {
      "type": "Feature",
      "geometry": {
        "type": "Point",
        "coordinates": [
          121.0175818,
          14.5533332
        ]
      },
      "properties": {
        "osm_id": 2662909109,
        "osm_type": "nodes",
        "amenity": "restaurant",
        "tourism": null,
        "beds": null,
        "name": "Bizu Kitchen Studio",
        "opening_hours": null,
        "shop": null,
        "rooms": null
      }
    },
    {
      "type": "Feature",
      "geometry": {
        "type": "Point",
        "coordinates": [
          121.0187067,
          14.5511344
        ]
      },
      "properties": {
        "osm_id": 7029669570,
        "osm_type": "nodes",
        "amenity": "cafe",
        "tourism": null,
        "beds": null,
        "name": "+EV Milk Tea House",
        "opening_hours": null,
        "shop": null,
        "rooms": null
      }
    },
    {
      "type": "Feature",
      "geometry": {
        "type": "Point",
        "coordinates": [
          121.0200773,
          14.5525696
        ]
      },
      "properties": {
        "osm_id": 10796586970,
        "osm_type": "nodes",
        "amenity": "restaurant",
        "tourism": null,
        "beds": null,
        "name": "Gorae hotdog",
        "opening_hours": null,
        "shop": null,
        "rooms": null
      }
    },
    {
      "type": "Feature",
      "geometry": {
        "type": "Point",
        "coordinates": [
          121.0206705,
          14.5525028
        ]
      },
      "properties": {
        "osm_id": 2423890122,
        "osm_type": "nodes",
        "amenity": "cafe",
        "tourism": null,
        "beds": null,
        "name": "The Coffee Bean & Tea Leaf",
        "opening_hours": null,
        "shop": null,
        "rooms": null
      }
    },
    {
      "type": "Feature",
      "geometry": {
        "type": "Point",
        "coordinates": [
          121.0206048,
          14.5520592
        ]
      },
      "properties": {
        "osm_id": 3336455994,
        "osm_type": "nodes",
        "amenity": "restaurant",
        "tourism": null,
        "beds": null,
        "name": "Bizu",
        "opening_hours": null,
        "shop": null,
        "rooms": null
      }
    },
    {
      "type": "Feature",
      "geometry": {
        "type": "Point",
        "coordinates": [
          121.0204503,
          14.5520741
        ]
      },
      "properties": {
        "osm_id": 3336455995,
        "osm_type": "nodes",
        "amenity": "restaurant",
        "tourism": null,
        "beds": null,
        "name": "The Wholesome Table",
        "opening_hours": null,
        "shop": null,
        "rooms": null
      }
    },
    {
      "type": "Feature",
      "geometry": {
        "type": "Point",
        "coordinates": [
          121.0216976,
          14.5528841
        ]
      },
      "properties": {
        "osm_id": 2384533204,
        "osm_type": "nodes",
        "amenity": "restaurant",
        "tourism": null,
        "beds": null,
        "name": "Sentro 1771",
        "opening_hours": null,
        "shop": null,
        "rooms": null
      }
    },
    {
      "type": "Feature",
      "geometry": {
        "type": "Point",
        "coordinates": [
          121.0215382,
          14.5528857
        ]
      },
      "properties": {
        "osm_id": 2675322780,
        "osm_type": "nodes",
        "amenity": "fast_food",
        "tourism": null,
        "beds": null,
        "name": "Pinkberry",
        "opening_hours": null,
        "shop": null,
        "rooms": null
      }
    },
    {
      "type": "Feature",
      "geometry": {
        "type": "Point",
        "coordinates": [
          121.0220568,
          14.5521818
        ]
      },
      "properties": {
        "osm_id": 2718541481,
        "osm_type": "nodes",
        "amenity": "restaurant",
        "tourism": null,
        "beds": null,
        "name": "Via Mare Oyster Bar",
        "opening_hours": null,
        "shop": null,
        "rooms": null
      }
    },
    {
      "type": "Feature",
      "geometry": {
        "type": "Point",
        "coordinates": [
          121.0220587,
          14.5517196
        ]
      },
      "properties": {
        "osm_id": 2007030514,
        "osm_type": "nodes",
        "amenity": "restaurant",
        "tourism": null,
        "beds": null,
        "name": "National Sports Grill",
        "opening_hours": null,
        "shop": null,
        "rooms": null
      }
    },
    {
      "type": "Feature",
      "geometry": {
        "type": "Point",
        "coordinates": [
          121.0249451,
          14.5552708
        ]
      },
      "properties": {
        "osm_id": 3813638491,
        "osm_type": "nodes",
        "amenity": "bar",
        "tourism": null,
        "beds": null,
        "name": "Salon de Ning",
        "opening_hours": "Tu-Sa 19:00-02:00",
        "shop": null,
        "rooms": null
      }
    },
    {
      "type": "Feature",
      "geometry": {
        "type": "Point",
        "coordinates": [
          121.0233873,
          14.555762
        ]
      },
      "properties": {
        "osm_id": 1000831187,
        "osm_type": "nodes",
        "amenity": "cafe",
        "tourism": null,
        "beds": null,
        "name": "Starbucks",
        "opening_hours": null,
        "shop": null,
        "rooms": null
      }
    },
    {
      "type": "Feature",
      "geometry": {
        "type": "Point",
        "coordinates": [
          121.0229578,
          14.5593823
        ]
      },
      "properties": {
        "osm_id": 4305594106,
        "osm_type": "nodes",
        "amenity": "restaurant",
        "tourism": null,
        "beds": null,
        "name": "Hussain Restaurant",
        "opening_hours": null,
        "shop": null,
        "rooms": null
      }
    },
    {
      "type": "Feature",
      "geometry": {
        "type": "Point",
        "coordinates": [
          121.0238144,
          14.558654
        ]
      },
      "properties": {
        "osm_id": 419725030,
        "osm_type": "nodes",
        "amenity": "fast_food",
        "tourism": null,
        "beds": null,
        "name": "Poochinis",
        "opening_hours": null,
        "shop": null,
        "rooms": null
      }
    },
    {
      "type": "Feature",
      "geometry": {
        "type": "Point",
        "coordinates": [
          121.0230654,
          14.5576293
        ]
      },
      "properties": {
        "osm_id": 255054669,
        "osm_type": "nodes",
        "amenity": "fast_food",
        "tourism": null,
        "beds": null,
        "name": "McDonald's",
        "opening_hours": null,
        "shop": null,
        "rooms": null
      }
    },
    {
      "type": "Feature",
      "geometry": {
        "type": "Point",
        "coordinates": [
          121.023163,
          14.5576536
        ]
      },
      "properties": {
        "osm_id": 3909460067,
        "osm_type": "nodes",
        "amenity": "restaurant",
        "tourism": null,
        "beds": null,
        "name": "Teriyaki Boy",
        "opening_hours": null,
        "shop": null,
        "rooms": null
      }
    },
    {
      "type": "Feature",
      "geometry": {
        "type": "Point",
        "coordinates": [
          121.0201825,
          14.5506826
        ]
      },
      "properties": {
        "osm_id": 1515394703,
        "osm_type": "nodes",
        "amenity": "bar",
        "tourism": null,
        "beds": null,
        "name": "Merk's Place",
        "opening_hours": null,
        "shop": null,
        "rooms": null
      }
    },
    {
      "type": "Feature",
      "geometry": {
        "type": "Point",
        "coordinates": [
          121.0212081,
          14.5505632
        ]
      },
      "properties": {
        "osm_id": 4516504890,
        "osm_type": "nodes",
        "amenity": "restaurant",
        "tourism": null,
        "beds": null,
        "name": "Choi Garden",
        "opening_hours": null,
        "shop": null,
        "rooms": null
      }
    },
    {
      "type": "Feature",
      "geometry": {
        "type": "Point",
        "coordinates": [
          121.0203631,
          14.5527569
        ]
      },
      "properties": {
        "osm_id": 4810884523,
        "osm_type": "nodes",
        "amenity": "restaurant",
        "tourism": null,
        "beds": null,
        "name": "Krazy Garlic (2nd flr)",
        "opening_hours": null,
        "shop": null,
        "rooms": null
      }
    },
    {
      "type": "Feature",
      "geometry": {
        "type": "Point",
        "coordinates": [
          121.021376,
          14.5528312
        ]
      },
      "properties": {
        "osm_id": 2675322775,
        "osm_type": "nodes",
        "amenity": "restaurant",
        "tourism": null,
        "beds": null,
        "name": "Torch",
        "opening_hours": null,
        "shop": null,
        "rooms": null
      }
    },
    {
      "type": "Feature",
      "geometry": {
        "type": "Point",
        "coordinates": [
          121.0212296,
          14.5527526
        ]
      },
      "properties": {
        "osm_id": 2675322788,
        "osm_type": "nodes",
        "amenity": "restaurant",
        "tourism": null,
        "beds": null,
        "name": "Maisen",
        "opening_hours": null,
        "shop": null,
        "rooms": null
      }
    },
    {
      "type": "Feature",
      "geometry": {
        "type": "Point",
        "coordinates": [
          121.0212767,
          14.5533253
        ]
      },
      "properties": {
        "osm_id": 2675322783,
        "osm_type": "nodes",
        "amenity": "restaurant",
        "tourism": null,
        "beds": null,
        "name": "Max's Restaurant",
        "opening_hours": null,
        "shop": null,
        "rooms": null
      }
    },
    {
      "type": "Feature",
      "geometry": {
        "type": "Point",
        "coordinates": [
          121.0208699,
          14.5535284
        ]
      },
      "properties": {
        "osm_id": 5407807308,
        "osm_type": "nodes",
        "amenity": "fast_food",
        "tourism": null,
        "beds": null,
        "name": "Andok's",
        "opening_hours": null,
        "shop": null,
        "rooms": null
      }
    },
    {
      "type": "Feature",
      "geometry": {
        "type": "Point",
        "coordinates": [
          121.0205221,
          14.5535643
        ]
      },
      "properties": {
        "osm_id": 3052245233,
        "osm_type": "nodes",
        "amenity": "cafe",
        "tourism": null,
        "beds": null,
        "name": "Dunkin' Donuts",
        "opening_hours": null,
        "shop": null,
        "rooms": null
      }
    },
    {
      "type": "Feature",
      "geometry": {
        "type": "Point",
        "coordinates": [
          121.0204732,
          14.5535689
        ]
      },
      "properties": {
        "osm_id": 1750310913,
        "osm_type": "nodes",
        "amenity": "fast_food",
        "tourism": null,
        "beds": null,
        "name": "Binalot",
        "opening_hours": null,
        "shop": null,
        "rooms": null
      }
    },
    {
      "type": "Feature",
      "geometry": {
        "type": "Point",
        "coordinates": [
          121.0202353,
          14.5535898
        ]
      },
      "properties": {
        "osm_id": 1750310927,
        "osm_type": "nodes",
        "amenity": "restaurant",
        "tourism": null,
        "beds": null,
        "name": "Yellow Cab",
        "opening_hours": null,
        "shop": null,
        "rooms": null
      }
    },
    {
      "type": "Feature",
      "geometry": {
        "type": "Point",
        "coordinates": [
          121.0199912,
          14.5536647
        ]
      },
      "properties": {
        "osm_id": 10603801375,
        "osm_type": "nodes",
        "amenity": "fast_food",
        "tourism": null,
        "beds": null,
        "name": "Popeyes",
        "opening_hours": null,
        "shop": null,
        "rooms": null
      }
    },
    {
      "type": "Feature",
      "geometry": {
        "type": "Point",
        "coordinates": [
          121.0211296,
          14.5544116
        ]
      },
      "properties": {
        "osm_id": 2820150666,
        "osm_type": "nodes",
        "amenity": "restaurant",
        "tourism": null,
        "beds": null,
        "name": "Balkan",
        "opening_hours": null,
        "shop": null,
        "rooms": null
      }
    },
    {
      "type": "Feature",
      "geometry": {
        "type": "Point",
        "coordinates": [
          121.0203537,
          14.5544968
        ]
      },
      "properties": {
        "osm_id": 1689432633,
        "osm_type": "nodes",
        "amenity": "cafe",
        "tourism": null,
        "beds": null,
        "name": "Local Edition",
        "opening_hours": null,
        "shop": null,
        "rooms": null
      }
    },
    {
      "type": "Feature",
      "geometry": {
        "type": "Point",
        "coordinates": [
          121.0202416,
          14.5545353
        ]
      },
      "properties": {
        "osm_id": 1689432656,
        "osm_type": "nodes",
        "amenity": "restaurant",
        "tourism": null,
        "beds": null,
        "name": "Fresh Choice",
        "opening_hours": null,
        "shop": null,
        "rooms": null
      }
    },
    {
      "type": "Feature",
      "geometry": {
        "type": "Point",
        "coordinates": [
          121.0205489,
          14.5544734
        ]
      },
      "properties": {
        "osm_id": 3063856236,
        "osm_type": "nodes",
        "amenity": "restaurant",
        "tourism": null,
        "beds": null,
        "name": "Chew & Brew",
        "opening_hours": null,
        "shop": null,
        "rooms": null
      }
    },
    {
      "type": "Feature",
      "geometry": {
        "type": "Point",
        "coordinates": [
          121.0216935,
          14.5542853
        ]
      },
      "properties": {
        "osm_id": 6464239785,
        "osm_type": "nodes",
        "amenity": "restaurant",
        "tourism": null,
        "beds": null,
        "name": "Lo de Alberto Taqueria",
        "opening_hours": null,
        "shop": null,
        "rooms": null
      }
    },
    {
      "type": "Feature",
      "geometry": {
        "type": "Point",
        "coordinates": [
          121.0201174,
          14.5523683
        ]
      },
      "properties": {
        "osm_id": 2384533215,
        "osm_type": "nodes",
        "amenity": "fast_food",
        "tourism": null,
        "beds": null,
        "name": "8Cuts Burger Blends",
        "opening_hours": null,
        "shop": null,
        "rooms": null
      }
    },
    {
      "type": "Feature",
      "geometry": {
        "type": "Point",
        "coordinates": [
          121.0209611,
          14.5525529
        ]
      },
      "properties": {
        "osm_id": 2423890121,
        "osm_type": "nodes",
        "amenity": "restaurant",
        "tourism": null,
        "beds": null,
        "name": "Mesa",
        "opening_hours": null,
        "shop": null,
        "rooms": null
      }
    },
    {
      "type": "Feature",
      "geometry": {
        "type": "Point",
        "coordinates": [
          121.0206204,
          14.5525772
        ]
      },
      "properties": {
        "osm_id": 4810887421,
        "osm_type": "nodes",
        "amenity": "restaurant",
        "tourism": null,
        "beds": null,
        "name": "Chili's",
        "opening_hours": null,
        "shop": null,
        "rooms": null
      }
    },
    {
      "type": "Feature",
      "geometry": {
        "type": "Point",
        "coordinates": [
          121.0210975,
          14.5526436
        ]
      },
      "properties": {
        "osm_id": 2423890120,
        "osm_type": "nodes",
        "amenity": "restaurant",
        "tourism": null,
        "beds": null,
        "name": "Lorenzo's Way",
        "opening_hours": "Mo-Su 10:00-22:00",
        "shop": null,
        "rooms": null
      }
    },
    {
      "type": "Feature",
      "geometry": {
        "type": "Point",
        "coordinates": [
          121.0205176,
          14.552675
        ]
      },
      "properties": {
        "osm_id": 4810884524,
        "osm_type": "nodes",
        "amenity": "fast_food",
        "tourism": null,
        "beds": null,
        "name": "California Pizza (2nd flr)",
        "opening_hours": null,
        "shop": null,
        "rooms": null
      }
    },
    {
      "type": "Feature",
      "geometry": {
        "type": "Point",
        "coordinates": [
          121.020424,
          14.5526477
        ]
      },
      "properties": {
        "osm_id": 9830369567,
        "osm_type": "nodes",
        "amenity": "restaurant",
        "tourism": null,
        "beds": null,
        "name": "Ippudo",
        "opening_hours": null,
        "shop": null,
        "rooms": null
      }
    },
    {
      "type": "Feature",
      "geometry": {
        "type": "Point",
        "coordinates": [
          121.0204197,
          14.5517669
        ]
      },
      "properties": {
        "osm_id": 5140800127,
        "osm_type": "nodes",
        "amenity": "bar",
        "tourism": null,
        "beds": null,
        "name": "The Perfect Pint",
        "opening_hours": null,
        "shop": null,
        "rooms": null
      }
    },
    {
      "type": "Feature",
      "geometry": {
        "type": "Point",
        "coordinates": [
          121.0202958,
          14.5520875
        ]
      },
      "properties": {
        "osm_id": 3336455793,
        "osm_type": "nodes",
        "amenity": "restaurant",
        "tourism": null,
        "beds": null,
        "name": "Manam",
        "opening_hours": null,
        "shop": null,
        "rooms": null
      }
    },
    {
      "type": "Feature",
      "geometry": {
        "type": "Point",
        "coordinates": [
          121.020207,
          14.5520952
        ]
      },
      "properties": {
        "osm_id": 3336455593,
        "osm_type": "nodes",
        "amenity": "bar",
        "tourism": null,
        "beds": null,
        "name": "Barcino",
        "opening_hours": null,
        "shop": null,
        "rooms": null
      }
    },
    {
      "type": "Feature",
      "geometry": {
        "type": "Point",
        "coordinates": [
          121.0200362,
          14.5521165
        ]
      },
      "properties": {
        "osm_id": 255060724,
        "osm_type": "nodes",
        "amenity": "restaurant",
        "tourism": null,
        "beds": null,
        "name": "Watami",
        "opening_hours": null,
        "shop": null,
        "rooms": null
      }
    },
    {
      "type": "Feature",
      "geometry": {
        "type": "Point",
        "coordinates": [
          121.021799,
          14.5519929
        ]
      },
      "properties": {
        "osm_id": 10289893356,
        "osm_type": "nodes",
        "amenity": "restaurant",
        "tourism": null,
        "beds": null,
        "name": "Wild Flour",
        "opening_hours": null,
        "shop": null,
        "rooms": null
      }
    },
    {
      "type": "Feature",
      "geometry": {
        "type": "Point",
        "coordinates": [
          121.0217162,
          14.5519473
        ]
      },
      "properties": {
        "osm_id": 2785958705,
        "osm_type": "nodes",
        "amenity": "cafe",
        "tourism": null,
        "beds": null,
        "name": "Caf\u00e9 Breton",
        "opening_hours": null,
        "shop": null,
        "rooms": null
      }
    },
    {
      "type": "Feature",
      "geometry": {
        "type": "Point",
        "coordinates": [
          121.0202187,
          14.5517838
        ]
      },
      "properties": {
        "osm_id": 2597472187,
        "osm_type": "nodes",
        "amenity": "restaurant",
        "tourism": null,
        "beds": null,
        "name": "Tender Bob's",
        "opening_hours": null,
        "shop": null,
        "rooms": null
      }
    },
    {
      "type": "Feature",
      "geometry": {
        "type": "Point",
        "coordinates": [
          121.0218009,
          14.5518813
        ]
      },
      "properties": {
        "osm_id": 10289893354,
        "osm_type": "nodes",
        "amenity": "restaurant",
        "tourism": null,
        "beds": null,
        "name": "Din Tai Fung",
        "opening_hours": null,
        "shop": null,
        "rooms": null
      }
    },
    {
      "type": "Feature",
      "geometry": {
        "type": "Point",
        "coordinates": [
          121.0204099,
          14.5514322
        ]
      },
      "properties": {
        "osm_id": 2556174812,
        "osm_type": "nodes",
        "amenity": "restaurant",
        "tourism": null,
        "beds": null,
        "name": "Almon Marina",
        "opening_hours": null,
        "shop": null,
        "rooms": null
      }
    },
    {
      "type": "Feature",
      "geometry": {
        "type": "Point",
        "coordinates": [
          121.0205509,
          14.5514185
        ]
      },
      "properties": {
        "osm_id": 2556174818,
        "osm_type": "nodes",
        "amenity": "cafe",
        "tourism": null,
        "beds": null,
        "name": "The Coffee Bean & Tea Leaf",
        "opening_hours": null,
        "shop": null,
        "rooms": null
      }
    },
    {
      "type": "Feature",
      "geometry": {
        "type": "Point",
        "coordinates": [
          121.0218868,
          14.5550384
        ]
      },
      "properties": {
        "osm_id": 1689432584,
        "osm_type": "nodes",
        "amenity": "restaurant",
        "tourism": null,
        "beds": null,
        "name": "Chopstop",
        "opening_hours": null,
        "shop": null,
        "rooms": null
      }
    },
    {
      "type": "Feature",
      "geometry": {
        "type": "Point",
        "coordinates": [
          121.0222215,
          14.5548352
        ]
      },
      "properties": {
        "osm_id": 1689432600,
        "osm_type": "nodes",
        "amenity": "restaurant",
        "tourism": null,
        "beds": null,
        "name": "Pancake House",
        "opening_hours": null,
        "shop": null,
        "rooms": null
      }
    },
    {
      "type": "Feature",
      "geometry": {
        "type": "Point",
        "coordinates": [
          121.0218322,
          14.5544885
        ]
      },
      "properties": {
        "osm_id": 1689432615,
        "osm_type": "nodes",
        "amenity": "restaurant",
        "tourism": null,
        "beds": null,
        "name": "Piggy Wiggy",
        "opening_hours": null,
        "shop": null,
        "rooms": null
      }
    },
    {
      "type": "Feature",
      "geometry": {
        "type": "Point",
        "coordinates": [
          121.0219007,
          14.5545057
        ]
      },
      "properties": {
        "osm_id": 2695870337,
        "osm_type": "nodes",
        "amenity": "restaurant",
        "tourism": null,
        "beds": null,
        "name": "B\u00e0 N\u1ed9i's",
        "opening_hours": null,
        "shop": null,
        "rooms": null
      }
    },
    {
      "type": "Feature",
      "geometry": {
        "type": "Point",
        "coordinates": [
          121.0204746,
          14.5544941
        ]
      },
      "properties": {
        "osm_id": 10796669928,
        "osm_type": "nodes",
        "amenity": "restaurant",
        "tourism": null,
        "beds": null,
        "name": "Sourdough",
        "opening_hours": "11:00-21:00",
        "shop": null,
        "rooms": null
      }
    },
    {
      "type": "Feature",
      "geometry": {
        "type": "Point",
        "coordinates": [
          121.0203815,
          14.5527533
        ]
      },
      "properties": {
        "osm_id": 9830369576,
        "osm_type": "nodes",
        "amenity": "cafe",
        "tourism": null,
        "beds": null,
        "name": "Paul",
        "opening_hours": null,
        "shop": "bakery",
        "rooms": null
      }
    },
    {
      "type": "Feature",
      "geometry": {
        "type": "Point",
        "coordinates": [
          121.0201197,
          14.5521076
        ]
      },
      "properties": {
        "osm_id": 3336455493,
        "osm_type": "nodes",
        "amenity": "restaurant",
        "tourism": null,
        "beds": null,
        "name": "Cyma Estiatorio",
        "opening_hours": null,
        "shop": null,
        "rooms": null
      }
    },
    {
      "type": "Feature",
      "geometry": {
        "type": "Point",
        "coordinates": [
          121.0198647,
          14.5507527
        ]
      },
      "properties": {
        "osm_id": 1515384284,
        "osm_type": "nodes",
        "amenity": "fast_food",
        "tourism": null,
        "beds": null,
        "name": "The Cheese Steak Shop",
        "opening_hours": null,
        "shop": null,
        "rooms": null
      }
    },
    {
      "type": "Feature",
      "geometry": {
        "type": "Point",
        "coordinates": [
          121.020082,
          14.5536282
        ]
      },
      "properties": {
        "osm_id": 1750310918,
        "osm_type": "nodes",
        "amenity": "restaurant",
        "tourism": null,
        "beds": null,
        "name": "Giligan's",
        "opening_hours": null,
        "shop": null,
        "rooms": null
      }
    },
    {
      "type": "Feature",
      "geometry": {
        "type": "Point",
        "coordinates": [
          121.0218584,
          14.5520019
        ]
      },
      "properties": {
        "osm_id": 2785958702,
        "osm_type": "nodes",
        "amenity": "pub",
        "tourism": null,
        "beds": null,
        "name": "Caf\u00e9 Havana",
        "opening_hours": null,
        "shop": null,
        "rooms": null
      }
    },
    {
      "type": "Feature",
      "geometry": {
        "type": "Point",
        "coordinates": [
          121.0220269,
          14.5531509
        ]
      },
      "properties": {
        "osm_id": 4175061989,
        "osm_type": "nodes",
        "amenity": "restaurant",
        "tourism": null,
        "beds": null,
        "name": "Fely J's Kitchen",
        "opening_hours": "Mo-Su 10:00-22:00",
        "shop": null,
        "rooms": null
      }
    },
    {
      "type": "Feature",
      "geometry": {
        "type": "Point",
        "coordinates": [
          121.0216158,
          14.550522
        ]
      },
      "properties": {
        "osm_id": 4165197029,
        "osm_type": "nodes",
        "amenity": "bar",
        "tourism": null,
        "beds": null,
        "name": "Charlie Does Manila",
        "opening_hours": null,
        "shop": null,
        "rooms": null
      }
    },
    {
      "type": "Feature",
      "geometry": {
        "type": "Point",
        "coordinates": [
          121.0203417,
          14.552647
        ]
      },
      "properties": {
        "osm_id": 2785958706,
        "osm_type": "nodes",
        "amenity": "restaurant",
        "tourism": null,
        "beds": null,
        "name": "Tapella",
        "opening_hours": null,
        "shop": null,
        "rooms": null
      }
    },
    {
      "type": "Feature",
      "geometry": {
        "type": "Point",
        "coordinates": [
          121.0204948,
          14.5517598
        ]
      },
      "properties": {
        "osm_id": 255049910,
        "osm_type": "nodes",
        "amenity": "restaurant",
        "tourism": null,
        "beds": null,
        "name": "Chihuahua",
        "opening_hours": null,
        "shop": null,
        "rooms": null
      }
    },
    {
      "type": "Feature",
      "geometry": {
        "type": "Point",
        "coordinates": [
          121.0213355,
          14.5555319
        ]
      },
      "properties": {
        "osm_id": 1317298005,
        "osm_type": "nodes",
        "amenity": "restaurant",
        "tourism": null,
        "beds": null,
        "name": "Tapa King",
        "opening_hours": null,
        "shop": null,
        "rooms": null
      }
    },
    {
      "type": "Feature",
      "geometry": {
        "type": "Point",
        "coordinates": [
          121.0212788,
          14.5554069
        ]
      },